Time_s,Height_m,X_m,Y_m,Roll_deg,Pitch_deg,Yaw_deg,p,q,r,u,v,w,tx,ty,tz,Thrust
0.01,0.000981,0,0,-0.728892128279883,0,0,-1.27215675303528,0,0,0,0,-0.0981,-0.00872699532582205,0,0,1.33416
0.02,0.00294140450089111,0,-6.70149189851043e-05,0.999397948728878,0,0,3.01643522733492,0,0,0,-0.00420707507103693,-0.196109838060597,0.0292452010788232,0,0,1.33416
0.03,0.00588178107517639,0,-1.50070425174796e-05,0.250517861474417,0,0,-1.30704232252128,0,0,0,7.14210015963735e-05,-0.294083639594662,-0.0292452010788232,0,0,1.33416
0.04,0.00980103144553886,0,-8.05715915996282e-05,1.95921973868809,0,0,2.98224736923865,0,0,0,-0.00827002472635963,-0.391892623620109,0.0292452010788232,0,0,1.33416
0.05,0.0146957395904123,0,9.0325509754755e-05,1.19114321563445,0,0,-1.34054642345562,0,0,0,0.000345607489093909,-0.489768942444171,-0.0292452010788232,0,0,1.33416
0.06,0.0205710830775191,0,9.18541541517095e-05,2.88103258576492,0,0,2.94941335032299,0,0,0,-0.012060758303465,-0.587410565440866,0.0292452010788232,0,0,1.33416
0.07,0.0274140741691808,0,0.000445701591780925,2.09451980576974,0,0,-1.37272376199297,0,0,0,0.000945560207026852,-0.685212709173354,-0.0292452010788232,0,0,1.33416
0.08,0.0352417027369211,0,0.000577237663539184,3.76634164409751,0,0,2.91787955855639,0,0,0,-0.0154636958305796,-0.782720627962517,0.0292452010788232,0,0,1.33416
0.09,0.0440260529318628,0,0.00117537565517017,2.96212268293567,0,0,-1.40362687792424,0,0,0,0.00198221142799493,-0.880466833493404,-0.0292452010788232,0,0,1.33416
0.1,0.0538012297051774,0,0.00149719849522897,4.61659246372012,0,0,2.88759450494375,0,0,0,-0.0183746899471813,-0.977874674827334,0.0292452010788232,0,0,1.33416
0.11,0.0645192564655412,0,0.00239834476471914,3.79536848616584,0,0,-1.43330623046463,0,0,0,0.0035554551058087,-1.07557844023013,-0.0292452010788232,0,0,1.33416
0.12,0.0762364307408665,0,0.00296819183209035,5.43317335088568,0,0,2.85850873945416,0,0,0,-0.0207000469505118,-1.17291964551781,0.0292452010788232,0,0,1.33416
0.13,0.0888797984322524,0,0.0042285386427231,4.59561775558809,0,0,-1.46181028064442,0,0,0,0.00575508332093778,-1.27059005412544,-0.0292452010788232,0,0,1.33416
0.14,0.102532710152813,0,0.00510169741898326,6.21741763491949,0,0,2.83057477027797,0,0,0,-0.022355637784575,-1.36789775657362,0.0292452010788232,0,0,1.33416
0.15,0.117092525598849,0,0.0067750068950632,5.36417715394122,0,0,-1.48918557043709,0,0,0,0.00866163765480639,-1.46553979143755,-0.0292452010788232,0,0,1.33416
0.16,0.132674300134693,0,0.0080044053363966,6.97060584530556,0,0,2.80374698628115,0,0,0,-0.0232660905067926,-1.56284672030455,0.0292452010788232,0,0,1.33416
0.17,0.149141198951879,0,0.0101421027951896,6.10230160011956,0,0,-1.51547679875397,0,0,0,0.0123471834512896,-1.66046156771805,-0.0292452010788232,0,0,1.33416
0.18,0.166644432967706,0,0.0117783980509928,7.69396780256034,0,0,2.77798158253061,0,0,0,-0.0233640564652418,-1.7577999751494,0.0292452010788232,0,0,1.33416
0.19,0.185008657445888,0,0.0144296631250783,6.81119631822925,0,0,-1.5407268944295,0,0,0,0.016876014266664,-1.85538531629513,-0.0292452010788232,0,0,1.33416
0.2,0.204425496585278,0,0.0165213282983048,8.38868462630782,0,0,2.75323648876859,0,0,0,-0.0225895430874275,-1.9527869228775,0.0292452010788232,0,0,1.33416
0.21,0.224676965823766,0,0.0197331836783092,7.49201880550179,0,0,-1.56497708631628,0,0,0,0.0223052931811001,-2.05033721297034,-0.0292452010788232,0,0,1.33416
0.22,0.245999174886494,0,0.0223265924511763,9.05589066383492,0,0,2.72947130071954,0,0,0,-0.0208893068140534,-2.1478331687167,0.0292452010788232,0,0,1.33416
0.23,0.268127547843452,0,0.0261439901216273,8.14588072227833,0,0,-1.58826697060435,0,0,0,0.0286856370506891,-2.24533990326472,-0.0292452010788232,0,0,1.33416
0.24,0.291346574083382,0,0.0292834991119504,9.69667534227593,0,0,2.70664721411724,0,0,0,-0.0182163003047315,-2.34296076124035,0.0292452010788232,0,0,1.33416
0.25,0.315341306146652,0,0.03374940398951,8.77384970715053,0,0,-1.61063457547461,0,0,0,0.0360616492220433,-2.44041272925104,-0.0292452010788232,0,0,1.33416
0.26,0.340448336271167,0,0.0374774327386074,10.3120849474507,0,0,2.68472696134439,0,0,0,-0.0145291685952576,-2.53818842947767,0.0292452010788232,0,0,1.33416
0.27,0.366298729912232,0,0.0426329036529936,9.37695112022179,0,0,-1.632116423192,0,0,0,0.0444724057131564,-2.63557195359959,-0.0292452010788232,0,0,1.33416
0.28,0.393284741320408,0,0.0469900121765513,10.9031243322605,0,0,2.66367475058134,0,0,0,-0.00979178939754272,-2.73353181524259,0.0292452010788232,0,0,1.33416
0.29,0.420979991349613,0,0.0528742801607317,9.95616971733543,0,0,-1.65274758973979,0,0,0,0.0539518993847467,-2.83083097896201,-0.0292452010788232,0,0,1.33416
0.3,0.449835798105219,0,0.0578992440198877,11.4707585574319,0,0,2.64345620736451,0,0,0,-0.00397285320406431,-2.92900369912098,0.0292452010788232,0,0,1.33416
0.31,0.479365032005648,0,0.0645497878982458,10.5124512580034,0,0,-1.67256176209228,0,0,0,0.0645294461851317,-3.0262005612347,-0.0292452010788232,0,0,1.33416
0.32,0.510081326002609,0,0.0702796707700312,12.0159144672865,0,0,2.62403831845906,0,0,0,0.00295452070997958,-3.1246142189282,0.0292452010788232,0,0,1.33416
0.33,0.541433639782012,0,0.0777322900517014,11.0467040496609,0,0,-1.69159129321962,0,0,0,0.0762300571475649,-3.22168901559164,-0.0292452010788232,0,0,1.33416
0.34,0.574001027524038,0,0.0842025137963691,12.5394822031108,0,0,2.60538937795427,0,0,0,0.011013135900046,-3.32037107975796,0.0292452010788232,0,0,1.33416
0.35,0.607165517488845,0,0.0924913988962947,11.5598004307687,0,0,-1.70986725491431,0,0,0,0.0890747794502509,-3.41730241446696,-0.0292452010788232,0,0,1.33416
0.36,0.64157455287145,0,0.0997358111344355,13.0423166565965,0,0,2.58747893549347,0,0,0,0.0202220411364945,-3.51627975500061,0.0292452010788232,0,0,1.33416
0.37,0.676540343694058,0,0.108893610957343,12.0525781951847,0,0,-1.7274194885259,0,0,0,0.103081009513985,-3.61304477690847,-0.0292452010788232,0,0,1.33416
0.38,0.71278155714604,0,0.116944550182428,13.5252388657242,0,0,2.57027774655412,0,0,0,0.0305968263906216,-3.71234367792043,0.0292452010788232,0,0,1.33416
0.39,0.749537826566065,0,0.127002437115202,12.5258419601298,0,0,-1.74427665368646,0,0,0,0.118262780808439,-3.80891824892253,-0.0292452010788232,0,0,1.33416
0.4,0.787601750878611,0,0.135890795377654,13.9890373553704,0,0,2.55375772469677,0,0,0,0.042149894960118,-3.90856442355557,0.0292452010788232,0,0,1.33416
0.41,0.826137751350603,0,0.146878527743866,12.9803644799831,0,0,-1.76046627510667,0,0,0,0.13463102876334,-4.00492327459373,-0.0292452010788232,0,0,1.33416
0.42,0.866014944495359,0,0.156633810951266,14.4344694248266,0,0,2.53789189570497,0,0,0,0.0548907140070985,-4.10494188084604,0.0292452010788232,0,0,1.33416
0.43,0.906320022069332,0,0.168579792988138,13.4168879080502,0,0,-1.77601478751863,0,0,0,0.152193834932939,-4.20105875789671,-0.0292452010788232,0,0,1.33416
0.44,0.948001087281938,0,0.179230178872966,14.8622623843323,0,0,2.52265435354124,0,0,0,0.0688260455438697,-4.30147441501018,0.0292452010788232,0,0,1.33416
0.45,0.990064697978989,0,0.192161518296093,13.8361250083658,0,0,-1.79094757883908,0,0,0,0.170956652339124,-4.39732221522518,-0.0292452010788232,0,0,1.33416
0.46,1.03354030136161,0,0.203733912107765,15.2731147426416,0,0,2.5080202180472,0,0,0,0.0839601596878664,-4.49815902028189,0.0292452010788232,0,0,1.33416
0.47,1.07735202528462,0,0.217676475332689,14.2387603195089,0,0,-1.80528903162325,0,0,0,0.190922513718145,-4.59370991875014,-0.0292452010788232,0,0,1.33416
0.48,1.12261291115983,0,0.230196563314738,15.6676973475619,0,0,2.49396559431872,0,0,0,0.100295031815582,-4.69499146319419,0.0292452010788232,0,0,1.33416
0.49,1.16816246455872,0,0.245175028407153,14.6254512723308,0,0,-1.81906256287716,0,0,0,0.212092224216232,-4.79021703078787,-0.0292452010788232,0,0,1.33416
0.5,1.2151994687874,0,0.258667329123452,16.0466544813273,0,0,2.48046753368989,0,0,0,0.117830525073808,-4.89196641665129,0.0292452010788232,0,0,1.33416
0.51,1.26247671427953,0,0.274705236551586,14.9968292634209,0,0,-1.83229066229341,0,0,0,0.234464539918461,-4.98683772941216,-0.0292452010788232,0,0,1.33416
0.52,1.31128077573755,0,0.289193150127614,16.4106049125957,0,0,2.46750399626196,0,0,0,0.136564559553207,-5.08907758507564,0.0292452010788232,0,0,1.33416
0.53,1.36027573086653,0,0.306312951391348,15.3535006860639,0,0,-1.84499492897278,0,0,0,0.258036333451373,-5.18356532558613,-0.0292452010788232,0,0,1.33416
0.54,1.41083790125816,0,0.321818806737891,16.7601429067858,0,0,2.45505381491617,0,0,0,0.156493269292399,-5.28631782094815,0.0292452010788232,0,0,1.33416
0.55,1.46154074555811,0,0.340041910949494,15.6960479203702,0,0,-1.85719610669165,0,0,0,0.282802747771315,-5.38039237211989,-0.0292452010788232,0,0,1.33416
0.56,1.51385219772902,0,0.356587011036853,17.0958391964059,0,0,2.44309666075168,0,0,0,0.177611148158705,-5.48367923308377,0.0292452010788232,0,0,1.33416
0.57,1.56625327844698,0,0.375933829528061,16.0250302841979,0,0,-1.86891411777285,0,0,0,0.30875733913584,-5.57731076478179,-0.0292452010788232,0,0,1.33416
0.58,1.62030531334532,0,0.393538494779027,17.4182419129571,0,0,2.43161300989211,0,0,0,0.199911185543019,-5.68115328699967,0.0292452010788232,0,0,1.33416
0.59,1.67439514996074,0,0.414028483808528,16.3409849464181,0,0,-1.88016809561524,0,0,0,0.335892210153305,-5.77431183590616,-0.0292452010788232,0,0,1.33416
0.6,1.73009606612195,0,0.43268771836638,17.7278774819329,0,0,2.42058411160657,0,0,0,0.223384992709519,-5.87006729943143,0.0292452010788232,0,0,1.27524753148047
0.61,1.78541758515313,0,0.454194558769915,16.6444278040144,0,0,-1.89097641593506,0,0,0,0.364034307113932,-5.92432490194896,-0.0292452010788232,0,0,1.07299509153361
0.62,1.84187844421622,0,0.473672777221007,18.0252514823772,0,0,2.40999195769314,0,0,0,0.248993437083284,-5.96743649065416,0.0292452010788232,0,0,0.912916324575981
0.63,1.89748550126304,0,0.495895940420866,16.9358543244498,0,0,-1.90135672677022,0,0,0,0.392562381698997,-5.97545249639178,-0.0292452010788232,0,0,0.761620200078288
0.64,1.95388612010394,0,0.51596951572802,18.310849472404,0,0,2.39981925307468,0,0,0,0.277346376927048,-5.9802057907476,0.0292452010788232,0,0,0.647043851995128
0.65,2.00908809746357,0,0.538684500180451,17.215740354676,0,0,-1.91132597729631,0,0,0,0.422190553343571,-5.95432980003165,-0.0292452010788232,0,0,0.534058490777358
0.66,2.06483283978069,0,0.559186776060826,18.5851377820257,0,0,2.39004938755911,0,0,0,0.308491643363144,-5.93152838893545,0.0292452010788232,0,0,0.454016894627843
0.67,2.11913151678876,0,0.582227943022978,17.4845428981053,0,0,-1.92090044550157,0,0,0,0.453387696660764,-5.88105913884155,-0.0292452010788232,0,0,0.369731571830124
0.68,2.17379374859383,0,0.603036524771775,18.8485642745863,0,0,2.38066640871796,0,0,0,0.342399907159968,-5.83886366570209,0.0292452010788232,0,0,0.315924770632725
0.69,2.22683553357943,0,0.626283699633487,17.7427008608147,0,0,-1.9300957647659,0,0,0,0.486446134983432,-5.77078773590368,-0.0292452010788232,0,0,0.253035089539145
0.7,2.28011558721355,0,0.647310486128118,19.1015590780416,0,0,2.37165499583892,0,0,0,0.378991798276584,-5.71535334623289,0.0292452010788232,0,0,0.219187196065979
0.71,2.33165538755685,0,0.670678519599332,17.9906357682009,0,0,-1.93892694938736,0,0,0,0.521531931089053,-5.6349059018092,-0.0292452010788232,0,0,0.172141305087707
0.72,2.38334876294917,0,0.691861903465584,19.34453528728,0,0,2.36300043490989,0,0,0,0.418156866514458,-5.57086644515493,0.0292452010788232,0,0,0.153511665743464
0.73,2.43322267058824,0,0.715292553361716,18.2287524532545,0,0,-1.94740841909781,0,0,0,0.558721650550496,-5.48195679430821,-0.0292452010788232,0,0,0.118089348468671
0.74,2.48319599305103,0,0.73659133061018,19.5778896386326,0,0,2.35468859459365,0,0,0,0.459766735352774,-5.41279255574725,0.0292452010788232,0,0,0.111101350031368
0.75,2.53130064603369,0,0.760046958864201,18.4574397175801,0,0,-1.95555402260772,0,0,0,0.598029184577648,-5.31832703471028,-0.0292452010788232,0,0,0.0840941496771848
0.76,2.57947349972805,0,0.781435582537495,19.8020031576716,0,0,2.34670590315393,0,0,0,0.503684134452484,-5.24664396063377,0.0292452010788232,0,0,0.0860534137797702
0.77,2.62575283191527,0,0.804895109351392,18.6770709662383,0,0,-1.96337706021865,0,0,0,0.639425271206936,-5.14901885632716,-0.0292452010788232,0,0,0.066708
0.78,2.67208605681542,0,0.826360616644791,20.0172417813567,0,0,2.33903932629523,0,0,0,0.549763215906815,-5.07672312979041,0.0292452010788232,0,0,0.0736493809022702
0.79,2.71652561845702,0,0.849817974931757,18.8880048174497,0,0,-1.97089030554018,0,0,0,0.682850011738286,-4.97844743152677,-0.0292452010788232,0,0,0.066708
0.8,2.76101619849021,0,0.871358767536707,20.2239569555439,0,0,2.33167634588012,0,0,0,0.597842748121272,-4.90680737607533,0.0292452010788232,0,0,0.0695923151062408
0.81,2.80361304217222,0,0.894812224465553,19.0905856881531,0,0,-1.97810602634698,0,0,0,0.728219003559002,-4.80783261134182,-0.0292452010788232,0,0,0.066708
0.82,2.84626792283262,0,0.91643009214308,20.4224862088332,0,0,2.32460493948946,0,0,0,0.647812514125024,-4.7379372534155,0.0292452010788232,0,0,0.072685343999809
0.83,2.88702889990025,0,0.939881726305082,19.2851443563767,0,0,-1.98503600460983,0,0,0,0.775445462688184,-4.63821606850794,-0.0292452010788232,0,0,0.066708
0.84,2.92786346783108,0,0.961581432361253,20.6131537036923,0,0,2.31781356079187,0,0,0,0.699564271131694,-4.57099569467906,0.0292452010788232,0,0,0.0818702261435149
0.85,2.96680898879954,0,0.985038633042672,19.4719985013386,0,0,-1.99169155573347,0,0,0,0.824441588248057,-4.4710440325159,-0.0292452010788232,0,0,0.0705296689089883
0.86,3.00585027727616,0,1.00682900186778,20.796270765755,0,0,2.3112911206907,0,0,0,0.752979558600673,-4.40720382769106,0.0292452010788232,0,0,0.0956400756520406
0.87,3.0430207311389,0,1.03030701002868,19.65145322216,0,0,-1.99808354703261,0,0,0,0.875116217613266,-4.30845293363191,-0.0292452010788232,0,0,0.0843889281077406
0.88,3.08031290532756,0,1.05220278220115,20.97213639216,0,0,2.30502696921754,0,0,0,0.807920877052598,-4.24836142576033,0.0292452010788232,0,0,0.111734383344698
0.89,3.11575426968422,0,1.07571931014147,19.8238015360369,0,0,-2.00422241547631,0,0,0,0.927370921368851,-4.15104289456165,-0.0292452010788232,0,0,0.100121073480958
0.9,3.15134610620497,0,1.09773709092804,21.1410377397593,0,0,2.29901087814271,0,0,0,0.864279152840701,-4.09495256661414,0.0292452010788232,0,0,0.129383244561794
0.91,3.18510796604755,0,1.12131157494662,19.9893248566842,0,0,-2.01011818472964,0,0,0,0.98110949028287,-3.99920228743125,-0.0292452010788232,0,0,0.117062880308487
0.92,3.21905111751048,0,1.14346925716517,21.3032505939937,0,0,2.29323302427445,0,0,0,0.921952353345411,-3.94727855407979,0.0292452010788232,0,0,0.148011777857161
0.93,3.2511851943499,0,1.16712228549229,20.148293453834,0,0,-2.01578048152054,0,0,0,1.03623900267473,-3.8531617099458,-0.0292452010788232,0,0,0.134720631606493
0.94,3.28353290349308,0,1.18943860645075,21.4590398192005,0,0,2.28768397341937,0,0,0,0.980845255240288,-3.80550486330017,0.0292452010788232,0,0,0.167192544270111
0.95,3.31409196921622,0,1.21319148240277,20.3009668945366,0,0,-2.02121855135851,0,0,0,1.09267049056945,-3.71303478810398,-0.0292452010788232,0,0,0.152728673274143
0.96,3.34489812193065,0,1.23568568458212,21.608659791089,0,0,2.28235466497816,0,0,0,1.04086913745671,-3.66969660955648,0.0292452010788232,0,0,0.18660947907023
0.97,3.37393520238451,0,1.25956009395742,20.4475944669873,0,0,-2.02644127363091,0,0,0,1.15031931905008,-3.57884899196004,-0.0292452010788232,0,0,0.170818005005978
0.98,3.40325363587599,0,1.28225166590683,21.7523548120908,0,0,2.27723639715121,0,0,0,1.10194143277263,-3.539845318377,0.0292452010788232,0,0,0.206030558891118
0.99,3.43082143234868,0,1.30626942468348,20.5884155875691,0,0,-2.03145717610131,0,0,0,1.20910536247777,-3.45056888245318,-0.0292452010788232,0,0,0.188792485037383
1,3.4587054351069,0,1.3291779038921,21.8903595102608,0,0,2.27232081273021,0,0,0,1.16398536100923,-3.41588910447654,0.0292452010788232,0,0,0.225287095867305
1.01,3.48485590941668,0,1.35336076774514,20.7236601917757,0,0,-2.03627444883389,0,0,0,1.26895303864274,-3.32811362386126,-0.0292452010788232,0,0,0.206510810174839
1.02,3.51135786512346,0,1.3765055913734,22.0228992223834,0,0,2.26759988545229,0,0,0,1.22692955914522,-3.29772785832455,0.0292452010788232,0,0,0.244258058306436
1.03,3.53614194730401,0,1.40087511275475,20.8535491096558,0,0,-2.04090095756626,0,0,0,1.32979124529276,-3.21137015350554,-0.0292452010788232,0,0,0.223872875631895
1.04,3.56131308651748,0,1.42427550530602,22.1501903619059,0,0,2.26306590689457,0,0,0,1.29070771830381,-3.18523465297077,0.0292452010788232,0,0,0.262858203168847
1.05,3.58478047413428,0,1.44885292709675,20.9782944263879,0,0,-2.04534425655283,0,0,0,1.39155323127937,-3.10020306413593,-0.0292452010788232,0,0,0.24080945564691
1.06,3.60867070644483,0,1.47252781658993,22.2724407723033,0,0,2.25871147388773,0,0,0,1.35525823385438,-3.07826429067413,0.0292452010788232,0,0,0.281029098536946
1.07,3.63086973217867,0,1.49733399385809,21.0980998285774,0,0,-2.04961160089952,0,0,0,1.45417642560249,-2.99446199927998,-0.0292452010788232,0,0,0.257274401317966
1.08,3.65352753823617,0,1.52130194998192,22.389850066449,0,0,2.25452947642797,0,0,0,1.42052387231697,-2.97665968647831,0.0292452010788232,0,0,0.298732336646172
1.09,3.67450508811897,0,1.54635729332646,21.2131609368401,0,0,-2.05370995841009,0,0,0,1.51760224106447,-2.89398716823329,-0.0292452010788232,0,0,0.273238746025492
1.1,3.69597745600165,0,1.57063648254221,22.5026099525465,0,0,2.25051308606761,0,0,0,1.48645145701951,-2.88025661713581,0.0292452010788232,0,0,0.315944406872724
1.11,3.71577892503718,0,1.59596091800463,21.3236656252157,0,0,-2.05764602096324,0,0,0,1.58177586443401,-2.79861344048271,-0.0292452010788232,0,0,0.28868625602086
1.12,3.73611131926812,0,1.6205690717122,22.6109045471545,0,0,2.24665574476552,0,0,0,1.55299157329079,-2.7888872357745,0.0292452010788232,0,0,0.332652826215334
1.13,3.75478059445638,0,1.64618201339453,21.4297943279315,0,0,-2.06142621543929,0,0,0,1.64664604150426,-2.70817336793073,-0.0292452010788232,0,0,0.303610075482756
1.14,3.77401694887253,0,1.67113640616362,22.7149106758161,0,0,2.242951154179,0,0,0,1.62009829320373,-2.70238265560949,0.0292452010788232,0,0,0.348853222058332
1.15,3.79159641213973,0,1.69705673858166,21.5317203340199,0,0,-2.06505671421408,0,0,0,1.71216486286549,-2.62249939878254,-0.0292452010788232,0,0,0.318010200123969
1.16,3.80977914000938,0,1.72237417413427,22.8147981617826,0,0,2.2393932653797,0,0,0,1.68772891939206,-2.62057483237396,0.0292452010788232,0,0,0.364547135798291
1.17,3.82630968542108,0,1.74862024202048,21.6296100702671,0,0,-2.0685434452374,0,0,0,1.77828755434848,-2.54142548287461,-0.0292452010788232,0,0,0.331891577757562
1.18,3.84347970186073,0,1.77431704517859,22.9107301033049,0,0,2.23597626897685,0,0,0,1.7558437471612,-2.54329791931691,0.0292452010788232,0,0,0.379740371905382
1.19,3.85900076291104,0,1.8009066489759,21.7236233729589,0,0,-2.07189210171219,0,0,0,1.84497227474491,-2.4647882196394,-0.0292452010788232,0,0,0.345262683030988
1.2,3.87519751590155,0,1.82699866219538,23.0028631399429,0,0,2.23269458563156,0,0,0,1.82440584394271,-2.47038922629625,0.0292452010788232,0,0,0.394441759463529
1.21,3.88974709973983,0,1.85394905788848,21.8139137488642,0,0,-2.07510815139057,0,0,0,1.91217992243899,-2.3924276630734,-0.0292452010788232,0,0,0.358134450551789
1.22,3.90500860698413,0,1.88045164131364,23.0913477083301,0,0,2.22954285694674,0,0,0,1.89338084505651,-2.40168988242243,0.0292452010788232,0,0,0.408662225448468
1.23,3.9186233332453,0,1.90777954355573,21.9006286258836,0,0,-2.0781968455017,0,0,0,1.97987395188833,-2.3241878701673,-0.0292452010788232,0,0,0.370519478700361
1.24,3.93298622282006,0,1.93470757777076,23.1763282878091,0,0,2.22651593671784,0,0,0,1.96273676471872,-2.33704527740562,0.0292452010788232,0,0,0.422414103433284
1.25,3.94570136533094,0,1.96242916550313,21.983909593773,0,0,-2.08116322732602,0,0,0,2.04802020039947,-2.25991725811197,-0.0292452010788232,0,0,0.382431437711229
1.26,3.95920091861943,0,1.98979705634263,23.2579436363407,0,0,2.22360888253,0,0,0,2.03244382124343,-2.27630533835038,0.0292452010788232,0,0,0.435710619935115
1.27,3.97105044870974,0,2.01792798028834,22.063892635334,0,0,-2.0840121404301,0,0,0,2.11658672529792,-2.19946881957879,-0.0292452010788232,0,0,0.393884631741795
1.28,3.98372064450514,0,2.04574966521294,23.3363270170705,0,0,2.220816947688,0,0,0,2.10247427542081,-2.21932468480143,0.0292452010788232,0,0,0.448565514659691
1.29,3.99473727499417,0,2.07430505676728,22.1407083484492,0,0,-2.08674823657526,0,0,0,2.18554365135541,-2.14270023324613,-0.0292452010788232,0,0,0.404893676879494
1.3,4.00661083396437,0,2.10259401242074,23.4116064159234,0,0,2.21813557346575,0,0,0,2.17280228110209,-2.16596269429098,0.0292452010788232,0,0,0.460992761544263
1.31,4.01682606315122,0,2.13158849356983,22.214482159325,0,0,-2.08937598331307,0,0,0,2.25486302817761,-2.08947389756526,-0.0292452010788232,0,0,0.415473266308048
1.32,4.02793449208274,0,2.16035774421932,23.4839047505817,0,0,2.21556038166269,0,0,0,2.24340374707731,-2.11608350265266,0.0292452010788232,0,0,0.47300636556535
1.33,4.03737864726035,0,2.18980543820188,22.2853345272902,0,0,-2.09189967128006,0,0,0,2.32451869715322,-2.03965690881489,-0.0292452010788232,0,0,0.425638000876774
1.34,4.04775228266781,0,2.21906756482922,23.5533400711875,0,0,2.21308716745504,0,0,0,2.3142562093901,-2.06955595732774,0.0292452010788232,0,0,0.484620216388455
1.35,4.05645456282422,0,2.24898210732074,22.3533811414839,0,0,-2.09432342120356,0,0,0,2.39448616750291,-1.99312099924204,-0.0292452010788232,0,0,0.435402268636682
1.36,4.06612261363822,0,2.27874925718301,23.6200257530974,0,0,2.21071189253001,0,0,0,2.38533871329295,-2.02625353732339,0.0292452010788232,0,0,0.495847984565313
1.37,4.07411113111543,0,2.3091438078314,22.4187331097555,0,0,-2.09665119063009,0,0,0,2.46474250093396,-1.94974244711901,-0.0292452010788232,0,0,0.444780160935504
1.38,4.0831017202553,0,2.33942770434897,23.6840706820036,0,0,2.20843067849201,0,0,0,2.45663170410364,-1.9860542500344,0.0292452010788232,0,0,0.506703049488802
1.39,4.09040354121481,0,2.37031495852859,22.4814971400836,0,0,-2.09888678038733,0,0,0,2.53526620439319,-1.9094019675484,-0.0292452010788232,0,0,0.453785415713283
1.4,4.09874374592191,0,2.40112691138893,23.7455794317251,0,0,2.20623980052992,0,0,0,2.5281169262788,-1.9488405125361,0.0292452010788232,0,0,0.517198450968438
1.41,4.1053849295247,0,2.43251911207003,22.5417757148107,0,0,-2.10103384079018,0,0,0,2.60603713041267,-1.87198459058735,-0.0292452010788232,0,0,0.462431380947648
1.42,4.11310082038303,0,2.46387002745957,23.8046524349577,0,0,2.20413568133513,0,0,0,2.59977733007237,-1.91449902299329,0.0292452010788232,0,0,0.527346858296551
1.43,4.11910645663385,0,2.49577897711235,22.5996672579787,0,0,-2.10309587760108,0,0,0,2.67703638455343,-1.83737953155669,-0.0292452010788232,0,0,0.470730992943362
1.44,4.12622313524187,0,2.52767936800705,23.8613861472622,0,0,2.20211488526045,0,0,0,2.67159698519571,-1.88292062635096,0.0292452010788232,0,0,0.537160552193367
1.45,4.13161738147907,0,2.56011644047781,22.6552662960371,0,0,-2.10507625775426,0,0,0,2.74824623946998,-1.80548005711775,-0.0292452010788232,0,0,0.478696765480203
1.46,4.13815901676343,0,2.59257643693746,23.9158732045595,0,0,2.20017411271032,0,0,0,2.74356100094112,-1.85400017736039,0.0292452010788232,0,0,0.546651416166798
1.47,4.14296513279734,0,2.62555258924789,22.7086636121885,0,0,-2.10697821485339,0,0,0,2.81965005513983,-1.77618334973392,-0.0292452010788232,0,0,0.486340786830279
1.48,4.14895499597859,0,2.65858194867063,23.9682025743879,0,0,2.19831019475318,0,0,0,2.81565545227282,-1.82763640315859,0.0292452010788232,0,0,0.555830934689732
1.49,4.15319537789746,0,2.69210773270191,22.7599463946202,0,0,-2.10880485445138,0,0,0,2.89123220482571,-1.74939037241049,-0.0292452010788232,0,0,0.493674722408608
1.5,4.1586558761309,0,2.72571585000429,24.018459701171,0,0,2.19652008794715,0,0,0,2.88786731142813,-1.80373176699288,0.0292452010788232,0,0,0.564710196252113
1.51,4.16235208880387,0,2.75980142403636,22.8091983788677,0,0,-2.1105591591213,0,0,0,2.96297800636313,-1.72500573506354,-0.0292452010788232,0,0,0.500709821388656
1.52,4.16730479752828,0,2.79399734173119,24.0667266457335,0,0,2.19480086937063,0,0,0,2.9601843846073,-1.78219233421461,0.0292452010788232,0,0,0.573299899838853
1.53,4.17047760584222,0,2.82865248181384,22.8564999845389,0,0,-2.11224399332628,0,0,0,3.03487365839075,-1.70293756346395,-0.0292452010788232,0,0,0.507456926042667
1.54,4.17494329987489,0,2.86344489996393,24.1130822192913,0,0,2.19314973184974,0,0,0,3.03259525336353,-1.76292764131677,0.0292452010788232,0,0,0.581610363756679
1.55,4.17761269874655,0,2.89867901110189,22.9019284466256,0,0,-2.11386210809675,0,0,0,3.10690618116586,-1.683097371401,-0.0292452010788232,0,0,0.513926482888709
1.56,4.18161138216681,0,2.93407629713194,24.1576021121363,0,0,2.19156397937468,0,0,0,3.10508922033503,-1.7458505685316,0.0292452010788232,0,0,0.58965153601305
1.57,4.18379662537411,0,2.96989842427001,22.9455579416137,0,0,-2.11541614552231,0,0,0,3.17906336163085,-1.66539993648679,-0.0292452010788232,0,0,0.520128554968675
1.58,4.18734756023972,0,3.00590862262276,24.2003590172245,0,0,2.19004102269764,0,0,0,3.17765625898871,-1.73087721631274,0.0292452010788232,0,0,0.597433005660807
1.59,4.18906718811754,0,3.04232746142045,22.9874597086002,0,0,-2.11690864306582,0,0,0,3.25133370242001,-1.64976317985809,-0.0292452010788232,0,0,0.526072834763289
1.6,4.19218892205889,0,3.07895830304602,24.2414227488713,0,0,2.188578375105,0,0,0,3.25028696707113,-1.71792678588616,0.0292452010788232,0,0,0.604964014680129
1.61,4.19346078810453,0,3.11598221043383,23.027702165614,0,0,-2.1183420377066,0,0,0,3.32370637451729,-1.63610804991134,-0.0292452010788232,0,0,0.531768657386271
1.62,4.19617118084169,0,3.15324112210344,24.2808603567449,0,0,2.18717364835703,0,0,0,3.3229725234854,-1.70692146395177,0.0292452010788232,0,0,0.612253470087649
1.63,4.19701247727515,0,3.19087812661492,23.0663510213301,0,0,-2.11971866991961,0,0,0,3.39617117329668,-1.62435841011962,-0.0292452010788232,0,0,0.537225013801632
1.64,4.19932872610196,0,3.22877224005238,24.3187362353467,0,0,2.18582454878828,0,0,0,3.39570464833514,-1.69778631154404,0.0292452010788232,0,0,0.619309956050953
1.65,4.19975600842479,0,3.26703005192799,23.1034693823599,0,0,-2.12104078749698,0,0,0,3.46871847769601,-1.61444093091709,-0.0292452010788232,0,0,0.542450563883751
1.66,4.20169467270325,0,3.30556621275364,24.3551122291558,0,0,2.18452887356246,0,0,0,3.46847556589594,-1.69044915700729,0.0292452010788232,0,0,0.62614174585241
1.67,4.2017238832986,0,3.34445223381375,23.1391178562928,0,0,-2.12231054921829,0,0,0,3.54133921229323,-1.60628498559278,-0.0292452010788232,0,0,0.547453649196231
1.68,4.2033009080053,0,3.3836370102971,24.3900477336101,0,0,2.18328450707557,0,0,0,3.54127797029365,-1.68484049300553,0.0292452010788232,0,0,0.63275681359511
1.69,4.20294739882034,0,3.42315834358262,23.1733546506581,0,0,-2.12353002837544,0,0,0,3.61402481207119,-1.59982255010444,-0.0292452010788232,0,0,0.552242305406937
1.7,4.20417813718525,0,3.46299803520109,24.4235997920881,0,0,2.18208941750157,0,0,0,3.61410499368563,-1.68089337746134,0.0292452010788232,0,0,0.639162845579711
1.71,4.20345669153536,0,3.50316149438119,23.2062356679664,0,0,-2.12470121615796,0,0,0,3.68676718967271,-1.59498810670364,-0.0292452010788232,0,0,0.556824274287212
1.72,4.20435592681154,0,3.54366214018299,24.4558231890503,0,0,2.1809416534747,0,0,0,3.68695017675663,-1.67854333830305,0.0292452010788232,0,0,0.645367251307396
1.73,4.20328078034397,0,3.58447425873029,23.2378145969894,0,0,-2.12582602490429,0,0,0,3.75955870496238,-1.59171855124964,-0.0292452010788232,0,0,0.561207015265416
1.74,4.2038627467452,0,3.62564164550064,24.4867705394928,0,0,2.17983934090329,0,0,0,3.75980744135554,-1.6777282818895,0.0292452010788232,0,0,0.651377174083444
1.75,4.20244760759843,0,3.66710868563467,23.268143000423,0,0,-2.12690629122427,0,0,0,3.83239213672533,-1.58995310408291,-0.0292452010788232,0,0,0.565397716521003
1.76,4.20272601044006,0,3.70894835586507,24.5164923748577,0,0,2.17878067990971,0,0,0,3.83267106511241,-1.67838840497698,0.0292452010788232,0,0,0.657199501209727
1.77,4.20098407863303,0,3.75107631726564,23.2972703990807,0,0,-2.12794377899798,0,0,0,3.90526065634562,-1.58963322432542,-0.0292452010788232,0,0,0.569403305616744
1.78,4.20097211370958,0,3.7935935769264,24.5450372255422,0,0,2.17776394189148,0,0,0,3.90553565788737,-1.68046611009147,0.0292452010788232,0,0,0.66284087376442
1.79,4.19891609979369,0,3.83638820521874,23.3252443527515,0,0,-2.12894018225585,0,0,0,3.97815780331893,-1.59070252747428,-0.0292452010788232,0,0,0.5732304596747
1.8,4.19862647202538,0,3.87958813133569,24.5724517001396,0,0,2.17678746669876,0,0,0,3.97839613991454,-1.68390592416986,0.0292452010788232,0,0,0.668307695973995
1.81,4.1962686150303,0,3.92305492634982,23.352110537857,0,0,-2.12989712794471,0,0,0,4.05107746246478,-1.59310670615709,-0.0292452010788232,0,0,0.576885615106995
1.82,4.19571355640887,0,3.96694237438643,24.598780561543,0,0,2.17584965992368,0,0,0,4.05124772151417,-1.68865442033669,0.0292452010788232,0,0,0.673606144187371
1.83,4.19306564111188,0,4.01108659819338,23.3779128220323,0,0,-2.13081617858429,0,0,0,4.12401384271399,-1.59679345391986,-0.0292452010788232,0,0,0.580374976916026
1.84,4.1922569279748,0,4.05566620923985,24.6240668000348,0,0,2.1749489902969,0,0,0,4.12408588425613,-1.69466014268625,0.0292452010788232,0,0,0.678742175465148
1.85,4.18933030152172,0,4.10049289396782,23.4026933357542,0,0,-2.13169883481854,0,0,0,4.19696145735585,-1.60171239192239,-0.0292452010788232,0,0,0.583704527580964
1.86,4.18827927118239,0,4.14576910173913,24.6483517034823,0,0,2.17408398718733,0,0,0,4.19690636346654,-1.70187353394439,0.0292452010788232,0,0,0.683721535798707
1.87,4.18508485908693,0,4.19128305717276,23.4264925411328,0,0,-2.13254653786592,0,0,0,4.26991510563863,-1.60781499842019,-0.0292452010788232,0,0,0.586880035548596
1.88,4.18380242584709,0,4.23726009481784,24.6716749247533,0,0,2.1732532382009,0,0,0,4.26970513197766,-1.71024686588903,0.0292452010788232,0,0,0.688549767975093
1.89,4.18035074739418,0,4.28346591578405,23.4493492979783,0,0,-2.13336067187262,0,0,0,4.34286985562478,-1.61505454091696,-0.0292452010788232,0,0,0.589907063347142
1.9,4.17884741796365,0,4.33014782250864,24.6940745464619,0,0,2.17245538687434,0,0,0,4.34247838502863,-1.71973417241343,0.0292452010788232,0,0,0.693232219103942
1.91,4.17514860104087,0,4.37704989605257,23.4713009272528,0,0,-2.13414256617265,0,0,0,4.41582102820944,-1.62338601087624,-0.0292452010788232,0,0,0.592790975341601
1.92,4.17343448938823,0,4.42444052355831,24.7155871431509,0,0,2.1716891304603,0,0,0,4.41522252623174,-1.73029118512129,0.0292452010788232,0,0,0.697774047822781
1.93,4.16949828476849,0,4.47204303591329,23.492383272008,0,0,-2.13489349745841,0,0,0,4.48876418221791,-1.63276606088585,-0.0292452010788232,0,0,0.595536945148932
1.94,4.16758312642565,0,4.52014605465589,24.736247841011,0,0,2.17095321780026,0,0,0,4.48793415452514,-1.74187527134783,0.0292452010788232,0,0,0.70218023119669
1.95,4.16341892152303,0,4.56845299801106,23.5126307559109,0,0,-2.13561469186524,0,0,0,4.56169510050401,-1.6431529441737,-0.0292452010788232,0,0,0.598149962730772
1.96,4.16131208736502,0,4.61727190328063,24.7560903752359,0,0,2.17024644728156,0,0,0,4.56061005203927,-1.75444537450586,0.0292452010788232,0,0,0.706455571327839
1.97,4.15692891948476,0,4.66628708235036,23.5320764394513,0,0,-2.13630732697357,0,0,0,4.63460977697688,-1.65450645637803,-0.0292452010788232,0,0,0.600634841180665
1.98,4.15463942900553,0,4.71582520017694,24.7751471451054,0,0,2.1695676648754,0,0,0,4.63324717280927,-1.76796195666072,0.0292452010788232,0,0,0.710604701689774
1.99,4.15004599810805,0,4.76555223857596,23.5507520739234,0,0,-2.13697253373161,0,0,0,4.70750440448946,-1.66678787947991,-0.0292452010788232,0,0,0.602996223222033
2,4.14758253221188,0,4.81581273146344,24.7934492668881,0,0,2.16891576225253,0,0,0,4.70584263227113,-1.78238694324241,0.0292452010788232,0,0,0.714632093200646
2.01,4.14278721320985,0,4.86625507789176,23.5686881532705,0,0,-2.13761139830202,0,0,0,4.78037536352662,-1.67995992781001,-0.0292452010788232,0,0,0.605238587432183
2.02,4.14015812653701,0,4.91724095038357,24.8110266246482,0,0,2.16828967497352,0,0,0,4.77839369748392,-1.79768366980782,0.0292452010788232,0,0,0.718542060048813
2.03,4.13516898114372,0,4.96840188462545,23.5859139638754,0,0,-2.13822496383545,0,0,0,4.85321921163575,-1.69398669604606,-0.0292452010788232,0,0,0.607366254206888
2.04,4.13238231394844,0,5.02011598870534,24.827907919041,0,0,2.16768838075076,0,0,0,4.85089777802465,-1.81381683077006,0.0292452010788232,0,0,0.722338765283513
2.05,4.1272071020946,0,5.07199862744624,23.6024576323803,0,0,-2.13881423217376,0,0,0,4.92603267354656,-1.70883360912118,-0.0292452010788232,0,0,0.609383391479142
2.06,4.1242705916924,0,5.12444366777758,24.8441207141759,0,0,2.16711089777922,0,0,0,4.92335241750649,-1.83075243001569,0.0292452010788232,0,0,0.726026226182572
2.07,4.11891678252805,0,5.17705097024344,23.6183461716125,0,0,-2.13938016548587,0,0,0,4.99881263193121,-1.72446737396714,-0.0292452010788232,0,0,0.611294020204906
2.08,4.11583787432871,0,5.23022950925052,24.8596914826234,0,0,2.16655628313335,0,0,0,4.99575528567469,-1.84845773333483,0.0292452010788232,0,0,0.729608319408373
2.09,4.11031265682604,0,5.28356428267343,23.633605524691,0,0,-2.13992368783882,0,0,0,5.07155611875914,-1.74085593302014,-0.0292452010788232,0,0,0.613102019627869
2.1,4.10709851496789,0,5.33747874546828,24.8746456486404,0,0,2.16602363122746,0,0,0,5.06810417103809,-1.86690122259219,0.0292452010788232,0,0,0.733088785962657
2.11,4.10140880814004,0,5.39154365038273,23.6482606073877,0,0,-2.14044568670659,0,0,0,5.14426030720455,-1.75796841942013,-0.0292452010788232,0,0,0.614811132334461
2.12,4.09806632574056,0,5.4461963295409,24.8890076296831,0,0,2.16551207233704,0,0,0,5.14039697399708,-1.88605255157082,0.0292452010788232,0,0,0.736471235950001
2.13,4.09221878849086,0,5.50099388491475,23.6623353488096,0,0,-2.1409470144192,0,0,0,5.21692250406756,-1.77577511383785,-0.0292452010788232,0,0,0.616424969109667
2.14,4.08875459752788,0,5.55638694510366,24.9028008762765,0,0,2.16502077117868,0,0,0,5.21263170043191,-1.9058825034233,0.0292452010788232,0,0,0.739759153159309
2.15,4.08275563814336,0,5.61191953330795,23.6758527304711,0,0,-2.14142848955439,0,0,0,5.28954014267293,-1.79424740286668,-0.0292452010788232,0,0,0.617947013603516
2.16,4.07917611898058,0,5.66805501577127,24.9160479103049,0,0,2.1645489255462,0,0,0,5.28480645571809,-1.92636294966824,0.0292452010788232,0,0,0.742955899471957
2.17,4.07303190428313,0,5.72432488739294,23.6888348238189,0,0,-2.14189089827423,0,0,0,5.36211077621292,-1.81335773891945,-0.0292452010788232,0,0,0.619380626817482
2.18,4.06934319485307,0,5.78120471429447,24.9287703617857,0,0,2.16409576500076,0,0,0,5.35691943913779,-1.94746681067261,0.0292452010788232,0,0,0.74606471910476
2.19,4.0630596590207,0,5.83821399279609,23.7013028262701,0,0,-2.14233499560876,0,0,0,5.43463207150324,-1.83307960157283,-0.0292452010788232,0,0,0.62072905141945
2.2,4.05926766367774,0,5.89583997142683,24.9409890041878,0,0,2.16366054961292,0,0,0,5.42896893865884,-1.96916801756331,0.0292452010788232,0,0,0.749088742695415
2.21,4.05285051674841,0,5.95359065765726,23.7132770958242,0,0,-2.14276150668884,0,0,0,5.50710180312355,-1.85338746030463,-0.0292452010788232,0,0,0.621995415895353
2.22,4.04896091480398,0,6.01196448450883,24.9527237883509,0,0,2.16324256875444,0,0,0,5.50095332605469,-1.99144147551375,0.0292452010788232,0,0,0.752030991237561
2.23,4.04241565087339,0,6.07045846106888,23.724777184304,0,0,-2.14317112793015,0,0,0,5.57951784791573,-1.87425673857149,-0.0292452010788232,0,0,0.623182738545111
2.24,4.0384339048249,0,6.129581725777,24.9639938750611,0,0,2.16284113993795,0,0,0,5.57287105234105,-2.01426302835351,0.0292452010788232,0,0,0.754894379872224
2.25,4.03176580994965,0,6.18882076124392,23.73582186928,0,0,-2.14356452817031,0,0,0,5.65187817981541,-1.89566377917711,-0.0292452010788232,0,0,0.62429393132996
2.26,4.0276971734143,0,6.24869495040525,24.9748176663375,0,0,2.1624556077026,0,0,0,5.64472064350641,-2.03760942445171,0.0292452010788232,0,0,0.757681721541936
2.27,4.02091133323102,0,6.30868070341989,23.7464291847309,0,0,-2.14394234976095,0,0,0,5.72418086499393,-1.9175858108828,-0.0292452010788232,0,0,0.625331803577909
2.28,4.01676085859521,0,6.3693072042856,24.9852128354794,0,0,2.16208534254377,0,0,0,5.71650069651563,-2.06145828382646,0.0292452010788232,0,0,0.760395730513522
2.29,4.00986216566613,0,6.43004122750615,23.75661645049,0,0,-2.14430520961661,0,0,0,5.79642405728945,-1.94000091621462,-0.0292452010788232,0,0,0.626299065553599
2.3,4.00563471146064,0,6.4914213315555,24.9951963559233,0,0,2.16172973988522,0,0,0,5.78820987556699,-2.085788066435,0.0292452010788232,0,0,0.763039025775113
2.31,3.99862787235531,0,6.5529050754814,23.766400300525,0,0,-2.14465370022198,0,0,0,5.86860599390767,-1.96288800042294,-0.0292452010788232,0,0,0.627198331898505
2.32,3.9943281103663,0,6.61503998187879,25.0047845289577,0,0,2.16138821909196,0,0,0,5.859846908585,-2.11057804160108,0.0292452010788232,0,0,0.765614134312697
2.33,3.98721765248921,0,6.67727479854858,23.7757967100986,0,0,-2.14498839059938,0,0,0,5.94072499137399,-1.98622676155239,-0.0292452010788232,0,0,0.628032124947021
2.34,3.98285007461432,0,6.74016561748703,25.0139930103398,0,0,2.16106022252211,0,0,0,5.93141058393216,-2.13580825853769,0.0292452010788232,0,0,0.768123494271173
2.35,3.97564035278738,0,6.8031527640537,23.7848210218531,0,0,-2.14530982723784,0,0,0,6.01277944172014,-2.00999766158151,-0.0292452010788232,0,0,0.628802877923711
2.36,3.97120927764625,0,6.86680051998821,25.0228368358592,0,0,2.16074521461642,0,0,0,6.00289974732437,-2.16145951792522,0.0292452010788232,0,0,0.770569458004603
2.37,3.96390448045506,0,6.93054116217561,23.7934879708622,0,0,-2.14561853498541,0,0,0,6.08476780888968,-2.03418189859348,-0.0292452010788232,0,0,0.629512938026683
2.38,3.95941405976288,0,6.99494679694936,25.0313304458881,0,0,2.1604426810238,0,0,0,6.07431329893569,-2.18751334450657,0.0292452010788232,0,0,0.772954295020126
2.39,3.95201821567519,0,7.05944201239309,23.8018117086904,0,0,-2.14591501790618,0,0,0,6.15668862534785,-2.05876137994044,-0.0292452010788232,0,0,0.630164569401749
2.4,3.94747244038787,0,7.12460638825958,25.0394877089598,0,0,2.16015212776145,0,0,0,6.14565019067937,-2.21395196066243,0.0292452010788232,0,0,0.775280194819732
2.41,3.93998942365243,0,7.18985716973582,23.8098058265007,0,0,-2.14619976010328,0,0,0,6.22854048888229,-2.08371869636578,-0.0292452010788232,0,0,0.630759956011805
2.42,3.93539212989142,0,7.25578107228003,25.0473219444139,0,0,2.15987308040829,0,0,0,6.21690942365276,-2.2407582609312,0.0292452010788232,0,0,0.777549269643869
2.43,3.92782566622492,0,7.3217883308256,23.8174833772457,0,0,-2.14647322650938,0,0,0,6.30032205958208,-2.1090370970498,-0.0292452010788232,0,0,0.631301204405629
2.44,3.92318054098958,0,7.38847247178705,25.054845944144,0,0,2.15960508333031,0,0,0,6.28809004573493,-2.26791578743963,0.0292452010788232,0,0,0.779763557120685
2.45,3.91553421305949,0,7.45523703971397,23.8248568969812,0,0,-2.1467358636458,0,0,0,6.37203205698354,-2.13470046554581,-0.0292452010788232,0,0,0.631790346390052
2.46,3.91084479973446,0,7.52268205971463,25.0620719934847,0,0,2.15934769893662,0,0,0,6.35919114932649,-2.29540870621147,0.0292452010788232,0,0,0.781925022824471
2.47,3.9031220524447,0,7.5902046935223,23.8319384253352,0,0,-2.14698810035162,0,0,0,6.44366925737198,-2.16069329657484,-0.0292452010788232,0,0,0.632229341609255
2.48,3.89839175610966,0,7.65841116470214,25.0690118912716,0,0,2.15910050696492,0,0,0,6.43021186922181,-2.3232217843227,0.0292452010788232,0,0,0.784035562746734
2.49,3.89059590169642,0,7.72669254789037,23.8387395251663,0,0,-2.14723034848388,0,0,0,6.51523249122936,-2.18700067364831,-0.0292452010788232,0,0,0.632620080034805
2.5,3.88582799424506,0,7.79566097645336,25.0756769691062,0,0,2.1588631037953,0,0,0,6.50115138060477,-2.35134036787301,0.0292452010788232,0,0,0.786097005683136
2.51,3.87796221718924,0,7.86470172223918,23.8452713014441,0,0,-2.14746300359011,0,0,0,6.58672064081861,-2.21360824748927,-0.0292452010788232,0,0,0.632964384369775
2.52,3.8731598422644,0,7.93443255091246,25.0820781098584,0,0,2.15863510179119,0,0,0,6.5720088971596,-2.37975036074472,0.0292452010788232,0,0,0.788111115539379
2.53,3.86522720402735,0,8.0042332048537,23.8515444193814,0,0,-2.14768644555413,0,0,0,6.65813263789592,-2.24050221522398,-0.0292452010788232,0,0,0.633264012370206
2.54,3.86039338177861,0,8.07472681526253,25.0882257654369,0,0,2.15841612866645,0,0,0,6.64278366928915,-2.40843820412081,0.0292452010788232,0,0,0.790079593559005
2.55,3.85239682536735,0,8.14528785779109,23.8575691218483,0,0,-2.14790103921638,0,0,0,6.72946746154296,-2.26766930031636,-0.0292452010788232,0,0,0.633520659086982
2.56,3.84753445703748,0,8.21654457275221,25.0941299738545,0,0,2.15820582687745,0,0,0,6.71347498243333,-2.4373908567354,0.0292452010788232,0,0,0.792004080475904
2.57,3.8394768114054,0,8.28786642161986,23.8633552460975,0,0,-2.1481071349696,0,0,0,6.8007241361116,-2.29509673321929,-0.0292452010788232,0,0,0.633735959031042
2.58,3.83458868375165,0,8.35988650735577,25.0998003756187,0,0,2.15800385303929,0,0,0,6.78408215548122,-2.46659577583067,0.0292452010788232,0,0,0.79388615859421
2.59,3.82647266804059,0,8.43196951999512,23.8689122398265,0,0,-2.14830506933099,0,0,0,6.87190172927409,-2.32277223271726,-0.0292452010788232,0,0,0.633911488264718
2.6,3.82156145759662,0,8.50475318827174,25.1052462294731,0,0,2.15780987736513,0,0,0,6.85460453927054,-2.49604089879508,0.0292452010788232,0,0,0.795727353798175
2.61,3.81338968522588,0,8.57759766407522,23.8742491766038,0,0,-2.14849516549168,0,0,0,6.94299935017235,-2.35068398793618,-0.0292452010788232,0,0,0.634048766421892
2.62,3.80845796241005,0,8.65114507426534,25.1104764275149,0,0,2.15762358312766,0,0,0,6.92504151516883,-2.52571462545918,0.0292452010788232,0,0,0.797529137494449
2.63,3.80023294501769,0,8.72475125678463,23.8793747706847,0,0,-2.1486777338444,0,0,0,7.01401614766025,-2.37882064099672,-0.0292452010788232,0,0,0.634149258659491
2.64,3.79528317809297,0,8.79906251785958,25.1154995097141,0,0,2.15744466614199,0,0,0,6.99539249373106,-2.55560580102539,0.0292452010788232,0,0,0.799292928489137
2.65,3.78700732933476,0,8.87343059692817,23.88429739124,0,0,-2.14885307249035,0,0,0,7.0849513086333,-2.4071712702887,-0.0292452010788232,0,0,0.634214377542778
2.66,3.78204188822559,0,8.94850576937977,25.1203236778583,0,0,2.15727283426896,0,0,0,7.06565691342868,-2.5857036996098,0.0292452010788232,0,0,0.801020094801871
2.67,3.77371752743648,0,9.02363588316108,23.8890250760213,0,0,-2.14902146772592,0,0,0,7.1558040564406,-2.43572537434457,-0.0292452010788232,0,0,0.634245484866768
2.68,3.76873868740764,0,9.09947498085635,25.124956808944,0,0,2.1571078069381,0,0,0,7.13583423944561,-2.61599800837421,0.0292452010788232,0,0,0.802711955419078
2.69,3.76036804313062,0,9.17536721781976,23.8935655444853,0,0,-2.14918319451017,0,0,0,7.22657364937406,-2.46447285629106,-0.0292452010788232,0,0,0.63424389341601
2.7,3.75537798833287,0,9.25197020979043,25.1294064680387,0,0,2.15694931468954,0,0,0,7.20592396253682,-2.6464788122277,0.0292452010788232,0,0,0.80436978198849
2.71,3.74696320172008,0,9.32862461061763,23.8979262103981,0,0,-2.14933851691375,0,0,0,7.29725937923044,-2.49340400885866,-0.0292452010788232,0,0,0.63421086866486
2.72,3.74196402860732,0,9.40599142278652,25.1336799206333,0,0,2.15679709873402,0,0,0,7.27592559794576,-2.67713657907783,0.0292452010788232,0,0,0.805994800456911
2.73,3.73350715669765,0,9.48340798221044,23.9021141939407,0,0,-2.14948768855016,0,0,0,7.36786056994205,-2.52250949992932,-0.0292452010788232,0,0,0.634147630420324
2.74,3.72850087732021,0,9.56153849905687,25.1377841445051,0,0,2.15665091053035,0,0,0,7.34583868437665,-2.70796214561193,0.0292452010788232,0,0,0.807588192653144
2.75,3.72000389619793,0,9.63971716763537,23.9061363333351,0,0,-2.14963095298976,0,0,0,7.43837657627194,-2.5517803586037,-0.0292452010788232,0,0,0.634055354409426
2.76,3.71499244137616,0,9.71861123380149,25.1417258411116,0,0,2.15651051137954,0,0,0,7.41566278301864,-2.73894670359007,0.0292452010788232,0,0,0.809151097817928
2.77,3.70645724921477,0,9.79755191962798,23.9099991960094,0,0,-2.14976854415756,0,0,0,7.50880678257018,-2.58120796176942,-0.0292452010788232,0,0,0.633935173813017
2.78,3.70144247159735,0,9.87720934146805,25.1455114465324,0,0,2.1563756720351,0,0,0,7.48539747661826,-2.77008178663168,0.0292452010788232,0,0,0.810684614082642
2.79,3.69287089159261,0,9.95691191182113,23.9137090893219,0,0,-2.14990068671511,0,0,0,7.57915060158758,-2.61078402115309,-0.0292452010788232,0,0,0.633788180747815
2.8,3.68785456860353,0,10.0373324588955,25.1491471419786,0,0,2.1562461723287,0,0,0,7.55504236859753,-2.80135925747838,0.0292452010788232,0,0,0.812189799898494
2.81,3.6792483517997,0,10.1177967418297,23.9172720708592,0,0,-2.15002759642738,0,0,0,7.64940747334374,-2.64050057083898,-0.0292452010788232,0,0,0.633615427698462
2.82,3.67423218847789,0,10.1989801483456,25.1526388638851,0,0,2.15612180081067,0,0,0,7.62459708221483,-2.83277129571646,0.0292452010788232,0,0,0.81366767541783
2.83,3.66559301649084,0,10.2802059342249,23.9206939583276,0,0,-2.15014948051504,0,0,0,7.71957686404646,-2.67034995523792,-0.0292452010788232,0,0,0.63341792890126
2.84,3.6605786482262,0,10.3621519004253,25.1559923136042,0,0,2.15600235440476,0,0,0,7.69406125976606,-2.8643103859428,0.0292452010788232,0,0,0.815119223829153
2.85,3.65190813586718,0,10.444138943402,23.9239803390522,0,0,-2.15026653799284,0,0,0,7.78965826505959,-2.70032481749089,-0.0292452010788232,0,0,0.633196661681216
2.86,3.64689713103675,0,10.5268471369048,25.1592129667143,0,0,2.15588763807652,0,0,0,7.76343456182359,-2.89596930635859,0.0292452010788232,0,0,0.816545392647367
2.87,3.63819682884017,0,10.6095951563448,23.9271365791002,0,0,-2.15037895999451,0,0,0,7.85965119191679,-2.73041808829172,-0.0292452010788232,0,0,0.632952567743966
2.88,3.63319069134789,0,10.6930652134339,25.1623060819613,0,0,2.15577746451488,0,0,0,7.83271666651101,-2.92774111777593,0.0292452010788232,0,0,0.817947094960737
2.89,3.62446208800668,0,10.7765738952904,23.9301678320422,0,0,-2.15048693008492,0,0,0,7.92955518337877,-2.76062297511445,-0.0292452010788232,0,0,0.632686554424065
2.9,3.61946225973017,0,10.86080542216,25.1652767098445,0,0,2.15567165382628,0,0,0,7.90190726881138,-2.95961915302272,0.0292452010788232,0,0,0.819325210635957
2.91,3.61070678444184,0,10.9450744202982,23.9330790473678,0,0,-2.15059062455975,0,0,0,7.99936980053159,-2.79093295183109,-0.0292452010788232,0,0,0.632399495891117
2.92,3.60571464758953,0,11.0300669942521,25.1681297008636,0,0,2.15557003324095,0,0,0,7.97100607990725,-2.99159700673192,0.0292452010788232,0,0,0.820680587482734
2.93,3.59693367231627,0,11.1150959317249,23.9358749785664,0,0,-2.15069021273337,0,0,0,8.06909462592403,-2.82134174870593,-0.0292452010788232,0,0,0.632092234315139
2.94,3.59195055169806,0,11.2008491023323,25.1708697134383,0,0,2.1554724368308,0,0,0,8.04001282655051,-3.0236685255015,0.0292452010788232,0,0,0.82201404237918
2.95,3.58314539334371,0,11.2866375726109,23.9385601908896,0,0,-2.15078585721532,0,0,0,8.13872926274182,-2.85184334275338,-0.0292452010788232,0,0,0.631765580992477
2.96,3.57817255855818,0,11.3731508628204,25.173501221515,0,0,2.15537870523849,0,0,0,8.10892725046056,-3.05582779841224,0.0292452010788232,0,0,0.823326362359302
2.97,3.56934448106525,0,11.4596984309787,23.9411390688048,0,0,-2.15087771417578,0,0,0,8.20827333401706,-2.88243194844631,-0.0292452010788232,0,0,0.631420317433642
2.98,3.56438314860643,0,11.5469713381915,25.1760285218719,0,0,2.15528868541724,0,0,0,8.17774910774907,-3.08806914789062,0.0292452010788232,0,0,0.824618305663838
2.99,3.55553336497591,0,11.6342775420484,23.9436158231546,0,0,-2.15096593360061,0,0,0,8.27772648187084,-2.91310200876284,-0.0292452010788232,0,0,0.631057196414267
3,3.55058470026241,0,11.7223095391525,25.1784557411346,0,0,2.1552022303809,0,0,0,8.24647816836998,-3.12038712090464,0.0292452010788232,0,0,0.825890602755624
3.01,3.54171437449906,0,11.8103738903719,23.9459944980321,0,0,-2.15105065953622,0,0,0,8.34708836678753,-2.94384818655937,-0.0292452010788232,0,0,0.63067694299042
3.02,3.53677949382848,0,11.8991644267381,25.1807868425146,0,0,2.15511919896401,0,0,0,8.3151142155934,-3.15277648048099,0.0292452010788232,0,0,0.827143957300636
3.03,3.5278897428144,0,11.9879864118887,23.9482789773844,0,0,-2.15113203032477,0,0,0,8.41635866691917,-2.97466535625853,-0.0292452010788232,0,0,0.630280255479455
3.04,3.52296971524542,0,12.0775349143307,25.1830256322799,0,0,2.15503945559122,0,0,0,8.383657045502,-3.18523219753194,0.0292452010788232,0,0,0.828379047115845
3.05,3.51406161054432,0,12.167113995907,23.9504729913544,0,0,-2.1512101788301,0,0,0,8.48553707741836,-3.0055485958409,-0.0292452010788232,0,0,0.629867806407529
3.06,3.50915745970935,0,12.2574198696057,25.1851757659705,0,0,2.154962870056,0,0,0,8.4521064665089,-3.21774944298136,0.0292452010788232,0,0,0.829596525084955
3.07,3.5002320293041,0,12.3477554870112,23.9525801223712,0,0,-2.15128523265462,0,0,0,8.55462330979844,-3.0364931791297,-0.0292452010788232,0,0,0.629440243424868
3.08,3.49534473515474,0,12.4388181164053,25.1872407543669,0,0,2.15488931730797,0,0,0,8.52046229889574,-3.25032358017888,0.0292452010788232,0,0,0.830797020043068
3.09,3.48640296512051,0,12.5299096868996,23.9546038109997,0,0,-2.15135731434769,0,0,0,8.62361709131952,-3.06749456835824,-0.0292452010788232,0,0,0.628998190189871
3.1,3.48153346560833,0,12.6217284365432,25.1892239692229,0,0,2.15481867724877,0,0,0,8.58872437437004,-3.28295015759244,0.0292452010788232,0,0,0.831981137631291
3.11,3.47257630172371,0,12.7135753561543,23.9565473615586,0,0,-2.15142654160571,0,0,0,8.69251816439924,-3.09854840700989,-0.0292452010788232,0,0,0.628542247223042
3.12,3.46772549441862,0,12.8061495715427,25.1911286487706,0,0,2.15475083453591,0,0,0,8.6568925356408,-3.31562490176891,0.0292452010788232,0,0,0.833149461122257
3.13,3.45875384371683,0,12.8987512159452,23.9584139475153,0,0,-2.15149302746431,0,0,0,8.76132628604693,-3.12965051292118,-0.0292452010788232,0,0,0.628072992731773
3.14,3.45392258736537,0,12.9920802243103,25.1929579030081,0,0,2.15468567839448,0,0,0,8.72496663601144,-3.34834371055365,0.0292452010788232,0,0,0.834302552217523
3.15,3.44493731962781,0,13.0854359496713,23.9602066166681,0,0,-2.15155688048292,0,0,0,8.83004122732036,-3.1607968716385,-0.0292452010788232,0,0,0.62759098340691
3.16,3.44012643565337,0,13.1795190607476,25.1947147187779,0,0,2.15462310243624,0,0,0,8.79294653898921,-3.3811026465596,0.0292452010788232,0,0,0.835440951817741
3.17,3.43112838484757,0,13.273628204541,23.9619282961224,0,0,-2.15161820492198,0,0,0,8.89866277280372,-3.19198363001947,-0.0292452010788232,0,0,0.627096755192043
3.18,3.42633865879474,0,13.3684647113027,25.1964019646432,0,0,2.15456300448596,0,0,0,8.86083211791031,-3.41389793087702,0.0292452010788232,0,0,0.836565180766503
3.19,3.41732862445863,0,13.4633265930935,23.9635817970704,0,0,-2.15167710091326,0,0,0,8.96719072010615,-3.22320709007026,-0.0292452010788232,0,0,0.626590824026418
3.2,3.41256080738366,0,13.5589157724646,25.1980223955722,0,0,2.1545052864145,0,0,0,8.92862325557985,-3.44672593701551,0.0292452010788232,0,0,0.837675740568724
3.21,3.40353955595818,0,13.6545296946633,23.9651698193809,0,0,-2.15173366462329,0,0,0,9.03562487937972,-3.25446370301048,-0.0292452010788232,0,0,0.626073686562336
3.22,3.39879436576749,0,13.7508708082009,25.1995786574364,0,0,2.15444985397868,0,0,0,8.99631984392607,-3.47958318506973,0.0292452010788232,0,0,0.838773114084376
3.23,3.38976263187941,0,13.8472360567907,23.9666949560078,0,0,-2.15178798841039,0,0,0,9.10396507285602,-3.28575006355754,-0.0292452010788232,0,0,0.625545820857862
3.24,3.38504075461798,0,13.9443283513428,25.2010732913308,0,0,2.15439661666731,0,0,0,9.06392178366809,-3.51246633610117,0.0292452010788232,0,0,0.839857766198398
3.25,3.3759992423146,0,14.0414441965786,23.9681596972243,0,0,-2.15184016097553,0,0,0,9.17221113440061,-3.3170629044226,-0.0292452010788232,0,0,0.625007687045694
3.26,3.37130133340617,0,14.1392869049175,25.202508737723,0,0,2.15434548755348,0,0,0,9.13142898399651,-3.54537218672795,0.0292452010788232,0,0,0.840930144467553
3.27,3.36225071734383,0,14.2371526019994,23.9695664346886,0,0,-2.15189026750709,0,0,0,9.24036290908453,-3.34839909101057,-0.0292452010788232,0,0,0.624459727978943
3.28,3.35757740278452,0,14.3357449434312,25.203887340438,0,0,2.15429638315255,0,0,0,9.19884136226636,-3.57829766391541,0.0292452010788232,0,0,0.841990679744988
3.29,3.34851832937242,0,14.4343597331523,23.9709174653494,0,0,-2.15193838982,0,0,0,9.30842025277202,-3.3797556163169,-0.0292452010788232,0,0,0.623902369854601
3.3,3.3438702068795,0,14.533700914103,25.2052113504856,0,0,2.1542492232859,0,0,0,9.26615884370177,-3.61123981996024,0.0292452010788232,0,0,0.843039786783239
3.31,3.3348032953806,0,14.6330640234732,23.972214995196,0,0,-2.15198460648932,0,0,0,9.37638303172392,-3.41112959601404,-0.0292452010788232,0,0,0.623336022815436
3.32,3.33018093549809,0,14.7331532380538,25.2064829297352,0,0,2.15420393094997,0,0,0,9.33338136111184,-3.64419582766116,0.0292452010788232,0,0,0.844077864816365
3.33,3.32110677908848,0,14.8332638808996,23.9734611428606,0,0,-2.15202899297853,0,0,0,9.44425112221601,-3.44251826372082,-0.0292452010788232,0,0,0.622761081531021
3.34,3.31651072625112,0,14.9341003114485,25.2077041544466,0,0,2.15416043219054,0,0,0,9.40050885461727,-3.6771629756695,0.0292452010788232,0,0,0.845105298121931
3.35,3.30742989303956,0,15.0349576889908,23.9746579430778,0,0,-2.15207162176277,0,0,0,9.51202441017163,-3.47391896644817,-0.0292452010788232,0,0,0.622177925758592
3.36,3.30286066659661,0,15.1365405065973,25.2088770186594,0,0,2.15411865598199,0,0,0,9.46754127138717,-3.71013866401328,0.0292452010788232,0,0,0.846122456563485
3.37,3.29377370060551,0,15.2381438080065,23.9758073500063,0,0,-2.15211256244715,0,0,0,9.57970279080802,-3.5053291602148,-0.0292452010788232,0,0,0.621586920884401
3.38,3.28923179580588,0,15.340472173013,25.2100034374494,0,0,2.15407853411129,0,0,0,9.53447856538573,-3.7431203997883,0.0292452010788232,0,0,0.847129696114163
3.39,3.28013921791528,0,15.4428205759439,23.9769112404205,0,0,-2.15215188188044,0,0,0,9.64728616829585,-3.53674640582677,-0.0292452010788232,0,0,0.620988418446214
3.4,3.27562510685547,0,15.5458936384299,25.2110852500553,0,0,2.15404000106667,0,0,0,9.60132069712824,-3.77610579301059,0.0292452010788232,0,0,0.848127359362075
3.41,3.26652741571124,0,15.6489863095361,23.9779714167743,0,0,-2.15218964426416,0,0,0,9.7147744554313,-3.568168364815,-0.0292452010788232,0,0,0.620382756637579
3.42,3.26204154824735,0,15.7528032097837,25.212124222882,0,0,2.15400299393062,0,0,0,9.66806763344605,-3.80909255262402,0.0292452010788232,0,0,0.849115775998059
3.43,3.25293922113502,0,15.8566393052118,23.9789896101444,0,0,-2.15222591125749,0,0,0,9.78216757332031,-3.59959279552506,-0.0292452010788232,0,0,0.619770260794466
3.44,3.24848202576011,0,15.9611991741534,25.2131220523847,0,0,2.15396745227716,0,0,0,9.73471934726019,-3.84207848265772,0.0292452010788232,0,0,0.850095263286369
3.45,3.23937551944556,0,16.0657778400193,23.9799674830571,0,0,-2.15226074207789,0,0,0,9.8494654510744,-3.63101754935363,-0.0292452010788232,0,0,0.619151243864886
3.46,3.23494740413383,0,16.1710797996679,25.2140803678392,0,0,2.15393331807317,0,0,0,9.80127581736321,-3.87506147852778,0.0292452010788232,0,0,0.851066126518925
3.47,3.22583715567194,0,16.2764001725146,23.9809066322025,0,0,-2.15229419359779,0,0,0,9.91666802551762,-3.6624405671265,-0.0292452010788232,0,0,0.618526006862029
3.48,3.22143850869073,0,16.3824433363783,25.2150007340016,0,0,2.15390053558366,0,0,0,9.86773702820889,-3.90803952347797,0.0292452010788232,0,0,0.852028659453583
3.49,3.21232493620341,0,16.4885045436158,23.9818085910417,0,0,-2.15232632043751,0,0,0,9.98377524090428,-3.69385987561274,-0.0292452010788232,0,0,0.617894839301494
3.5,3.20795612689429,0,16.5952880170963,25.215884653664,0,0,2.15386905128074,0,0,0,9.9341029697096,-3.94101068515457,0.0292452010788232,0,0,0.852983144737054
3.51,3.19883963031878,0,16.7020891774252,23.9826748323109,0,0,-2.15235717505437,0,0,0,10.0507870486468,-3.72527358417033,-0.0292452010788232,0,0,0.617258019623134
3.52,3.19450100984887,0,16.8096120582004,25.2167335701078,0,0,2.15383881375621,0,0,0,10.0003736370408,-3.97397311231024,0.0292452010788232,0,0,0.853929854312903
3.53,3.18538197165752,0,16.9171522820192,23.9835067704258,0,0,-2.15238680782841,0,0,0,10.1177034070538,-3.75667988151831,-0.0292452010788232,0,0,0.616615815598039
3.54,3.18107387374218,0,17.025413660412,25.2175488694604,0,0,2.15380977363766,0,0,0,10.0665490304528,-4.00692503163241,0.0292452010788232,0,0,0.854869049815194
3.55,3.17195265963472,0,17.1336920502084,23.9843057637913,0,0,-2.1524152671446,0,0,0,10.1845242810771,-3.78807703263083,-0.0292452010788232,0,0,0.615968484721152
3.56,3.16767540123254,0,17.2426910095409,25.2183318829587,0,0,2.1537818835078,0,0,0,10.1326291550887,-4.03986474469156,0.0292452010788232,0,0,0.855800982948203
3.57,3.15855236080192,0,17.3517066602685,23.9850731170196,0,0,-2.15244259947186,0,0,0,10.2512496420685,-3.81946337574885,-0.0292452010788232,0,0,0.61531627458999
3.58,3.15430624278315,0,17.4614422772023,25.2190838891224,0,0,2.15375509782708,0,0,0,10.1986140208096,-4.07279062500497,0.0292452010788232,0,0,0.856725895852721
3.59,3.14518171015586,0,17.5711942766426,23.9858100830601,0,0,-2.15246884943896,0,0,0,10.3178794675448,-3.85083731950491,-0.0292452010788232,0,0,0.614659423269976
3.6,3.14096701794523,0,17.6816656215064,25.219806115842,0,0,2.15372937285932,0,0,0,10.2645036420249,-4.10570111521186,0.0292452010788232,0,0,0.857644021459371
3.61,3.13184131239703,0,17.7921530506166,23.9865178652453,0,0,-2.15249405990737,0,0,0,10.3844137409617,-3.88219734015708,-0.0292452010788232,0,0,0.613998159646787
3.62,3.12765831659186,0,17.9033591877214,25.2204997423836,0,0,2.15370466660028,0,0,0,10.3302980375297,-4.13859472435571,0.0292452010788232,0,0,0.858555583829361
3.63,3.11853174313992,0,18.0145811209693,23.987197619256,0,0,-2.15251827204123,0,0,0,10.4508524514954,-3.91354197892792,-0.0292452010788232,0,0,0.613332703766188
3.64,3.11438070010454,0,18.1265211089103,25.2211659013141,0,0,2.1536809387091,0,0,0,10.3959972303471,-4.17147002526989,0.0292452010788232,0,0,0.85946079848315
3.65,3.10525355007678,0,18.2384766145957,23.9878504550079,0,0,-2.15254152537459,0,0,0,10.5171955938323,-3.9448698394447,-0.0292452010788232,0,0,0.612663267161776
3.66,3.10113470251402,0,18.3511495065438,25.2218056803509,0,0,2.15365815044241,0,0,0,10.4616012475764,-4.2043256520628,0.0292452010788232,0,0,0.860359872717379
3.67,3.09200725409654,0,18.4638376471078,23.988477438464,0,0,-2.15256385787594,0,0,0,10.5834431679665,-3.97617958527713,-0.0292452010788232,0,0,0.611990053171025
3.68,3.08792083159723,0,18.5772424910889,25.2224201241379,0,0,2.15363626459108,0,0,0,10.5271101202463,-4.2371602976988,0.0292452010788232,0,0,0.861253005910509
3.69,3.07879335036064,0,18.6906623234111,23.9890795933753,0,0,-2.15258530601025,0,0,0,10.6495951790036,-4.00746993756897,-0.0292452010788232,0,0,0.611313257240058
3.7,3.0747395699319,0,18.804798162575,25.2230102359509,0,0,2.15361524541946,0,0,0,10.5925238831737,-4.26997271167158,0.0292452010788232,0,0,0.862140389817519
3.71,3.06561230933735,0,18.9189487382589,23.989657902952,0,0,-2.15260590479843,0,0,0,10.7156516369724,-4.03873967276011,-0.0292452010788232,0,0,0.610633067217494
3.72,3.06159137591046,0,19.0338146111373,25.2235769793361,0,0,2.15359505860704,0,0,0,10.6578425748269,-4.30276169776631,0.0292452010788232,0,0,0.86302220885406
3.73,3.05246457779605,0,19.1486949767851,23.9902133114695,0,0,-2.1526256878746,0,0,0,10.7816125566431,-4.0699876203958,-0.0292452010788232,0,0,0.609949663637788
