Time_s,Height_m,X_m,Y_m,Roll_deg,Pitch_deg,Yaw_deg,p,q,r,u,v,w,tx,ty,tz,Thrust
0.01,0.000981,0,0,-0.728892128279883,0.5435,0.732093704245974,-1.27215675303528,0.948586448458918,1.27774455722138,0,0,-0.0981,-0.00872699532582205,0.00872699532582205,0.0174539906516441,1.33416
0.02,0.00294106273082219,-4.92236274573733e-05,-6.75720725099492e-05,0.981084690006751,-0.770697344559116,-0.722544538846234,3.00855512788126,-2.26122598613934,-2.56768178887501,-0.00314881204280394,-0.00419928854751436,-0.196114251269072,0.0292452010788232,-0.0292452010788232,-0.05220768204,1.33416
0.03,0.00588161617920524,-1.00647948474875e-05,-1.5916643014965e-05,0.195881055957866,-0.264753024588442,0.0410362530832646,-1.35251299080471,0.90572682144871,1.31726429046325,-0.000105196048868758,0.000178407409931951,-0.294126707233869,-0.0292452010788232,0.0292452010788232,0.05220768204,1.33416
0.04,0.00980149592874545,-5.62449153261036e-05,-8.36174553700474e-05,1.88132317479276,-1.58010549596131,-1.41244973740422,2.92992934474262,-2.30438239316016,-2.52892117611938,-0.00643410664820973,-0.00810675898735282,-0.391937004216398,0.0292452010788232,-0.0292452010788232,-0.05220768204,1.33416
0.05,0.014695916501235,7.84986983644747e-05,8.20548055552108e-05,1.04030589201086,-1.10981638308182,-0.619831480753268,-1.42970599181516,0.865765143185689,1.3551617346452,-0.000439215129748511,0.000811425083169993,-0.489906835508749,-0.0292452010788232,0.0292452010788232,0.05220768204,1.33416
0.06,0.0205735053399465,9.18049915691221e-05,7.45707304831805e-05,2.70388721542883,-2.42708680945757,-2.07193243178278,2.85440912639503,-2.34469688932503,-2.49175978431289,-0.010045751740028,-0.0114035294773536,-0.587564361278906,0.0292452010788232,-0.0292452010788232,-0.05220768204,1.33416
0.07,0.0274144728110819,0.000382339444737468,0.000409725652238331,1.80756221109673,-1.99055695809118,-1.25243408610671,-1.50381215729061,0.828452586692185,1.39147890963609,-0.00117235388875971,0.0022071623555514,-0.685528631300371,-0.0292452010788232,0.0292452010788232,0.05220768204,1.33416
0.08,0.0352459646653096,0.000515295759463677,0.000515897311581718,3.45186690636466,-3.31050845325666,-2.7029387536393,2.78191821777259,-2.3824091428771,-2.45615516727731,-0.0141500073011563,-0.0138022159242418,-0.783084555323393,0.0292452010788232,-0.0292452010788232,-0.05220768204,1.33416
0.09,0.0440246544514409,0.00102517650475557,0.00106930822274214,2.50074154824018,-2.90585877645825,-1.85844919353017,-1.57491270429723,0.793561771289954,1.42625999002755,-0.00245345975681581,0.00464304504143057,-0.881072520505169,-0.0292452010788232,0.0292452010788232,0.05220768204,1.33416
0.1,0.0538046725210581,0.00134125830875132,0.00133587516380832,4.12826156840328,-4.22925121763181,-3.30717241906243,2.71237588008092,-2.41773827471433,-2.42206293612316,-0.0188923055676459,-0.0150441942687455,-0.978577510388633,0.0292452010788232,-0.0292452010788232,-0.05220768204,1.33416
0.11,0.0645108527275356,0.00213700277753412,0.00214983850412752,3.1228381465185,-3.85462919984192,-2.43933390410193,-1.64309246186718,0.76088518782785,1.45955071722214,-0.00441252488007907,0.00836845858936805,-1.07661083983515,-0.0292452010788232,0.0292452010788232,0.05220768204,1.33416
0.12,0.0762325438935179,0.00270263011790966,0.0026170582820329,4.73597197880662,-5.18221591932459,-3.88611979870513,2.64569803541084,-2.45088437461821,-2.38943731393304,-0.0243997628870394,-0.0148971290303497,-1.17411475210681,0.0292452010788232,-0.0292452010788232,-0.05220768204,1.33416
0.13,0.0888546432638826,0.00385336921756398,0.00372761724552055,3.67674136305422,-4.8358031171038,-2.99634800374578,-1.70843883214149,0.73023368956251,1.49139789350329,-0.00716302544555412,0.0136071400315966,-1.27220787563542,-0.0292452010788232,0.0292452010788232,0.05220768204,1.33416
0.14,0.102509742927358,0.00473757652170426,0.00442948913282676,5.27779377896913,-6.16832788552823,-4.44107200160421,2.58179825383526,-2.48202995161491,-2.35823161235742,-0.030783450033493,-0.0131527424915539,-1.36975958466887,0.0292452010788232,-0.0292452010788232,-0.05220768204,1.33416
0.15,0.117034892879191,0.00631474085187131,0.00586666175044762,4.16522929579015,-5.84834556663835,-3.53057422403935,-1.7710408986303,0.701435055810474,1.52184894916675,-0.0108040331702234,0.0205593434616062,-1.46792013477164,-0.0292452010788232,0.0292452010788232,0.05220768204,1.33416
0.16,0.132613763458451,0.0075888795731407,0.00683115341087282,5.75641190503834,-7.18653991586377,-4.9731442044991,2.52058860024428,-2.51134131231639,-2.32839863874669,-0.0381404461930738,-0.00962479855623376,-1.56556746622785,0.0292452010788232,-0.0292452010788232,-0.05220768204,1.33416
0.17,0.149027817175012,0.0096659164052919,0.00861916225548906,4.59096345683996,-6.89125313697113,-4.04293580170726,-1.83098866498687,0.674332632882011,1.55095157442544,-0.0154221237247547,0.0294038037985913,-1.66379678591731,-0.0292452010788232,0.0292452010788232,0.05220768204,1.33416
0.18,0.166519463269166,0.0114033865527204,0.00986843683738341,6.17439589177182,-8.23583404787749,-5.48329245020992,2.46198035686785,-2.53896986347214,-2.29989104179738,-0.0465556999141777,-0.00414727605813452,-1.76158652716229,0.0292452010788232,-0.0292452010788232,-0.05220768204,1.33416
0.19,0.184806994603505,0.0140555038835093,0.0120259381816303,4.95648432544952,-7.96355442683582,-4.53421157399524,-1.88837240904547,0.648784054689689,1.57875340846571,-0.0210931046807903,0.040299522676125,-1.85988022096005,-0.0292452010788232,0.0292452010788232,0.05220768204,1.33416
0.2,0.204199057616718,0.0163315107690363,0.0135765799053726,6.53419590485619,-9.3152223901936,-5.97232812496118,2.40588463609488,-2.56505333689052,-2.2726616030232,-0.0561037182400973,0.00342729224408356,-1.95785818601239,0.0292452010788232,-0.0292452010788232,-0.05220768204,1.33416
0.21,0.224343342359375,0.0196354450388439,0.0161168907015804,5.26420762101527,-9.06430978992403,-5.00504882793181,-1.94328213823232,0.62466004373074,1.60530177870691,-0.0278835833410985,0.0533873987550827,-2.05620669568307,-0.0292452010788232,0.0292452010788232,0.05220768204,1.33416
0.22,0.245622077172011,0.0225267778774309,0.0179801275254717,6.83813936173172,-10.4237472360769,-6.44093030712625,2.3522128968657,-2.58971693642534,-2.24666348069537,-0.0668501031264077,0.0132293368461113,-2.15441782648527,0.0292452010788232,-0.0292452010788232,-0.05220768204,1.33416
0.23,0.267605059037114,0.0265605822314727,0.0209114490204332,5.51642114380575,-10.1926105430378,-5.45597409961382,-1.99580713378661,0.601843291809361,1.63064348397739,-0.0358523926250852,0.0687917228545849,-2.25280701667034,-0.0292452010788232,0.0292452010788232,0.05220768204,1.33416
0.24,0.290755295112049,0.030145411530184,0.0230933713873922,7.08842800541912,-11.5604806273939,-6.88965615996849,2.3008773766242,-2.61307440792749,-2.22185041224945,-0.0788529521766805,0.0253736445719267,-2.35129550599444,0.0292452010788232,-0.0292452010788232,-0.05220768204,1.33416
0.25,0.314557538611155,0.0349882617831989,0.026419008547138,5.71528203762847,-11.3475777780319,-5.88740209618501,-2.04603557249941,0.580227418836882,1.65482461595558,-0.0450518910957248,0.0866215562013106,-2.4497072478016,-0.0292452010788232,0.0292452010788232,0.05220768204,1.33416
0.26,0.339562627736704,0.0393459527491751,0.0289207835531951,7.28713529962935,-12.7245235035213,-7.31894951945009,2.2517914495876,-2.63522903398515,-2.19817688053817,-0.0921641387579461,0.0399606450326114,-2.54851667200761,0.0292452010788232,-0.0292452010788232,-0.05220768204,1.33416
0.27,0.365163259935713,0.0450779684907715,0.0326393597659083,5.86281433429619,-12.5283608864211,-6.29964288884474,-2.09405421587537,0.559716007274159,1.67789041382446,-0.0555291512617873,0.106972007947863,-2.64692941497911,-0.0292452010788232,0.0292452010788232,0.05220768204,1.33416
0.28,0.391983029546141,0.0503979593991248,0.0354456427897034,7.43070872155456,-13.6741712542643,-7.7038148598526,2.20486992093985,-2.23373098702333,-2.17559824873061,-0.0956460546955646,0.0570776057450844,-2.7463375021024,0.0292452010788232,-0.0253578002445489,-0.05220768204,1.33416
0.29,0.419338146379167,0.0571979508051533,0.039535214502802,5.95607801759444,-13.2578227189597,-6.63801554626368,-2.13397146485379,0.954314406781621,1.69828919637543,-0.0451815165820542,0.129578317501902,-2.84496696973165,-0.0292452010788232,0.0292452010788232,0.05220768204,1.33416
0.3,0.447978515367514,0.0634237606073471,0.0426573025551994,7.51545584934492,-14.4235646869951,-8.03786796537485,2.16131988520826,-2.27038491671753,-2.15412669111912,-0.0900217217592691,0.0768947814920431,-2.94512683174733,0.0292452010788232,-0.0292452010788232,-0.05220768204,1.33416
0.31,0.477095703029253,0.0712310343170044,0.0471257534587797,5.99930761961768,-14.0301346193351,-6.9583151406957,-2.17685201596435,0.919436869968407,1.71930038858769,-0.0370955107986373,0.15490312060501,-3.04334370095567,-0.0292452010788232,0.0292452010788232,0.05220768204,1.33416
0.32,0.50754291029218,0.0784137110910152,0.0505556826005234,7.55202638746817,-15.2160534679869,-8.35376673278996,2.11955644221768,-2.30544122938482,-2.13359568175417,-0.0867433244171014,0.0993985593065723,-3.14427613589616,0.0292452010788232,-0.0292452010788232,-0.05220768204,1.33416
0.33,0.538405682220193,0.0872806193582259,0.0553937114651995,5.9943614263178,-14.8437562271168,-7.26077724731997,-2.21796341874948,0.88606827767064,1.73938563449816,-0.0313199413446424,0.182987798644034,-3.24205602862954,-0.0292452010788232,0.0292452010788232,0.05220768204,1.33416
0.34,0.570645003185642,0.0954733356058253,0.0591195219527162,7.54218469104733,-16.0500852797522,-8.65174393413318,2.07952455444987,-2.33899415864314,-2.11397417127984,-0.0858567833079615,0.124626121191376,-3.3437789608218,0.0292452010788232,-0.0292452010788232,-0.05220768204,1.33416
0.35,0.603235880709585,0.105454149768121,0.0643140478969123,5.94296494702187,-15.6971971352947,-7.54551753954844,-2.25736171582928,0.854119302513527,1.75857614240808,-0.0278969730559437,0.21386685306714,-3.44109477014684,-0.0292452010788232,0.0292452010788232,0.05220768204,1.33416
0.36,0.63725152587874,0.11471203929103,0.0683199392182059,7.48756258981061,-16.9241577167781,-8.93191315096771,2.04116895436001,-2.37113086244801,-2.09523121679342,-0.0874016574671507,0.152608230623466,-3.54362380592535,0.0292452010788232,-0.0292452010788232,-0.05220768204,1.33416
0.37,0.671551937727761,0.125862788837525,0.0738542529663433,5.84670954883911,-16.5890143286939,-7.81253954414372,-2.29510295023113,0.823507413150109,1.776902924501,-0.0268630925148118,0.247568344139338,-3.64044629962864,-0.0292452010788232,0.0292452010788232,0.05220768204,1.33416
0.38,0.707326943108935,0.136242790423075,0.0781207368364712,7.38965796332377,-17.8368158148267,-9.19427583177732,2.00443441825318,-2.40193197300804,-2.07733610306173,-0.0914120967094516,0.183369622110227,-3.74379522487456,0.0292452010788232,-0.0292452010788232,-0.05220768204,1.33416
0.39,0.743317118386916,0.148621108900612,0.0839746504836251,5.70705066667963,-17.5178094186074,-8.06174066519397,-2.33124291895002,0.794156336882742,1.79439668735513,-0.0282499986049613,0.284114319108187,-3.84009360430851,-0.0292452010788232,0.0292452010788232,0.05220768204,1.33416
0.4,0.780833229523725,0.160181815628292,0.0884787018678545,7.24983282331894,-18.7866493811781,-9.43872663443892,1.96926600268215,-2.43147211047053,-2.06025844629802,-0.0979177239411464,0.216929387243787,-3.94427482533031,0.0292452010788232,-0.0292452010788232,-0.05220768204,1.33416
0.41,0.81849208567678,0.173846792279212,0.0946286971712183,5.52530556854135,-18.4822257295119,-8.29291656195497,-2.36583696129368,0.765995558760717,1.81108773869739,-0.0320854298360565,0.323521236301267,-4.04001723924969,-0.0292452010788232,0.0292452010788232,0.05220768204,1.33416
0.42,0.857729636818618,0.186648305383136,0.0993439034720038,7.06931087614528,-19.7722901763539,-9.66505712514486,1.93560924739172,-2.45982036155182,-2.04396828238992,-0.106944457123085,0.253301362591653,-4.14504216878097,0.0292452010788232,-0.0292452010788232,-0.05220768204,1.33416
0.43,0.897034663980672,0.20166034152438,0.105763278751496,5.30265063484267,-19.4809452770212,-8.50576394345008,-2.39893977820858,0.73895985579083,1.82700590860975,-0.0383939371082514,0.365800389835501,-4.24019618217571,-0.0292452010788232,0.0292452010788232,0.05220768204,1.33416
0.44,0.937972453804232,0.21576412786641,0.110659987344469,6.84917451621842,-20.792408982202,-9.87295788195948,1.90341034846467,-2.48704072447366,-2.02843614129702,-0.118515278823356,0.292494523093103,-4.34607557243162,0.0292452010788232,-0.0292452010788232,-0.05220768204,1.33416
0.45,0.978899596780938,0.232184797131592,0.117319003119751,5.04011809090364,-20.5126856620283,-8.69988182042871,-2.43060527914238,0.712988864747348,1.84218048356532,-0.0471976089538175,0.41095833806436,-4.4406085905607,-0.0292452010788232,0.0292452010788232,0.05220768204,1.33416
0.46,1.0214732982426,0.247766753396654,0.122347260089704,6.58519676009427,-21.689199546704,-10.0472810070116,1.8726163049781,-2.23896543144185,-2.01363310917569,-0.120473608028549,0.334513383232105,-4.54748224402187,0.0292452010788232,-0.02672231184845,-0.05220768204,1.33416
0.47,1.06395616423937,0.265763462289093,0.129191286700771,4.7321604832466,-21.2665644772279,-8.84288882733528,-2.45729639552252,0.956769230418955,1.85576047264566,-0.0343814818614892,0.458613359419311,-4.64151408975395,-0.0292452010788232,0.0292452010788232,0.05220768204,1.33416
0.48,1.10818733752361,0.282754069532124,0.134340469582172,6.2745541812233,-22.4710409279206,-10.1832855123604,1.84345481507953,-2.27489784095131,-1.99926594510876,-0.113524102008539,0.379445087512681,-4.74963670117626,0.0292452010788232,-0.0292452010788232,-0.05220768204,1.33416
0.49,1.1522497359961,0.302256183226136,0.141356959255644,4.38574458560659,-22.0629227483561,-8.96837028109058,-2.48613257403562,0.922185250799233,1.86984191773646,-0.0250196740895933,0.509178196286942,-4.84259195375186,-0.0292452010788232,0.0292452010788232,0.05220768204,1.33416
0.5,1.19811954833593,0.320701074175806,0.146591967177581,5.92671977996336,-23.2952654671583,-10.301494231544,1.81552819499239,-2.30944442943653,-1.98556615413829,-0.110092920309874,0.427206071700865,-4.95196571706553,0.0292452010788232,-0.0292452010788232,-0.05220768204,1.33416
0.51,1.24374049313445,0.341754729727657,0.153746680134472,4.00169120334694,-22.9000877154805,-9.07571266505848,-2.51374400420971,0.888926110020099,1.88326632549997,-0.0191225146297701,0.562635640490631,-5.04383235293307,-0.0292452010788232,0.0292452010788232,0.05220768204,1.33416
0.52,1.29122843492917,0.36170139823089,0.159029662412168,5.5424021373763,-24.1601964045777,-10.4012661463184,1.78879573086984,-2.34266941656497,-1.97250983375568,-0.110188555551319,0.477778383524312,-5.15445703432389,0.0292452010788232,-0.0292452010788232,-0.05220768204,1.33416
0.53,1.33838524648354,0.384354408632198,0.166285794776709,3.58067394113792,-23.7764300352788,-9.16420241701371,-2.54017186511814,0.856930570818735,1.89605757192367,-0.0166980171592891,0.618966699880893,-5.24522197163656,-0.0292452010788232,0.0292452010788232,0.05220768204,1.33416
0.54,1.38746900707736,0.405852058837568,0.171576282578966,5.12216016625655,-25.0642003791628,-10.4818570908193,1.76321691596243,-2.37463307337423,-1.96007339417976,-0.113817430105971,0.531142521999436,-5.35709538925942,0.0292452010788232,-0.0292452010788232,-0.05220768204,1.33416
0.55,1.43613719770992,0.430153765460602,0.178894594139816,3.12321436737269,-24.6903595162541,-9.23302483410896,-2.56545701078869,0.826141189005568,1.90823917772856,-0.0177525229925573,0.67815085010374,-5.44674493214462,-0.0292452010788232,0.0292452010788232,0.05220768204,1.33416
0.56,1.48679254022315,0.453253162543291,0.184149632534366,4.66639755718099,-26.0056831820949,-10.542417494836,1.73875158927732,-2.40539201064881,-1.94823361350519,-0.120984537312124,0.587277662827408,-5.5598633689079,0.0292452010788232,-0.0292452010788232,-0.05220768204,1.33416
0.57,1.53694569907691,0.479254289583828,0.19148857528712,2.6296763090779,-25.6403207999071,-9.2812613151105,-2.58963984530586,0.796504032497116,1.91983425882667,-0.0222913040146506,0.740166297415811,-5.64838359719846,-0.0292452010788232,0.0292452010788232,0.05220768204,1.33416
0.58,1.58906347530124,0.504179723693299,0.19663476463022,4.1710432763401,-26.7874440187564,-10.5720213422014,1.71536005558204,-2.09318080288102,-1.93696768471294,-0.112386815482848,0.64616189846685,-5.76281834637985,0.0292452010788232,-0.0261004695515726,-0.05220768204,1.33416
0.59,1.64059169445577,0.5320930708554,0.203914649249084,2.09654167149598,-26.2375978724862,-9.28515676802357,-2.60845565430492,1.102950691779,1.92986106242773,0.00796853994384647,0.80437470853031,-5.85029984031452,-0.0292452010788232,0.0292452010788232,0.05220768204,1.33416
0.6,1.69414711688676,0.558656406672303,0.208948035685889,3.63209270462825,-27.4197601742599,-10.5643399760206,1.6930236809004,-2.13514203453967,-1.92574642877249,-0.0890723820299446,0.707895893801793,-5.95669708138222,0.0292452010788232,-0.0292452010788232,-0.05220768204,1.26747138487186
0.61,1.74667342880261,0.588103348366148,0.21616766022641,1.52903753087782,-26.8827840663802,-9.27062201705137,-2.63071795578192,1.06228888722997,1.94089949812079,0.0332092027707057,0.871137123780812,-6.00188347366976,-0.0292452010788232,0.0292452010788232,0.05220768204,1.05892207826686
0.62,1.80081923643243,0.615927726573657,0.221092357682931,3.0597348285189,-28.0995443114849,-10.5376719114897,1.67164056931719,-2.17552279287423,-1.91506994211053,-0.0697216787681263,0.77290682408773,-6.05804633890866,0.0292452010788232,-0.0292452010788232,-0.05220768204,0.913563052004398
0.63,1.85347613886119,0.646472403030592,0.228233961490746,0.927396094739348,-27.5738363748573,-9.23654175202561,-2.65202796967921,1.02315202096782,1.95139987814786,0.0536191465790899,0.938774641392841,-6.0566590247254,-0.0292452010788232,0.0292452010788232,0.05220768204,0.753907342651222
0.64,1.90745809339537,0.675212548886512,0.233068553663425,2.45405747383499,-28.8247559377036,-10.4908415797511,1.65118076282047,-2.21438845843966,-1.90491859013412,-0.0530256861711605,0.840258318845542,-6.07662414836376,0.0292452010788232,-0.0292452010788232,-0.05220768204,0.65470063776866
0.65,1.95961536598711,0.706531138794609,0.24012678738704,0.291697268586424,-28.3087556786333,-9.18170197774806,-2.67241634008008,0.985477165460749,1.96138188720306,0.0706889318354588,1.00653082220825,-6.04089703539459,-0.0292452010788232,0.0292452010788232,0.05220768204,0.531410417921846
0.66,2.01288851033775,0.735931950513734,0.244890997734057,1.81499090227007,-29.5933974917457,-10.4225694047302,1.63161418349001,-2.25180105731902,-1.89527295965182,-0.0379659947446789,0.908739609636861,-6.03523688805175,0.0292452010788232,-0.0292452010788232,-0.05220768204,0.467383562658555
0.67,2.06409389722723,0.767786312326381,0.25186773043795,-0.378138414074362,-29.0855811807228,-9.10478597374555,-2.69191372149345,0.949204636689273,1.97086495127756,0.0857146175862781,1.07374423916517,-5.97439490118742,-0.0292452010788232,0.0292452010788232,0.05220768204,0.370978088534616
0.68,2.11626996438039,0.797661795845416,0.256580223570055,1.14229954840021,-30.4035087043978,-10.3314660424158,1.61291076922378,-2.28781947456635,-1.88611390693741,-0.0236185783790964,0.977359724355648,-5.95106301746459,0.0292452010788232,-0.0292452010788232,-0.05220768204,0.333813160774134
0.69,2.16620423582333,0.829879372991258,0.26348092026942,-1.08235779750739,-29.9023847526541,-9.00436857931038,-2.71055065451515,0.914277785078718,1.97986819395716,0.0998118153776934,1.13984329832889,-5.87205487227305,-0.0292452010788232,0.0292452010788232,0.05220768204,0.257118505244079
0.7,2.2170118187923,0.860096544480991,0.268157913145886,0.435572647940904,-31.2531608268572,-10.2160248298968,1.59504059338648,-2.32249965375265,-1.87742259948122,-0.0091609393447334,1.0453093054136,-5.83702548878736,0.0292452010788232,-0.0292452010788232,-0.05220768204,0.240508801196007
0.71,2.26545473783281,0.892555002870827,0.274989168410055,-1.82138413817331,-30.7572651383732,-8.87890877491941,-2.72835745662472,0.880642800337559,1.98841039867862,0.113932888459776,1.20433861652073,-5.7450785495611,-0.0292452010788232,0.0292452010788232,0.05220768204,0.178097501015572
0.72,2.31458722076844,0.923215141695089,0.279613529926749,-0.301434332345275,-31.9104808608751,-10.0831223932936,1.57797396976241,-1.95431886573822,-1.86918055194417,0.0291990800415503,1.11192862645247,-5.70237312521733,0.0292452010788232,-0.0255507026376466,-0.05220768204,0.177260420054067
0.73,2.36126915395995,0.956018326315152,0.28634019009185,-2.58120332998839,-31.1929809022444,-8.74071627028268,-2.7404840162834,1.24179292868871,1.99542446938686,0.174024277653423,1.26606856863527,-5.60105200629467,-0.0292452010788232,0.0292452010788232,0.05220768204,0.125728997695425
0.74,2.40873356705078,0.986856209734403,0.290962026373767,-1.07310432869476,-32.387052862528,-9.92526291949639,1.56136452127401,-2.00228795614365,-1.86059303757489,0.0889528495752667,1.17680830026777,-5.55511286649572,0.0292452010788232,-0.0292452010788232,-0.05220768204,0.13764434650412
0.75,2.4536914617201,1.01975372263458,0.297623635199605,-3.37289912539841,-31.6809215197363,-8.58103474674021,-2.75723242483368,1.1951117953401,2.00391292948705,0.23138180998098,1.32546488263089,-5.44683046418345,-0.0292452010788232,0.0292452010788232,0.05220768204,0.0925415597708241
0.76,2.49941719784481,1.05073226266891,0.302247891651647,-1.87611463535016,-32.9150124682487,-9.74496682682755,1.54549072800204,-2.04845547652458,-1.85245920441412,0.146541808899591,1.23933383078713,-5.40014291473004,0.0292452010788232,-0.0292452010788232,-0.05220768204,0.114727635551887
0.77,2.54260012448917,1.08369311231221,0.308847794208272,-4.19688276775737,-32.2186220164337,-8.39821157756623,-2.77323888478638,1.1501788394366,2.0119518664479,0.286748361524007,1.38220890194765,-5.28721937259169,-0.0292452010788232,0.0292452010788232,0.05220768204,0.0737145869590954
0.78,2.58655035017427,1.1147942408551,0.313475491139108,-2.7110686113032,-33.4918983263461,-9.54047619122835,1.53032968588083,-2.09289163442247,-1.84476173720914,0.202609520229845,1.29913076118873,-5.24160183346732,0.0292452010788232,-0.0292452010788232,-0.05220768204,0.103958375622
0.79,2.62793720042004,1.14780599956701,0.320014121778743,-5.05371766019235,-32.803655068776,-8.19050347524623,-2.78852714290808,1.1069260581176,2.01955867266105,0.340797725755926,1.43603364894856,-5.12598059309752,-0.0292452010788232,0.0292452010788232,0.05220768204,0.066708
0.8,2.67010060378708,1.17902651227674,0.324642376592175,-3.57873009349355,-34.1152841217548,-9.30993409307139,1.5158582227258,-2.13566349377857,-1.83748355609356,0.257743185309368,1.35589357889709,-5.08272155963911,0.0292452010788232,-0.0292452010788232,-0.05220768204,0.101701271928552
0.81,2.70968925266568,1.21208905245507,0.331117629209112,-5.94412847020973,-33.4336242244524,-7.95606955168655,-2.80312111009682,1.06528850315183,2.0267504734318,0.394132022982932,1.48671908330286,-4.9656361235089,-0.0292452010788232,0.0292452010788232,0.05220768204,0.066708
0.82,2.75007048852006,1.24343556042439,0.335740437583463,-4.4800341537175,-34.7827715459921,-9.05137545031115,1.50205302921878,-2.1768351492305,-1.83060785485222,0.31247839588196,1.40938286863578,-4.92566528139452,0.0292452010788232,-0.0292452010788232,-0.05220768204,0.105471952241194
0.83,2.78786753630961,1.27655484260936,0.342148640849008,-6.86901081076547,-34.1061569240985,-7.69296309823421,-2.81704474051203,1.02520410960325,2.03354409220253,0.447287238631436,1.53408371271929,-4.80751585748657,-0.0292452010788232,0.0292452010788232,0.05220768204,0.0680552169140496
0.84,2.826478231673,1.30803878827626,0.346758148840714,-5.41609859544479,-35.4919829899012,-8.76271646875659,1.48889077510142,-2.2164678897314,-1.82411813424102,0.367306821122833,1.45941530039284,-4.77157360117213,0.0292452010788232,-0.0292452010788232,-0.05220768204,0.113928743938435
0.85,2.86250329569703,1.3412301876079,0.35309255121067,-7.82944154461577,-34.8188972532811,-7.39912210148373,-2.83032192470637,0.986613535210517,2.03995602047215,0.500743720044371,1.57797485373327,-4.65351908741638,-0.0292452010788232,0.0292452010788232,0.05220768204,0.0759098921785855
0.86,2.89935825633732,1.37287897564393,0.357676649251973,-6.38691640512462,-36.226753098111,-8.44405425235088,1.47634821177101,-2.23030679444643,-1.81799823070405,0.423781235465446,1.50582722000144,-4.62194466387891,0.0292452010788232,-0.029021516349353,-0.05220768204,0.125120522942717
0.87,2.93362878378844,1.40617085067667,0.363926817671674,-8.82366943058403,-35.5421596336258,-7.07681861623988,-2.84268901814678,0.973287296346172,2.0459409023636,0.557125962638171,1.6182353739597,-4.5044146055516,-0.0292452010788232,0.0292452010788232,0.05220768204,0.0861359878151156
0.88,2.96866814697287,1.43810021895374,0.368463604987722,-7.37478794448943,-36.8117005584321,-8.12594793634521,1.4643673308923,-1.96099792138499,-1.81217703846943,0.495937780962948,1.54850772833937,-4.47598137100915,0.0292452010788232,-0.026420852926624,-0.05220768204,0.138224548064488
0.89,3.00112697611986,1.47160787778234,0.374601465807178,-9.81246043372674,-35.957734092096,-6.78401196200793,-2.85117293145642,1.23743398974098,2.05092433379581,0.641368134950629,1.65432458112394,-4.35797869979029,-0.0292452010788232,0.0292452010788232,0.05220768204,0.099626054017631
0.9,3.03448378428536,1.50373706725635,0.379091367249262,-8.38292294060128,-37.2685183490447,-7.80126081519858,1.45249943031694,-2.00936184169319,-1.80598899943012,0.580885457774588,1.58742082237024,-4.33519019648678,0.0292452010788232,-0.0292452010788232,-0.05220768204,0.155709376478334
0.91,3.06526609848325,1.53738665077306,0.385116208930921,-10.8350728743446,-36.4220063762154,-6.46098741382337,-2.86329244850211,1.19026274463096,2.05706908276715,0.723963644667052,1.68663188161045,-4.21812637225135,-0.0292452010788232,0.0292452010788232,0.05220768204,0.114732537774407
0.92,3.096976980185,1.56974492836689,0.389540177788814,-9.42523525507581,-37.772841839406,-7.44475222841881,1.44120373410414,-2.05590342591743,-1.80017282555837,0.664401503388914,1.6223471366126,-4.20103045532888,0.0292452010788232,-0.0292452010788232,-0.05220768204,0.173133834466339
0.93,3.12611879155468,1.6035657573979,0.39543724767255,-11.8926820185179,-36.932185748336,-6.10557427561322,-2.87483096051968,1.14486473005132,2.06284495534875,0.805389157462093,1.71509331209616,-4.08515532513586,-0.0292452010788232,0.0292452010788232,0.05220768204,0.129662522515019
0.94,3.15621843714711,1.63618232194154,0.399775097526411,-10.5031617900333,-38.3218684612492,-7.05407819392633,1.43046015150615,-2.1006916467064,-1.79471251431646,0.746931540687777,1.65323621994047,-4.0737405614916,0.0292452010788232,-0.0292452010788232,-0.05220768204,0.190064851781347
0.95,3.18375346797261,1.6702034149347,0.40552852408301,-12.9866289691986,-37.4854951757292,-5.71550536877903,-2.88580928697678,1.10117295544878,2.06826797339113,0.886066596309844,1.73966518877198,-3.95924198545662,-0.0292452010788232,0.0292452010788232,0.05220768204,0.144045996585029
0.96,3.21227375868408,1.70310688470792,0.409759244598754,-11.6183184508246,-38.912803874325,-6.62678368236335,1.42024853915118,-2.14379264602561,-1.78959241548308,0.828869466501242,1.68005824612754,-3.9534570582947,0.0292452010788232,-0.0292452010788232,-0.05220768204,0.206198880767051
0.97,3.23823272879628,1.73735650680496,0.415352320462622,-14.1184294399013,-38.0791630532713,-5.28840836701679,-2.89624821741692,1.05912318405654,2.07335378494562,0.96636636390833,1.76032215896746,-3.84047840175082,-0.0292452010788232,0.0292452010788232,0.05220768204,0.157624815868013
0.98,3.26520214518295,1.770574548002,0.419454367713763,-12.7725108524478,-39.5428530257621,-6.16029156871749,1.41054880026097,-2.18526987621985,-1.78479725290322,0.910560138769893,1.70280157353263,-3.84024631546253,0.0292452010788232,-0.0292452010788232,-0.05220768204,0.22132818309428
0.99,3.28961229786769,1.80507988767246,0.424869818303202,-15.2897822878319,-38.7104145129973,-4.82179682694015,-2.90616842043685,1.01865379439209,2.07811764511021,1.04661048466374,1.77705560858191,-3.72889944982703,-0.0292452010788232,0.0292452010788232,0.05220768204,0.170223633391462
1,3.31492487834861,1.83873499811829,0.428824879772314,-13.9170301538563,-39.9777405207563,-5.73298490075286,1.40134097168845,-1.80636838481468,-1.78031214263579,1.00791929637162,1.72147082112843,-3.72974448367354,0.0292452010788232,-0.0253920952790904,-0.05220768204,0.235315775210691
1.01,3.33768327516552,1.87361826445393,0.434035757260552,-16.3947532043311,-38.9177747089094,-4.47227986989848,-2.9107427281572,1.39014518105205,2.08156901601824,1.15762210780396,1.78925162075437,-3.61633669537474,-0.0292452010788232,0.0292452010788232,0.05220768204,0.186373193084814
1.02,3.36151400327654,1.90764067006499,0.437821724218365,-15.0525591555238,-40.2279043045654,-5.3394289399377,1.39180781313026,-1.86126718848501,-1.77506948974446,1.11902119523355,1.73613506853506,-3.62370513495938,0.0292452010788232,-0.0292452010788232,-0.05220768204,0.256757662837049
1.03,3.38279659100796,1.94284088935186,0.442804195418177,-17.5344446215122,-39.177890693768,-4.08759385572905,-2.92065721548193,1.33652373127005,2.08680820703704,1.26591954564246,1.79743184557794,-3.51211851179899,-0.0292452010788232,0.0292452010788232,0.05220768204,0.204185496025446
1.04,3.40518166114916,1.97726254706992,0.44639161094962,-16.2233010308888,-40.52919108729,-4.90894720307961,1.38277176194587,-1.91408184957638,-1.770179750098,1.22758376314591,1.74656782005708,-3.52571316320661,0.0292452010788232,-0.0292452010788232,-0.05220768204,0.27563274883648
1.05,3.42502194196322,2.01281051891439,0.451122283107321,-18.7100820500727,-39.4874681335454,-3.6655867446988,-2.93006120581606,1.28493389262459,2.09169644497428,1.37194101017025,1.80161784908645,-3.41594701824611,-0.0292452010788232,0.0292452010788232,0.05220768204,0.21966018465475
1.06,3.44599087434686,2.04765977312318,0.454482591543757,-17.4307762756334,-40.8782836563202,-4.4391852805059,1.3742149499329,-1.96489080524431,-1.76562669052483,1.33402231011177,1.7528108993635,-3.43549437450679,0.0292452010788232,-0.0292452010788232,-0.05220768204,0.292108235074178
1.07,3.46441605547779,2.08358276151883,0.458938700404748,-19.923028411535,-39.8432282534609,-3.20404265603333,-2.93897346533399,1.23529931938482,2.09624999455049,1.47607218985727,1.80184297664297,-3.32755552763173,-0.0292452010788232,0.0292452010788232,0.05220768204,0.232954027734692
1.08,3.48399208125601,2.11888465079896,0.462044393306468,-18.676649338551,-41.2718733528191,-3.92771704564242,1.36611934926147,-2.01376938986702,-1.76139448272257,1.43870086764626,1.75491594305463,-3.3528055193232,0.0292452010788232,-0.0292452010788232,-0.05220768204,0.306345888264676
1.09,3.50102345215943,2.15520669472754,0.466203968467177,-21.174787318038,-40.2418996240216,-2.70067855540247,-2.94741282855197,1.18754669065588,2.10048469494694,1.57865001535107,1.79815177194175,-3.24670905522291,-0.0292452010788232,0.0292452010788232,0.05220768204,0.244217856894885
1.1,3.51922390722778,2.19098321799133,0.469028718695871,-19.96273307115,-41.7066511692114,-3.37203965243132,1.35846688342882,-2.06078997960023,-1.75746772119192,1.54193574983133,1.752943946486,-3.27743430411788,0.0292452010788232,-0.0292452010788232,-0.05220768204,0.318500044010093
1.11,3.53487722292369,2.22772540230383,0.472870735881836,-22.4670050389041,-40.6802096981825,-2.153141650235,-2.95539809625056,1.14160556818348,2.10441594433142,1.67996601850297,1.79059951571556,-3.17320382497952,-0.0292452010788232,0.0292452010788232,0.05220768204,0.253595049117597
1.12,3.55171394400133,2.26399574734439,0.475389520269613,-21.2909915955314,-42.1792985115773,-2.76956957977791,1.3512395246854,-2.10602212865451,-1.75383143789377,1.64399874124242,1.74696492892423,-3.20919857346087,0.0292452010788232,-0.0292452010788232,-0.05220768204,0.328716581029742
1.13,3.56599980928571,2.30117643711028,0.478894040778816,-23.8014709129564,-41.1548760920219,-1.55900780842039,-2.96294794620364,1.09740826244509,2.10805868749356,1.7802693268746,1.77925185993355,-3.10686610052883,-0.0292452010788232,0.0292452010788232,0.05220768204,0.261220819477116
1.14,3.58146927166477,2.33796120883635,0.48108539536461,-22.6572042719959,-42.6700402687551,-2.12726941374017,1.3444193790863,-2.11817730440332,-1.75047111383741,1.74609411972318,1.7370576901535,-3.14738672992548,0.0292452010788232,-0.0289567314599317,-0.05220768204,0.337132562126449
1.15,3.59438379857187,2.37560047528524,0.484234645408996,-25.1669228560426,-41.6300266315961,-0.934850525093425,-2.96972401197786,1.08561799203703,2.11135519391689,1.88168183625828,1.76413742940529,-3.0465167316361,-0.0292452010788232,0.0292452010788232,0.05220768204,0.267800804064197
1.16,3.60841832225442,2.41293951180029,0.486093542709063,-24.0088545827611,-43.0466923092807,-1.52417401034393,1.33791715857121,-1.91089834252815,-1.74728777905664,1.85592935627478,1.7233099233358,-3.08739358570515,0.0292452010788232,-0.026941826896696,-0.05220768204,0.344950172841512
1.17,3.61989777470849,2.45107914745796,0.488876809168762,-26.4654584698252,-41.8792979199635,-0.42132155476061,-2.97369767768129,1.28886698197295,2.1139762074271,1.99725867023576,1.74499287953789,-2.98454682386401,-0.0292452010788232,0.0292452010788232,0.05220768204,0.278091643923984
1.18,3.63260114976479,2.48896333743506,0.490358249299253,-25.3500808281141,-43.3309736208858,-0.949585705669504,1.33121102753817,-1.96220071160724,-1.74367643842155,1.97175956982312,1.70579184293104,-3.03154431213251,0.0292452010788232,-0.0292452010788232,-0.05220768204,0.360049654194928
1.19,3.64274966067889,2.52759986241959,0.492730888563923,-27.8056762980471,-42.1701118575949,0.140047748287576,-2.98080640631239,1.23871280155966,2.11761035941551,2.1107793283739,1.72214449853579,-2.93135744842161,-0.0292452010788232,0.0292452010788232,0.05220768204,0.289696514089168
1.2,3.65413456169504,2.56604945959873,0.493804229375693,-26.7346164559599,-43.6547089201901,-0.324617293134267,1.3249045214503,-2.01154295040106,-1.74035537226221,2.08558947191156,1.68440364533647,-2.98404029179716,0.0292452010788232,-0.0292452010788232,-0.05220768204,0.371622231480849
1.21,3.66296257249987,2.60520175776401,0.495742185940866,-29.1890722711257,-42.4988583026832,0.751337115562323,-2.98750271476632,1.1904712085104,2.12095579338155,2.22247295985602,1.69570364362598,-2.88636832648165,-0.0292452010788232,0.0292452010788232,0.05220768204,0.298188384230463
1.22,3.67303413471914,2.64423215377151,0.496380230002625,-28.1642706794095,-44.014223199093,0.353037480808617,1.31898041493007,-2.0589983938974,-1.73730952295209,2.19763454667089,1.65927455950489,-2.94437822266326,0.0292452010788232,-0.0292452010788232,-0.05220768204,0.380209884077558
1.23,3.68054529528537,2.68391457625577,0.497862368987501,-30.6172512209016,-42.8619169594743,1.41466343366739,-2.99380451699855,1.14407077254717,2.12402753560421,2.33252963310726,1.66578602391238,-2.84913173890388,-0.0292452010788232,0.0292452010788232,0.05220768204,0.304047312255345
1.24,3.68930224506641,2.72353707023412,0.498041118497609,-29.6409598755377,-44.4058213909301,1.08572332718642,1.31342163046852,-2.10463758404345,-1.73452432789185,2.30807067960039,1.63053523164732,-2.91217205802106,0.0292452010788232,-0.0292452010788232,-0.05220768204,0.386250656939333
1.25,3.6954944296846,2.76376016302379,0.499049057175241,-32.0919159380417,-43.2556495383291,2.13217188710792,-2.99972951203562,1.09944278485557,2.12684010527917,2.44110324637429,1.63251262740509,-2.81930493292348,-0.0292452010788232,0.0292452010788232,0.05220768204,0.307662484892468
1.26,3.70278833610789,2.80400677292576,0.498801905462081,-31.048653672673,-44.6257214940913,1.703554102812,1.30821131130325,-1.73638377066125,-1.73198572430347,2.42865680069965,1.59831914575323,-2.87706789762767,0.0292452010788232,-0.0254534705762206,-0.05220768204,0.390101999109145
1.27,3.70752109393966,2.84480641286036,0.499355100978363,-33.3731781886781,-43.2798512635294,2.56519095816109,-3.00065419155306,1.46042286707434,2.128483892907,2.57117803179318,1.59534795611344,-2.77796055324909,-0.0292452010788232,0.0292452010788232,0.05220768204,0.319697039054204
1.28,3.71352403302359,2.88567680925732,0.498595235887463,-32.3808839478151,-44.6834277309745,2.20616830451228,1.3022980436949,-1.79481890316244,-1.72851755643415,2.55842529266387,1.56273213866066,-2.84294706723833,0.0292452010788232,-0.0292452010788232,-0.05220768204,0.411277586128334
1.29,3.71697045390998,2.92706299127132,0.49860302588991,-34.6982181165122,-43.3502427660301,3.05147700138083,-3.00706672880326,1.4032655201868,2.13199547009902,2.69806119060272,1.55475927217567,-2.7477497721614,-0.0292452010788232,0.0292452010788232,0.05220768204,0.336214907921704
1.3,3.72169995505088,2.96858067227105,0.497288815028461,-33.757896673249,-44.7849269152737,2.76402179634561,1.29677267766185,-1.85101203571928,-1.72535459702303,2.68501820035424,1.52351556146411,-2.81916818689432,0.0292452010788232,-0.0292452010788232,-0.05220768204,0.426443905544994
1.31,3.72387398091773,3.01057464294713,0.496718790252278,-36.0676992646588,-43.4628469864646,3.59224215529397,-3.01307501548278,1.34829715881856,2.1352030102113,2.82198039809962,1.51091440165478,-2.72745544458603,-0.0292452010788232,0.0292452010788232,0.05220768204,0.347483938597687
1.32,3.72733666877204,3.05275473437945,0.494815718775576,-35.1806417570059,-44.9261730717735,3.37852198556442,1.29161836051732,-1.90504714350463,-1.72248048342669,2.80865532699606,1.4808631263394,-2.80467817579698,0.0292452010788232,-0.0292452010788232,-0.05220768204,0.4367628182009
1.33,3.72824260054573,3.09537007459559,0.49364147159439,-37.4823960052517,-43.6136964586075,4.18873494467179,-3.01869677780448,1.29543592266953,2.13812285512295,2.94311988970629,1.46397669913862,-2.71615269172685,-0.0292452010788232,0.0292452010788232,0.05220768204,0.35452370627818
1.34,3.73043627634268,3.13822110809072,0.491121189291456,-36.6501628560351,-45.1031228229025,4.05109851244509,1.28681825795165,-1.95700502511085,-1.71987940278863,2.9295115490393,1.43495886871938,-2.7986793687429,0.0292452010788232,-0.0292452010788232,-0.05220768204,0.443144962900103
1.35,3.73007061322492,3.18146537537857,0.489321561526688,-38.9431722798448,-43.7988279438433,4.84222085148219,-3.02394964106926,1.2446030501814,2.14077078330922,3.06162557862234,1.41410785446965,-2.7131417251882,-0.0292452010788232,0.0292452010788232,0.05220768204,0.358135279875637
1.36,3.73098593906123,3.22499064354273,0.48616111425335,-38.1675747211491,-45.3117296209511,4.78318282778431,1.28235564907906,-2.006963437525,-1.71753609673787,3.04772217470869,1.38598104195215,-2.8005710611043,0.0292452010788232,-0.0292452010788232,-0.05220768204,0.446309143746027
1.37,3.72933887494728,3.26886663024943,0.483719584520993,-40.4509589107476,-44.0142774061431,5.55396194927817,-3.02885104300731,1.19572274589127,2.14316200712204,3.17760889010235,1.36147003335649,-2.71789662441033,-0.0292452010788232,0.0292452010788232,0.05220768204,0.358952677248718
1.38,3.7289607504186,3.31306522429872,0.479900787666762,-39.7340383030129,-45.5479384478104,5.57618595131984,1.27821400841335,-2.05499722375529,-1.71543586359044,3.16338700432802,1.33410508219859,-2.80990486059032,0.0292452010788232,-0.0292452010788232,-0.05220768204,0.446827233858167
1.39,3.72601740367801,3.35757192641961,0.476804966377725,-42.0067290277169,-44.2560754673333,6.32519505966589,-3.03341815945502,1.14872205512521,2.14531117242109,3.29114969383454,1.30622749945301,-2.73002614348409,-0.0292452010788232,0.0292452010788232,0.05220768204,0.357481805609901
1.4,3.72429994535014,3.40243956707749,0.472329742334259,-41.3240083047636,-45.7772264502803,6.39317878257743,1.27437707599031,-2.0296458053475,-1.71356455823033,3.27852632641065,1.27950585832232,-2.82399621123623,0.0292452010788232,-0.0285871008991748,-0.05220768204,0.44515819009181
1.41,3.72001672106362,3.44757385693099,0.468582683469512,-43.5570332660746,-44.4599201839603,7.08115406110462,-3.03687091997224,1.17363272121804,2.14707620128194,3.4061648505377,1.24841626736741,-2.74488681813539,-0.0292452010788232,0.0292452010788232,0.05220768204,0.356536589077368
1.42,3.71697121646063,3.49310853376568,0.463420142154849,-42.9362180239995,-45.9980644964231,7.23421227750892,1.27063245769284,-2.07686034861616,-1.71169844402379,3.39309233427671,1.222345989626,-2.84361248207926,0.0292452010788232,-0.0292452010788232,-0.05220768204,0.446132405669655
1.43,3.711360555689,3.53887094948773,0.458993721861729,-45.1563830092575,-44.6864128196073,7.89842155339372,-3.04104145000262,1.12742742204872,2.14899474245228,3.51859199223336,1.18826013706549,-2.76771788213514,-0.0292452010788232,0.0292452010788232,0.05220768204,0.355422294107083
1.44,3.70682364426876,3.58506358357212,0.453226814561212,-44.4445488952329,-46.0825566905139,7.91862046535648,1.26717626106049,-1.73609097735207,-1.71005059072603,3.51568993301447,1.16271757127942,-2.8572739510515,0.0292452010788232,-0.0256925302468711,-0.05220768204,0.44447117476092
1.45,3.69973050573708,3.63145050796931,0.448185987141443,-46.4910614754379,-44.6222394390083,8.34115288073951,-3.04061765928091,1.46144056653042,2.14985763035649,3.64959372785185,1.12520545866686,-2.77291748899423,-0.0292452010788232,0.0292452010788232,0.05220768204,0.365928693218646
1.46,3.69386841171192,3.6783289490256,0.441677923454983,-45.8388623780527,-46.0398060811778,8.44279848596682,1.26291667970463,-1.79493063001516,-1.70746601429506,3.64586800956318,1.10073586254648,-2.87038320952057,0.0292452010788232,-0.0292452010788232,-0.05220768204,0.466421836580668
1.47,3.68545965865611,3.7253792840107,0.43587921798467,-47.8763725996854,-44.5946875840002,8.84930906158205,-3.04541605662973,1.40385567190889,2.15250514195413,3.7768261366972,1.05972113063424,-2.79163694118698,-0.0292452010788232,0.0292452010788232,0.05220768204,0.382639501487085
1.48,3.67827937496026,3.77296178230399,0.428583084656512,-47.2846962419161,-46.0308503888224,9.03400784401632,1.2589949622563,-1.85149966890653,-1.70515985431516,3.77216696034289,1.03610351220329,-2.89587425979721,0.0292452010788232,-0.0292452010788232,-0.05220768204,0.48017508644431
1.49,3.66855893917788,3.82069167343017,0.421991435383414,-49.3118852735266,-44.5995936243958,9.42270159178437,-3.04985955337619,1.34848896767881,2.15487512263096,3.90037599188842,0.992060809176555,-2.82199834538486,-0.0292452010788232,0.0292452010788232,0.05220768204,0.392280916163322
1.5,3.66005588532063,3.86898551894057,0.413872918521923,-48.7817847060675,-46.0514369165172,9.69214254890898,1.2553943824615,-1.90588315943577,-1.70311585084067,3.89467639886248,0.969104145855072,-2.93213411251103,0.0292452010788232,-0.0292452010788232,-0.05220768204,0.487594863731664
1.51,3.64901769778846,3.91740124602261,0.406463862648681,-50.7972661259587,-44.6328064624851,10.0611725145865,-3.05396569100938,1.29525749265936,2.15698377944704,4.02029221207072,0.922461764146314,-2.86260336780324,-0.0292452010788232,0.0292452010788232,0.05220768204,0.396475120492026
1.52,3.63917852188179,3.96640554653596,0.39749893126905,-50.3299239964168,-46.0973237049547,10.4170953823376,1.25209837434136,-1.95816300306348,-1.70131836440835,4.01344466622085,0.899997657179231,-2.9779648399409,0.0292452010788232,-0.0292452010788232,-0.05220768204,0.490108713717467
1.53,3.62680896339999,4.01550606512981,0.389256704112201,-52.3322393361316,-44.6901881831578,10.7645570322848,-3.05775177621323,1.2440813719606,2.15884668937179,4.13659198364491,0.851150437616226,-2.91241511646928,-0.0292452010788232,0.0292452010788232,0.05220768204,0.396466825610319
1.54,3.61561373348201,4.0652138171405,0.379429775281358,-51.9289299053915,-46.1642804425241,11.2087185267283,1.24909061330537,-2.00841806582155,-1.69975237374348,4.12848554881617,0.829027501359665,-3.03248142721342,0.0292452010788232,-0.0292452010788232,-0.05220768204,0.488815452600455
1.55,3.60189355715603,4.11499266021337,0.370345790537243,-53.9165475274372,-44.7676152821761,11.5326475651324,-3.0612348076111,1.19488369080402,2.16047880330639,4.2492649873167,0.778346614271179,-2.97066927893774,-0.0292452010788232,0.0292452010788232,0.05220768204,0.393216181092041
1.56,3.58931748499061,4.16539229821753,0.359648265103972,-53.5785959671357,-46.2480902363953,12.0667851062774,1.24635508493905,-2.05672430007301,-1.6984034713424,4.23978304010345,0.756426156768773,-3.09503485711731,0.0292452010788232,-0.0292452010788232,-0.05220768204,0.48456584168396
1.57,3.57422333316093,4.21583900463276,0.349719892546297,-55.5499133241279,-44.8609806857883,12.3651587508262,-3.0644314141117,1.14759037508429,2.16189445208733,4.35827635781078,0.704266531137354,-3.03680716123413,-0.0292452010788232,0.0292452010788232,0.05220768204,0.387468431607747
1.58,3.56015821849563,4.26690805067208,0.338222925652287,-55.1820440131713,-46.2779571157377,12.853994291283,1.2438761426832,-1.89768682752788,-1.69725785710778,4.35353443547237,0.682419199069554,-3.1561992289237,0.0292452010788232,-0.0273548951804545,-0.05220768204,0.478023096150535
1.59,3.54358680824056,4.31800412604769,0.327511510199282,-57.036881497759,-44.8342515187519,12.9905236844337,-3.0650905358261,1.30348874999935,2.16266954340791,4.47597707217917,0.628660457515484,-3.09385924936337,-0.0292452010788232,0.0292452010788232,0.05220768204,0.388921020463818
1.6,3.52810829027409,4.36975382950261,0.315117827155412,-56.7324467868698,-46.2574339732515,13.5672483354342,1.24103241061931,-1.95040254450034,-1.69567841275091,4.46966454187771,0.607165540655344,-3.2195723232047,0.0292452010788232,-0.0292452010788232,-0.05220768204,0.486588440321939
1.61,3.51013643621425,4.42151801498139,0.303522581179214,-58.5746581315202,-44.8271341786058,13.6836921521596,-3.06843906466547,1.25187750984453,2.16432022423417,4.5895136915599,0.551898717952554,-3.1625074764948,-0.0292452010788232,0.0292452010788232,0.05220768204,0.394040239978127
1.62,3.49322931455397,4.47394730224611,0.29020796698518,-58.3344372853538,-46.2533034226074,14.3494880390131,1.2384630974983,-2.00107252297064,-1.69432455429035,4.58144672790126,0.530570853315189,-3.29369689248907,0.0292452010788232,-0.0292452010788232,-0.05220768204,0.489283590153385
1.63,3.47384198605609,4.52637889245411,0.277713958387626,-60.1623055780997,-44.8355388996036,14.4436591628398,-3.07149798315068,1.20226552587979,2.16574591883922,4.69882289580908,0.474248843585023,-3.24138172956893,-0.0292452010788232,0.0292452010788232,0.05220768204,0.39416857350785
1.64,3.45548472198756,4.57947956190411,0.263464974480901,-59.9870436611658,-46.2613930052531,15.199609654087,1.23615231542837,-2.04977356788791,-1.69318185066289,4.68882097069913,0.452921582496441,-3.37740399860344,0.0292452010788232,-0.0292452010788232,-0.05220768204,0.48754763044467
1.65,3.43461528564785,4.63253842584042,0.250003802396847,-61.656698309012,-44.8554042917799,15.2693402444875,-2.82616661959008,1.15457788103439,2.16696097498902,4.80381893563116,0.387585740601663,-3.33060003897315,-0.0275431172791708,0.0292452010788232,0.05220768204,0.390556662464235
1.66,3.41468139230058,4.68625996624555,0.234819844018701,-61.3361113755233,-46.2424375224604,16.0148300572632,1.47723939711981,-1.96107790625661,-1.69272723063594,4.79633058039385,0.358107535707958,-3.46498743887319,0.0292452010788232,-0.0280351458043711,-0.05220768204,0.481447571845478
1.67,3.39230549953275,4.73996398841228,0.220504150284459,-62.9336282897569,-44.8121058296161,15.9760841125323,-2.83703627998194,1.23848743130041,2.16802858836391,4.9130665076806,0.292534491703843,-3.41666762703286,-0.0292452010788232,0.0292452010788232,0.05220768204,0.389305936551528
1.68,3.37088733227608,4.7943453446574,0.204382257754904,-62.6750788050317,-46.1991681555911,16.8005362832852,1.46539638179898,-2.01057077717196,-1.69125167664402,4.90365074769391,0.263294234838162,-3.55594398645691,0.0292452010788232,-0.0292452010788232,-0.05220768204,0.484789075678218
1.69,3.34704927973496,4.84870543441623,0.189142708760556,-64.2708219991066,-44.7817876466172,16.7496741950079,-2.84916782575677,1.19014857324777,2.1695590864297,5.01758413014147,0.197634350550378,-3.51282646473666,-0.0292452010788232,0.0292452010788232,0.05220768204,0.390792719769085
1.7,3.32412998886502,4.90374266112367,0.172071766846802,-64.07475148075,-46.1659967961038,17.6541371622873,1.45417697734372,-2.05816949159678,-1.68996197870059,5.00602916427936,0.168421885904111,-3.65641611817219,0.0292452010788232,-0.0292452010788232,-0.05220768204,0.484065772651968
1.71,3.2988141501856,4.95875667267856,0.155904579600363,-65.6663812706399,-44.7608528574034,17.5884092434621,-2.86066896102851,1.14365594391845,2.1709029196545,5.11726060091322,0.103071392064412,-3.61816683130251,-0.0292452010788232,0.0292452010788232,0.05220768204,0.388828505973015
1.72,3.27427811686442,5.01443226549084,0.137993245470897,-65.4116757576851,-46.0838549218534,18.4012890121115,1.44355166512884,-1.86933898667776,-1.68884940719948,5.11184385637229,0.0736930687419565,-3.75362042354253,0.0292452010788232,-0.0270868247150272,-0.05220768204,0.480261248976274
1.73,3.2473715309255,5.07008694689867,0.120993534574562,-66.8741100282827,-44.6356980401139,18.1494996047094,-2.86899352382755,1.32885443059894,2.17148882877186,5.22887929406066,0.00843479287054592,-3.70981551872231,-0.0292452010788232,0.0292452010788232,0.05220768204,0.396468306203312
1.74,3.22131936041167,5.12642697787598,0.102093452108364,-66.6785315023826,-45.9574345262552,19.0395422262407,1.43277463397316,-1.92259659509198,-1.68734871725609,5.22110802445041,-0.0206949462999896,-3.85238636153885,0.0292452010788232,-0.0292452010788232,-0.05220768204,0.496715325604984
1.75,3.19292261577769,5.18275740219576,0.0841073500611648,-68.1437589762811,-44.5244729764289,18.7822324573342,-2.88012102385173,1.27681239429378,2.1730557091101,5.33514153902313,-0.0858049024009629,-3.81560205529524,-0.0292452010788232,0.0292452010788232,0.05220768204,0.408916844775473
1.76,3.16534564099505,5.23977119500517,0.0641833542649685,-68.0073022712456,-45.8420817676524,19.7500229853938,1.42259139834231,-1.9738097440619,-1.68604460589527,5.32472946031636,-0.114959887956455,-3.96412885388963,0.0292452010788232,-0.0292452010788232,-0.05220768204,0.505205256363393
1.77,3.13545024896067,5.29678737845861,0.0451878080149031,-69.4728169176559,-44.4236648420001,19.4842056465651,-2.89064567941406,1.22676422312157,2.17442500360729,5.43591467196478,-0.179405471940642,-3.93354160191474,-0.0292452010788232,0.0292452010788232,0.05220768204,0.414584388872776
1.78,3.10633309368498,5.35447465190431,0.0242198195857534,-69.3953748722165,-45.7342097887588,20.5301708045948,1.41297339678798,-2.02305525169646,-1.68492750434123,5.42258980646396,-0.208827672106137,-4.08714798745066,0.0292452010788232,-0.0292452010788232,-0.05220768204,0.507759249542995
1.79,3.074905027377,5.4121621546473,0.00418870447176735,-70.8171012480754,-44.3297657006344,20.2530400426055,-2.82775169809014,1.17863515252888,2.17560643989425,5.53104686416252,-0.275111152690141,-4.06201962243066,-0.0287454861167618,0.0292452010788232,0.05220768204,0.415227674917922
1.8,3.04420755293268,5.47050101413847,-0.0178443928189357,-70.7559549339357,-45.6306903433146,21.3751664478522,1.47528084273007,-2.06923561199438,-1.68413500597806,5.51464730866468,-0.307889356871467,-4.21971771651524,0.0292452010788232,-0.0292452010788232,-0.05220768204,0.506099815012829
1.81,3.01125081878901,5.52887240980424,-0.0388975643288969,-72.1770630129893,-44.2393264330798,21.0868399137547,-2.8400303682661,1.1326110758197,2.17671572529705,5.62035030057533,-0.372544707986522,-4.19986842883446,-0.0292452010788232,0.0292452010788232,0.05220768204,0.412730358487475
1.82,2.9788643341027,5.58786282140133,-0.0618332203195599,-72.0361923656969,-45.4827853765967,22.0871550508071,1.4638905703655,-1.85503469546662,-1.68324702504287,5.61153193401801,-0.405958186486065,-4.34670921144384,0.0292452010788232,-0.0268575688220044,-0.05220768204,0.501476238227415
1.83,2.94424876500224,5.64690458935365,-0.0837803517094794,-73.3124803379554,-44.0589929249561,21.5920946243717,-2.84364012002139,1.34267936761547,2.17700842252112,5.72539423299974,-0.469538271656884,-4.31947222719286,-0.0292095520689907,0.0292452010788232,0.05220768204,0.422440128489508
1.84,2.91028665231944,5.70657407622558,-0.107810421245301,-73.2234086166987,-45.296122676439,22.6647802571307,1.45737760882189,-1.90875724324475,-1.68192988444445,5.71333651176857,-0.503250692452748,-4.47411384267263,0.0292452010788232,-0.0292452010788232,-0.05220768204,0.521991877793906
1.85,2.87400250302925,5.76622183417595,-0.130928528395593,-74.2773487986796,-43.8877483463874,22.1708341583841,-2.45221080559452,1.29012648922946,2.17841264395947,5.82410678503479,-0.583563380910825,-4.45282471036947,-0.0264766406600757,0.0292452010788232,0.05220768204,0.43840905770126
1.86,2.83833027712611,5.82648836446548,-0.15615699773154,-74.0075884893567,-45.1186035290116,23.3038519348115,1.84171037792637,-1.95398605321745,-1.68167481437002,5.80909634571557,-0.635100738238891,-4.61101150389628,0.0292452010788232,-0.0292452010788232,-0.05220768204,0.535455484830256
1.87,2.8005093716405,5.88687146659325,-0.180407685148136,-75.0875050067054,-43.7219585859403,22.8228678481051,-2.47963626435074,1.24102783498652,2.18006198115495,5.91617621396905,-0.713315588158286,-4.5974337865783,-0.0292452010788232,0.0292452010788232,0.05220768204,0.451855647694027
1.88,2.76325433254081,5.94785846860231,-0.206784540573568,-74.8707172350409,-44.9474961931014,24.0142369313001,1.81551549793861,-2.00257454884576,-1.68020640894999,5.89798091386441,-0.765174704848169,-4.76017198805028,0.0292452010788232,-0.0292452010788232,-0.05220768204,0.544374411925778
1.89,2.72389243325453,6.00899450470291,-0.232186251035305,-75.9730253299217,-43.5623604274711,23.542276250879,-2.50581936304033,1.19375641018665,2.18156444983102,6.00151859236942,-0.84082067284288,-4.75363065251834,-0.0292452010788232,0.0292452010788232,0.05220768204,0.459501407154359
1.9,2.68504433531825,6.07070936015448,-0.259728245609701,-75.8088006908566,-44.7802044007882,24.7926172103904,1.7905144056872,-2.04935027418561,-1.6788812412519,5.97981990470846,-0.893301958224705,-4.92019929848338,0.0292452010788232,-0.0292452010788232,-0.05220768204,0.548180702608987
1.91,2.64413285382511,6.13260864631685,-0.286288355910061,-76.9301879585336,-43.4063624943835,24.3260253271524,-2.53081374546942,1.14824422342485,2.18292081942998,6.07993647671663,-0.965930095403728,-4.92020889142926,-0.0292452010788232,0.0292452010788232,0.05220768204,0.462780686013531
1.92,2.60367774054287,6.19505276955451,-0.31500216472774,-76.8179872491406,-44.6140756602115,25.6357748604734,1.76665530048398,-2.09438061407071,-1.67769819879076,6.0544252303094,-1.01930758329078,-5.09005132836641,0.0292452010788232,-0.0292452010788232,-0.05220768204,0.548127856773175
1.93,2.56120476033726,6.25772024714202,-0.342719663297741,-77.9553952328481,-43.2513293061967,25.1711618251439,-2.55467107369787,1.1044260089247,2.18413271815329,6.15122199756491,-1.08848366311675,-5.09626691499288,-0.0292452010788232,0.0292452010788232,0.05220768204,0.462790129789696
1.94,2.51895633971105,6.32089079716326,-0.372349691053762,-77.6926599997069,-44.4006373745538,26.2459418560903,1.74388829236447,-1.75478495140165,-1.67665536979937,6.14111047954882,-1.143012244363,-5.24539272975699,0.0292452010788232,-0.0257221040833798,-0.05220768204,0.545178696433943
1.95,2.47473213461507,6.38432704829489,-0.401000340385827,-78.6401968913522,-43.0024589887798,25.4929649402636,-2.57326671014477,1.43752551950486,2.18405852273698,6.2540469252175,-1.20949497411702,-5.23755656545438,-0.0292452010788232,0.0292452010788232,0.05220768204,0.484271288412675
1.96,2.43088391118386,6.44827756405611,-0.431881127811314,-78.4268973700645,-44.1479360679331,26.6259415278229,1.72093523352671,-1.81159154576716,-1.67522456897653,6.24007862152193,-1.26398855913532,-5.39660390261927,0.0292452010788232,-0.0292452010788232,-0.05220768204,0.58434376470534
1.97,2.38509940088829,6.51254993352888,-0.461813850651763,-79.4052818255366,-42.762288337194,25.8948399607677,-2.5963630877248,1.3821577064368,2.18555917732576,6.34913086304712,-1.32794971564925,-5.39966243477607,-0.0292452010788232,0.0292452010788232,0.05220768204,0.516846548536084
1.98,2.33964998029089,6.57731784017426,-0.494021157887517,-79.240710726961,-43.9016362279141,27.0862627621012,1.69907349737014,-1.86625364667654,-1.67394330870541,6.33084526202366,-1.382880080693,-5.56654857008863,0.0292452010788232,-0.0292452010788232,-0.05220768204,0.60927938786909
1.99,2.2923046774265,6.64246368893285,-0.525290853964651,-80.2461771479175,-42.5285202498675,26.372776174421,-2.61836739005402,1.3288756321714,2.18690606620839,6.43626937383741,-1.44363565196393,-5.57887844618759,-0.0292452010788232,0.0292452010788232,0.05220768204,0.537282618780895
2,2.24524529672486,6.7080691506346,-0.558872592543205,-80.1295327556236,-43.6593739916673,27.6227441410486,1.67825474654301,-1.91885160642707,-1.67281024690752,6.41324338437529,-1.49940211680361,-5.7520477584674,0.0292452010788232,-0.0292452010788232,-0.05220768204,0.623704891394588
2.01,2.19633212078456,6.77411018153504,-0.591511129077957,-81.1586432938313,-42.2987593535091,26.9229551613239,-2.63932805790681,1.27760126925705,2.18810112424613,6.51523520053266,-1.55633614326572,-5.77247210402939,-0.0292452010788232,0.0292452010788232,0.05220768204,0.548786472572966
2.02,2.14764852063766,6.8405609529811,-0.626494467438343,-81.0890096324595,-43.4186986071292,28.2313989735734,1.65843238842927,-1.96946260545362,-1.67182319928445,6.48707343097399,-1.61328620968827,-5.95075667672291,0.0292452010788232,-0.0292452010788232,-0.05220768204,0.63039398071039
2.03,2.09715548329335,6.90750768735839,-0.660516586845944,-82.138629630477,-42.0705393896984,27.5417074504609,-2.65929176062795,1.22825967800399,2.18914705689749,6.58578643738264,-1.66583145745523,-5.97842699100242,-0.0292452010788232,0.0292452010788232,0.05220768204,0.553755135529729
2.04,2.04682935268776,6.97480267931838,-0.696913289298529,-82.1149573710966,-43.1771000083824,28.9083727901198,1.63956153341587,-2.01816079474581,-1.67097926640048,6.55211349578008,-1.72427574240104,-6.16094433046303,0.0292452010788232,-0.0292452010788232,-0.05220768204,0.631425162713881
2.05,1.99472933741577,7.04264725505275,-0.732324406156711,-83.1679598243955,-41.8413478649042,28.2254742242721,-2.65338860960011,1.18077886598573,2.19004722025192,6.64767154178304,-1.77343433201186,-6.19482414546511,-0.02907428534265,0.0292452010788232,0.05220768204,0.553989840435422
2.06,1.94272798031878,7.11076974674489,-0.770137267121,-83.1746068440845,-42.9322993212119,29.6492289044693,1.64601548870255,-2.06461412769648,-1.67032534307501,6.60818637273292,-1.83515595069154,-6.38046629845024,0.0292452010788232,-0.0292452010788232,-0.05220768204,0.628817961971196
2.07,1.88891868992248,7.17943237027182,-0.806954777295691,-84.1280598829402,-41.6086382240617,28.9709306067361,-2.47045225936397,1.13518284448612,2.19084136084928,6.70062200719428,-1.89178507592508,-6.41701336475066,-0.0278593288790545,0.0292452010788232,0.05220768204,0.551764431209572
2.08,1.83513531358426,7.2483035536835,-0.846192718305403,-84.0611262150836,-42.6839872796176,30.4456195087066,1.82593646982944,-2.10635148306999,-1.67011007313658,6.65549364284755,-1.96812042712644,-6.60196798309366,0.0292452010788232,-0.0292452010788232,-0.05220768204,0.62750256766687
2.09,1.77970529082732,7.31788146736174,-0.884395769874392,-85.0374451296173,-41.3701674537145,29.7757678680773,-2.49660218531295,1.09206185813746,2.19181921012662,6.74430539408853,-2.01893048426384,-6.64595598009187,-0.0292452010788232,0.0292452010788232,0.05220768204,0.554861999029929
2.1,1.72414321589742,7.38760555151989,-0.924901054542117,-84.9294902686497,-42.4212856786648,31.173656819446,1.8009168004513,-1.98277670775536,-1.66928534756759,6.7043247030395,-2.09736168714871,-6.82244867417324,0.0292452010788232,-0.0277154725814893,-0.05220768204,0.626564489609362
