Time_s,Height_m,X_m,Y_m,Roll_deg,Pitch_deg,Yaw_deg,p,q,r,u,v,w,tx,ty,tz,Thrust
0.01,0.000981,0,0,0.728892128279883,0.5435,0.732093704245974,1.27215675303528,0.948586448458918,1.27774455722138,0,0,-0.0981,0.00872699532582205,0.00872699532582205,0.0174539906516441,1.33416
0.02,0.00294106300013062,-5.07004264920239e-05,6.64498365227742e-05,-1.0180447064203,-0.719470468365455,-0.75770253328646,-3.02431532678859,-2.237196983321,-2.57181619083052,-0.00312523959103914,0.00421474930264245,-0.196114251269072,-0.0292452010788232,-0.0292452010788232,-0.05220768204,1.33416
0.03,0.00588161789109145,-1.23510822598982e-05,1.40118608203929e-05,-0.304168536245722,-0.108343898525661,-0.029290727454338,1.26191265154347,1.0438626010442,1.28996844151161,0.000211239845732167,3.32241755561912e-05,-0.294127164805303,0.0292452010788232,0.0292452010788232,0.05220768204,1.33416
0.04,0.00980149689603419,-6.40047502917128e-05,7.76826725718215e-05,-2.04046537654031,-1.34442547481265,-1.48953881452791,-3.03522898347954,-2.14380908674468,-2.560026095993,-0.00590984398226983,0.00844524744509273,-0.391938115536761,-0.0292452010788232,-0.0292452010788232,-0.05220768204,1.33416
0.05,0.0146959404262344,5.58925369254003e-05,-9.88170514443679e-05,-1.33953437987207,-0.66778366615482,-0.767002102452785,1.25294309435269,1.13532569568203,1.30196647391236,0.000957465333851887,0.000111065276592841,-0.489908277893348,0.0292452010788232,0.0292452010788232,0.05220768204,1.33416
0.06,0.0205735280270758,4.45990857011724e-05,-0.000108465271163115,-3.06742556546824,-1.87853732079147,-2.19934013215723,-3.04487478154308,-2.05414966230212,-2.54844829514654,-0.00796643987235102,0.0127593051195549,-0.587568125689369,-0.0292452010788232,-0.0292452010788232,-0.05220768204,1.33416
0.07,0.0274146260238954,0.000280954321838833,-0.000481763971311107,-2.37743726662584,-1.13846984333343,-1.48481435329753,1.24513711602452,1.22311388346005,1.31374495574909,0.00261157387843833,0.000288557521759695,-0.685530066159854,0.0292452010788232,0.0292452010788232,0.05220768204,1.33416
0.08,0.0352461674395783,0.000343177846809253,-0.000636243369016169,-4.09895125924744,-2.32542839120616,-2.89070241644623,-3.05336140198211,-1.96808395743268,-2.53707745003837,-0.0089410425126481,0.0172176363579926,-0.783090912171983,-0.0292452010788232,-0.0292452010788232,-0.05220768204,1.33416
0.09,0.0440252894417996,0.000722900322634828,-0.00127986059429712,-3.41798794903869,-1.52400402652938,-2.18626110499244,1.2383917133937,1.30736151033431,1.3253086878906,0.00551434559877555,0.00061484847761999,-0.881069445711344,0.0292452010788232,0.0292452010788232,0.05220768204,1.33416
0.1,0.0538055536318078,0.000883920926019523,-0.00165134572773893,-5.13496931915913,-2.68866743024074,-3.56700739869541,-3.06078976611466,-1.88548093624658,-2.5259095825336,-0.00851005245255171,0.0218745741567779,-0.978582672372187,-0.0292452010788232,-0.0292452010788232,-0.05220768204,1.33416
0.11,0.0645128067439582,0.00142620788643772,-0.00263928013350817,-4.46121244934986,-1.82793478236477,-2.87465660708065,1.23261132864849,1.38819911687476,1.33666126053431,0.00997728357546338,0.00113382951412615,-1.07659312448811,0.0292452010788232,0.0292452010788232,0.05220768204,1.33416
0.12,0.0762352200890501,0.00170370942559546,-0.00330032439325366,-6.17534052960238,-2.97176685101245,-4.23143915343905,-3.06725353599957,-1.80621327628738,-2.51494180457494,-0.00637757626962212,0.0267787128079611,-1.17410895557819,-0.0292452010788232,-0.0292452010788232,-0.05220768204,1.33416
0.13,0.0888595493310062,0.00242033340959308,-0.00470677552757027,-5.50708309541083,-2.05375461777132,-3.55311252050211,1.22770736998145,1.46575345016678,1.34780530172388,0.0162851517827917,0.00188469894097023,-1.27215748911485,0.0292452010788232,0.0292452010788232,0.05220768204,1.33416
0.14,0.102516296058275,0.00282468230239524,-0.00573005085051527,-7.21988791961591,-3.17818082125603,-4.88699722671792,-3.07283957930108,-1.73015735412696,-2.50417208701428,-0.00227303585175075,0.0319734889166434,-1.36972469685651,-0.0292452010788232,-0.0292452010788232,-0.05220768204,1.33416
0.15,0.117045555150369,0.00372027560578692,-0.00762916328041514,-6.55554487121952,-2.20489776623191,-4.2245516519973,1.22359776544362,1.54014748619292,1.35874268954953,0.0246982445079433,0.00290246950966875,-1.46780871502581,0.0292452010788232,0.0292452010788232,0.05220768204,1.33416
0.16,0.132627648360816,0.00425479660117768,-0.00908722056157305,-8.26842088578187,-3.31130393785251,-5.53650730880626,-3.07762840260057,-1.65719322130795,-2.49359906262564,0.00405096745905146,0.0374977112081893,-1.5654744446346,-0.0292452010788232,-0.0292452010788232,-0.05220768204,1.33416
0.17,0.149048644562129,0.00532713178316603,-0.0115528479296032,-7.60653761543851,-2.2847386154544,-4.89171949761483,1.22020654637892,1.61150046129342,1.3694747324424,0.0354544191509983,0.0042184299958553,-1.66358304934001,0.0292452010788232,0.0292452010788232,0.05220768204,1.33416
0.18,0.166545971409761,0.0059883797183176,-0.0135178957940725,-9.32075554665924,-3.37447035722132,-6.18263020665045,-3.0816945564868,-1.58720457190381,-2.48322185912075,0.0128205652439331,0.0433860475506103,-1.76139273631054,-0.0292452010788232,-0.0292452010788232,-0.05220768204,1.33416
0.19,0.184844487719534,0.00722864545256201,-0.0166233826372643,-8.66001451341589,-2.29659065141877,-5.55719426550865,1.21746345742794,1.67992791151879,1.38000232149294,0.0487709219241663,0.00586056885456114,-1.85950722465535,0.0292452010788232,0.0292452010788232,0.05220768204,1.33416
0.2,0.204245831995215,0.00800667238158913,-0.0191670824774832,-10.3767316935247,-3.3709532897702,-6.82786970131593,-3.08510701519856,-1.52007870277544,-2.47303995844609,0.0242423396596888,0.0496694761406039,-1.95750458414197,-0.0292452010788232,-0.0292452010788232,-0.05220768204,1.33416
0.21,0.224406629737237,0.00939974425636548,-0.0229850618700458,-9.71595726788087,-2.24370583095261,-6.22339588916989,1.21530359059147,1.74554171885622,1.39032605829323,0.0648460333475643,0.00785396645604184,-2.05559896916219,0.0292452010788232,0.0292452010788232,0.05220768204,1.33416
0.22,0.24569967483118,0.0102783616262146,-0.0261783372822614,-11.4362266593585,-3.30396479734365,-7.47457973313379,-3.08792953313851,-1.45570646745276,-2.46305307904919,0.0385048723489748,0.0563757065197163,-2.15382604024915,-0.0292452010788232,-0.0292452010788232,-0.05220768204,1.33416
0.23,0.26770647937029,0.0118030677380567,-0.0307805425778891,-10.7743882920084,-2.12927432239193,-6.89259441015562,1.21366704125365,1.808450163445,1.40044636141738,0.0838605577264318,0.0102211611421741,-2.25186758448502,0.0292452010788232,0.0292452010788232,0.05220768204,1.33416
0.24,0.2908777943259,0.0127601035161529,-0.0346934015451363,-12.4991664002346,-3.17665585499002,-8.12497123787741,-3.09022098020506,-1.39398222445154,-2.45326107816847,0.0557801478027728,0.0635295749866869,-2.35036481502665,-0.0292452010788232,-0.0292452010788232,-0.05220768204,1.33416
0.25,0.314713266415139,0.0143894848872736,-0.0401504906940949,-11.8353802393971,-1.9564245735237,-7.56691800027965,1.21249858439705,1.86875798100197,1.41036355430887,0.105979178099942,0.0129824932716439,-2.44831456765036,0.0292452010788232,0.0292452010788232,0.05220768204,1.33416
0.26,0.33974827754474,0.0153970357225452,-0.044851859060547,-13.5655340648721,-2.99211665405723,-8.7811188581425,-3.09203565758742,-1.33480378074126,-2.44366387152937,0.076224831653086,0.0711534180365876,-2.54712092778505,-0.0292452010788232,-0.0292452010788232,-0.05220768204,1.33416
0.27,0.365393972571278,0.0170986017131396,-0.0512332501604645,-12.8990631638203,-1.72822367954314,-8.24836080403779,1.21174736951141,1.92656642476337,1.42007793703366,0.131351695549504,0.0161564305232121,-2.6449342577228,0.0292452010788232,0.0292452010788232,0.05220768204,1.33416
0.28,0.39227692288123,0.018123280345575,-0.0567908151239418,-14.6353763148687,-2.75337713401743,-9.44496767276653,-3.09342359542476,-1.27807233100402,-2.43426136812422,0.099981441787436,0.0792674266689165,-2.7440873722007,-0.0292452010788232,-0.0292452010788232,-0.05220768204,1.33416
0.29,0.419713240068432,0.0198592593353616,-0.0641645320317562,-13.9656295838789,-1.44767803255695,-8.9387907102172,1.21136663291481,1.981973331319,1.42958984407969,0.160114169293746,0.0197598769779656,-2.841714491098,0.0292452010788232,0.0292452010788232,0.05220768204,1.33416
0.3,0.448427138536836,0.0208624375665251,-0.070644594547956,-15.7088076470531,-2.46340773668091,-10.1183400215851,-3.09443083353372,-1.22369239326214,-2.42505341801747,0.127179427757368,0.087889983747438,-2.94125078227338,-0.0292452010788232,-0.0292452010788232,-0.05220768204,1.33416
0.31,0.477633261967932,0.0225900232520567,-0.0790771215343666,-15.0353377114953,-1.1177342393498,-9.63995710497617,1.21131342638066,2.03507318977281,1.43889969013381,0.192389971708316,0.0238084678827639,-3.03863725231249,0.0292452010788232,0.0292452010788232,0.05220768204,1.33416
0.32,0.508159824531668,0.0235280708562088,-0.086544456678733,-16.7860129584227,-2.12512037957094,-10.8029424512559,-3.09509968625011,-1.17157174140087,-2.41603977135521,0.157936171721885,0.0970379860472399,-3.13859208709289,-0.0292452010788232,-0.0292452010788232,-0.05220768204,1.33416
0.33,0.539113657686286,0.0251996645570806,-0.0961006012465472,-16.1085130869893,-0.741280296634104,-10.3534986151633,1.21154836110348,2.08595721371267,1.44800800554305,0.228290770307475,0.0283168514890865,-3.23567930963049,0.0292452010788232,0.0292452010788232,0.05220768204,1.33416
0.34,0.571433241624589,0.0260241845549828,-0.104618325718463,-17.8672485820453,-1.74136964601789,-11.5003727685573,-3.09546899230455,-1.12162133506773,-2.40722004697047,0.192357922133015,0.106727152173545,-3.33608714488937,-0.0292452010788232,-0.0292452010788232,-0.05220768204,1.33416
0.35,0.604111336961591,0.0275876339477571,-0.115361088833305,-17.1855488463952,-0.321147013578561,-11.0809508183898,1.21203536614774,2.13471341551522,1.45691546296651,0.267917446817332,0.0332989589472997,-3.43281282668011,0.0292452010788232,0.0292452010788232,0.05220768204,1.33416
0.36,0.638202870209394,0.0282456946873953,-0.124990534913357,-18.9528420084452,-1.31495418867413,-12.2121271588095,-3.09557435055022,-1.07375524739228,-2.39859370916653,0.230540669535954,0.116972317168198,-3.53370734866705,-0.0292452010788232,-0.0292452010788232,-0.05220768204,1.33416
0.37,0.672580355186684,0.0296445293947895,-0.136980988010237,-18.2669048283503,0.139890329331439,-11.8237538736001,1.21274146061307,2.18142668254908,1.46562289654383,0.311360961756871,0.0387682629011888,-3.63000594310734,0.0292452010788232,0.0292452010788232,0.05220768204,1.33416
0.38,0.708421261971296,0.0300788938889005,-0.14778158339559,-20.0431904912011,-0.848618341202075,-12.9396073072596,-3.09544834228058,-1.02789059093552,-2.390160051431,0.272570972216121,0.127787714320994,-3.73142019726063,-0.0292452010788232,-0.0292452010788232,-0.05220768204,1.33416
0.39,0.744471762764091,0.0312525583468775,-0.161078751628724,-19.3531057082862,0.639110097633303,-12.5832600109343,1.21363653881983,2.22617885487387,1.4741313147453,0.358703171416848,0.0447380251586749,-3.82722331865218,0.0292452010788232,0.0292452010788232,0.05220768204,1.33416
0.4,0.782037886832095,0.0314019113095153,-0.173107904674967,-21.1387587178935,-0.345053930281936,-13.6841274488579,-3.09512074081035,-0.983947442246955,-2.3819181859863,0.318526737972022,0.139187244463295,-3.9291898269588,-0.0292452010788232,-0.0292452010788232,-0.05220768204,1.33416
0.41,0.819733450894184,0.0322859953191437,-0.187768655971871,-20.4447383270339,1.17384221102334,-13.3607408110049,1.21469316787501,2.26904880406403,1.48244190792442,0.410017602779702,0.0512215336009816,-4.02442663627436,0.0292452010788232,0.0292452010788232,0.05220768204,1.33416
0.42,0.858998977480362,0.032085168325253,-0.201081645962972,-22.2400757084987,0.193097722845174,-14.4469212653828,-3.09461870894167,-0.941848765378654,-2.37386703821862,0.36847796701568,0.151184732831298,-4.12697749995407,-0.0292452010788232,-0.0292452010788232,-0.05220768204,1.33416
0.43,0.89830999598682,0.0326116356719054,-0.217160585528032,-21.542448359655,1.74146585916913,-14.1573941999128,1.21588639702411,2.31011251281544,1.49055605146509,0.465370190744959,0.0582323283248395,-4.22157506100441,0.0292452010788232,0.0292452010788232,0.05220768204,1.33416
0.44,0.939247373572205,0.0319918308372178,-0.231810457679918,-23.3477310833242,0.763243625100099,-15.2291485470124,-3.09396698489573,-0.90152033467877,-2.36600534514915,0.422487459889746,0.163794173437837,-4.32474204683522,-0.0292452010788232,-0.0292452010788232,-0.05220768204,1.33416
0.45,0.980142504685503,0.0320892463287581,-0.249359827668141,-22.6469364487901,2.33940704439929,-14.974351086175,1.21719357823046,2.34944315502064,1.49847530530068,0.524819981002568,0.0657844168827275,-4.41862565209929,0.0292452010788232,0.0292452010788232,0.05220768204,1.33416
0.46,1.02272236749612,0.0309782588741568,-0.265397292646735,-24.4623708220981,1.36283677529602,-16.0319015370052,-3.09318805725673,-0.862890657161102,-2.35833165722001,0.480611493329966,0.177029960777884,-4.52244026116599,-0.0292452010788232,-0.0292452010788232,-0.05220768204,1.33416
0.47,1.06516846130953,0.0305720141138407,-0.284466876795878,-23.7589539054983,2.96513597272187,-15.8126815681524,1.21859419745357,2.38711117602454,1.50620141048035,0.588419801018976,0.0738924783880431,-4.61553372686601,0.0292452010788232,0.0292452010788232,0.05220768204,1.33416
0.48,1.10935955341984,0.0288944541401812,-0.301940214597659,-25.5846926154067,1.98937368838433,-16.8562108821131,-3.0923023294472,-0.825890894723193,-2.35084434276366,0.542900466180806,0.190907108608118,-4.72002724491351,-0.0292452010788232,-0.0292452010788232,-0.05220768204,1.33416
0.49,1.15332157935124,0.027906992310346,-0.322577247667057,-24.8792980598691,3.61616431674472,-16.6734006446739,1.22006971612224,2.42318437279728,1.51373628336684,0.656216900855287,0.0825720561799093,-4.81225317520076,0.0292452010788232,0.0292452010788232,0.05220768204,1.33416
0.5,1.19909068117574,0.0255845060678457,-0.341532215770129,-26.7154408897524,2.6403918022703,-17.7030511168602,-3.09132827423055,-0.790454786462039,-2.34354159461046,0.609399516778462,0.205441455480139,-4.91745670411957,-0.0292452010788232,-0.0292452010788232,-0.05220768204,1.33416
0.51,1.24453165851056,0.0239355459581659,-0.363781297687824,-26.00880732398,4.29004237605172,-17.5574733666246,1.22160342231944,2.45772797378508,1.52108200796969,0.728253564911592,0.0918397386914503,-5.0087367244907,0.0292452010788232,0.0292452010788232,0.05220768204,1.33416
0.52,1.29184351639253,0.0208870368499077,-0.384261043434403,-27.8554015685086,3.31346679157162,-18.5733456161822,-3.09028257871675,-0.756518571314186,-2.33642143836477,0.680149112637315,0.220649856666005,-5.11468119476155,-0.0292452010788232,-0.0292452010788232,-0.05220768204,1.33416
0.53,1.33872444860542,0.0184937963198874,-0.408164058101165,-27.1483560113588,4.98435616244204,-18.4658193727713,1.22318029121361,2.49080471822237,1.52824082684638,0.804567695175111,0.101713328131954,-5.20493615505432,0.0292452010788232,0.0292452010788232,0.05220768204,1.33416
0.54,1.38754170814229,0.0146356458325573,-0.430209035318955,-29.0053966132967,4.00620981480507,-19.4679709576221,-3.08918028032966,-0.724020911225622,-2.3294817419475,0.755185612801715,0.236550362090304,-5.31165231923856,-0.0292452010788232,-0.0292452010788232,-0.05220768204,1.33416
0.55,1.43582152156276,0.0114130648527091,-0.45580507405884,-28.2988489402239,5.69672443920022,-19.399316758637,1.22478685428766,2.52247493471028,1.535215130941,0.885193366131129,0.112211996574232,-5.40080246676305,0.0292452010788232,0.0292452010788232,0.05220768204,1.33416
0.56,1.48610466524275,0.00665935356006896,-0.47945296396921,-30.1662783740837,4.71626472342984,-20.3877606409483,-3.08803489417881,-0.69290281503646,-2.32272022606165,0.834541802844281,0.253162379871983,-5.50832087435144,-0.0292452010788232,-0.0292452010788232,-0.05220768204,1.33416
0.57,1.5357401525694,0.00252031693041803,-0.506778253651877,-29.4612158326196,6.42479574527757,-20.3588052325749,1.2264110769312,2.55279661888739,1.54200744867452,0.970161351164778,0.123356429031089,-5.59628599790032,0.0292452010788232,0.0292452010788232,0.05220768204,1.33416
0.58,1.58744744223253,-0.00321695433325267,-0.532063890147549,-31.3389237617945,5.44130526299709,-21.333508119465,-3.08685853226341,-0.663107563245919,-2.3161344752904,0.918247402194523,0.270506825079445,-5.70463695202904,-0.0292452010788232,-0.0292452010788232,-0.05220768204,1.33416
0.59,1.63839321134283,-0.008361394534672,-0.561151726037899,-30.6364055082746,7.16624543697628,-21.3450885182014,1.22804224397599,2.58182551003788,1.54862043455199,1.05949962002883,0.135168953107054,-5.79133649768124,0.0292452010788232,0.0292452010788232,0.05220768204,1.33416
0.6,1.69148063592106,-0.0151720832824438,-0.588107025442198,-32.5242282446156,6.17903229840288,-22.3059691033254,-3.08566201492307,-0.634580633804638,-2.30972194958224,1.00632954325847,0.288606253311881,-5.90054999439443,-0.0292452010788232,-0.0292452010788232,-0.05220768204,1.33416
0.61,1.74368906436898,-0.0214124855142421,-0.618987708858317,-31.8253798607128,7.91877278148028,-22.3589359670378,1.22967085276754,2.6096151665012,1.55505685750919,1.15323380676902,0.147673654821689,-5.98590315418067,0.0292452010788232,0.0292452010788232,0.05220768204,1.33416
0.62,1.79811029330421,-0.029388085995385,-0.647641604302193,-33.7230996585529,6.92717109695813,-23.305863100833,-3.08445497493575,-0.60726962906383,-2.30347999591831,1.0988132216324,0.307484978737016,-6.09600880506664,-0.0292452010788232,-0.0292452010788232,-0.05220768204,1.33416
0.63,1.85153148884477,-0.0368163973691593,-0.680342385183234,-33.0291075939402,8.68009813840403,-23.4010833496578,1.23128851337926,2.63621703976443,1.56131958918404,1.25138764737611,0.160896480217694,-6.17993457970482,0.0292452010788232,0.0292452010788232,0.05220768204,1.33416
0.64,1.90723783152911,-0.0460498187866614,-0.710720765755391,-34.9364518142962,7.68346870470801,-24.3338741691154,-3.08324595465066,-0.581124203994288,-2.29740585999204,1.19572171661414,0.327169176239197,-6.29096151886103,-0.0292452010788232,-0.0292452010788232,-0.05220768204,1.33416
0.65,1.96181959895741,-0.0547591535683273,-0.745265790257117,-34.2485576910048,9.44796026745042,-24.4722327980263,1.23288785558813,2.66168054713516,1.56741159226519,1.3539833863647,0.174865322389557,-6.37337875589463,0.0292452010788232,0.0292452010788232,0.05220768204,1.33416
0.66,2.01875997048741,-0.0653444982201597,-0.777391445096783,-36.1651978761249,8.44569145317176,-25.3906508508577,-3.08204249653052,-0.556095995772761,-2.29149669776132,1.2970769811659,0.347686967361102,-6.48535553228633,-0.0292452010788232,-0.0292452010788232,-0.05220768204,1.33416
0.67,2.0744477850293,-0.0754289168435365,-0.813801708343995,-35.4846925810025,10.2201138022831,-25.5730518762848,1.23446244224419,2.6860531429077,1.57333590904221,1.46104215145712,0.189610093596136,-6.56618294107079,0.0292452010788232,0.0292452010788232,0.05220768204,1.33416
0.68,2.13256867851353,-0.0874612583292756,-0.847694275855219,-37.4102434845531,9.21162263543238,-26.4768052792078,-3.0808512274648,-0.53213855481876,-2.2857495867604,1.40290000047765,0.369068489756751,-6.67913739744241,-0.0292452010788232,-0.0292452010788232,-0.05220768204,1.33416
0.69,2.18930566595474,-0.0990155470921659,-0.885987579987348,-36.7384609687782,10.9943269328036,-26.7041717622857,1.23600668867866,2.70938038795005,1.57909565025715,1.57258429556888,0.205162782152737,-6.75829354252266,0.0292452010788232,0.0292452010788232,0.05220768204,1.33416
0.7,2.24855113156295,-0.112590708772041,-0.921663502358118,-38.6724795927417,9.97906039226133,-27.5929114387987,-3.0796779372023,-0.509207277351344,-2.28016153708118,1.51321111831271,0.391345949912465,-6.8722526821002,-0.0292452010788232,-0.0292452010788232,-0.05220768204,1.33416
0.71,2.30627805525412,-0.125710160426845,-0.961854420006731,-38.0107902918054,11.7683793401333,-27.8661845280451,1.23751578780889,2.73170601765173,1.58469398433613,1.68862970534535,0.221557493834867,-6.94965595660834,0.0292452010788232,0.0292452010788232,0.05220768204,1.33416
0.72,2.36658968614445,-0.14092449436439,-0.999326903215763,-39.9527749875241,10.7458158506702,-28.7395025773879,-3.07852765123847,-0.487259339523023,-2.27472950195331,1.62803033038213,0.414553658935868,-7.06464579889753,-0.0292452010788232,-0.0292452010788232,-0.05220768204,1.33416
0.73,2.42524494096924,-0.15570468985569,-1.04142674655059,-39.3025787716659,12.5400604306586,-29.0596395143406,1.2389856406112,2.75307200818494,1.59013412706152,1.80919807558246,0.238830477566751,-7.14021437967265,0.0292452010788232,0.0292452010788232,0.05220768204,1.33416
0.74,2.48656186617903,-0.172654856517619,-1.08070572603905,-41.2519684692959,11.5097115588672,-29.9170677702137,-3.07740469847983,-0.466253633176372,-2.26945038786958,1.74737754408767,0.438728051260829,-7.25625980671144,-0.0292452010788232,-0.0292452010788232,-0.05220768204,1.33416
0.75,2.5460814795224,-0.189191448157852,-1.12472252151223,-40.6146870333777,13.3071679173996,-30.2850388033108,1.2404127916456,2.77351864104278,1.59541933172959,1.93430914897157,0.257020135213143,-7.32991159290408,0.0292452010788232,0.0292452010788232,0.05220768204,1.33416
0.76,2.60834036385595,-0.207974197185192,-1.16581463368695,-42.5708606711402,12.2685802629576,-31.126047648155,-3.07631277399458,-0.446150703258432,-2.26432106421723,1.87127280408852,0.463907686168585,-7.44703618737055,-0.0292452010788232,-0.0292452010788232,-0.05220768204,1.33416
0.77,2.66865800355929,-0.226362693596128,-1.21175310259336,-41.9479292747004,14.0675067985667,-31.5428318035003,1.24179436932979,2.79308456582782,1.60055287982576,2.06398292073719,0.276167015343092,-7.51868872434299,0.0292452010788232,0.0292452010788232,0.05220768204,1.33416
0.78,2.73179305445457,-0.247074645998478,-1.25466166231204,-43.91020550651,13.0202640717422,-32.3668293114715,-3.07525499714565,-0.426912686918343,-2.25933837238815,1.99973648328154,0.490133232082345,-7.63691460095165,-0.0292452010788232,-0.0292452010788232,-0.05220768204,1.33416
0.79,2.79283819183146,-0.267452859963015,-1.30250576261135,-43.2976950506612,14.7947703960906,-32.8095783814309,1.24312803067257,2.75337693861224,1.60553807223775,2.19377756458608,0.296313790889461,-7.70765343580185,0.0292452010788232,0.0287076457903332,0.05220768204,1.33416
0.8,2.85677703739314,-0.290231714162898,-1.34721528140763,-45.2587017900415,13.7147397003474,-33.5925977542265,-3.07362405411284,-0.465764578513621,-2.2543747068646,2.12395367247742,0.51733224377168,-7.8282258884671,-0.0292452010788232,-0.0292452010788232,-0.05220768204,1.33416
0.81,2.9183325155384,-0.312531024711972,-1.39687349534025,-44.6628290954295,15.4886528055487,-34.0860202966703,1.24417069040167,2.77359200664267,1.6101990937176,2.32402450521736,0.317525558774301,-7.87533054131758,0.0292452010788232,0.0292452010788232,0.05220768204,1.18653620888089
0.82,2.98254128634697,-0.337053609424071,-1.44308410371147,-46.6277763655541,14.4008087285445,-34.8510781318757,-3.0728973086518,-0.445898575619682,-2.24985490807139,2.25324326715993,0.545042578797612,-7.95117983218712,-0.0292452010788232,-0.0292452010788232,-0.05220768204,1.02244310096658
0.83,3.04387544640992,-0.360904279131434,-1.49401112219122,-46.037661685629,16.1273099939646,-35.3469496772613,1.24518717428712,2.67869025497698,1.61473365037766,2.44838067003666,0.34003751815839,-7.94561231462816,0.0292452010788232,0.0281940489333281,0.05220768204,0.824202456550367
0.84,3.10761599281415,-0.386766635661356,-1.54122902580428,-47.9911647397104,14.9870340503515,-36.0452091178805,-3.07098663312281,-0.538848460545611,-2.24521344250805,2.36823342190573,0.570844335961876,-7.97985581520752,-0.0292452010788232,-0.0292452010788232,-0.05220768204,0.713035840813827
0.85,3.16813774640853,-0.411655575633993,-1.59302607174895,-47.4191674104472,16.7121776760744,-36.5933347212569,1.24571628750275,2.7017179076668,1.61879476512549,2.56533047604356,0.362117385317273,-7.93351814423313,0.0292452010788232,0.0292452010788232,0.05220768204,0.557149823436777
0.86,3.23090069926113,-0.438389445034876,-1.64095326196834,-49.3740887785509,15.566484057468,-37.2731600513574,-3.07078118319787,-0.516237653364841,-2.24128511785217,2.48548321742712,0.593690321727642,-7.93592721994409,-0.0292452010788232,-0.0292452010788232,-0.05220768204,0.488191780602794
0.87,3.29019363094181,-0.463996034886693,-1.69330521630611,-48.8213499027588,17.2883045127449,-37.8742861164324,1.24626086663108,2.72378392775862,1.62276365352354,2.68246367621954,0.382136175658383,-7.85996970160492,0.0292452010788232,0.0292452010788232,0.05220768204,0.365910448137747
0.88,3.35162170895315,-0.491319250935015,-1.74170262366297,-50.7769689441315,16.1368510061997,-38.5349075939685,-3.07055001337075,-0.494569878393842,-2.23744523597803,2.603204726492,0.612616820367837,-7.84033068217973,-0.0292452010788232,-0.0292452010788232,-0.05220768204,0.328846812669141
0.89,3.40940167586382,-0.517406178255679,-1.79438601647247,-50.2445969835095,17.8533595060053,-39.189745257166,1.2468154945072,2.74492737012752,1.62664091352973,2.79851279808478,0.39890206882315,-7.7430695186059,0.0292452010788232,0.0292452010788232,0.05220768204,0.231102243508222
0.9,3.46916078268718,-0.545146627540812,-1.84317456014723,-52.1029306375738,16.695854640015,-39.83034615045,-2.90062729911471,-0.473806921227635,-2.23369326789219,2.72004115397704,0.613825260960392,-7.70938702864155,-0.0280812549804447,-0.0292452010788232,-0.05220768204,0.218189370746914
0.91,3.52512869094939,-0.57176147179044,-1.89603180576956,-51.4619595882535,18.3183406297227,-40.4185738495975,1.4136533437619,2.51539461694147,1.63056497136089,2.89306817010344,0.385726604493587,-7.60446070371262,0.0292452010788232,0.0269728940840425,0.05220768204,0.137649905890515
0.92,3.58312198929233,-0.59990654865494,-1.94492179559455,-53.2862639240169,17.070196175085,-40.9282393567402,-2.9044343905917,-0.69670212674433,-2.23007634319519,2.79776019228915,0.597880246845165,-7.56776507376962,-0.0292452010788232,-0.0292452010788232,-0.05220768204,0.135852721258595
0.93,3.63725284824407,-0.626685602461699,-1.9978330402287,-52.6673172281647,18.6915925533978,-41.5653999028868,1.40670183461019,2.5439324144548,1.63299747799991,2.96844805151582,0.369963415053203,-7.45118228610083,0.0292452010788232,0.0292452010788232,0.05220768204,0.066708
0.94,3.69338175538907,-0.654926634160983,-2.04681982621165,-54.4943330660856,17.4443119189369,-42.060909255063,-2.91158963203852,-0.668793573132611,-2.22773130119641,2.87596628542947,0.578782359690555,-7.40749497481437,-0.0292452010788232,-0.0292452010788232,-0.05220768204,0.0750522620247276
0.95,3.74562411028872,-0.681816248047998,-2.09973818173877,-53.8979909439605,19.0627628301468,-42.7476114233497,1.40010453360708,2.57135027172909,1.63542627746705,3.04362022947884,0.351270316706039,-7.28969535610347,0.0292452010788232,0.0292452010788232,0.05220768204,0.066708
0.96,3.79988005357927,-0.710151417513238,-2.14881624112898,-55.7270192591178,17.8158263543538,-43.2280588825081,-2.91838668220137,-0.641978567632854,-2.2253880873683,2.95392137695755,0.55647773308937,-7.24687051603134,-0.0292452010788232,-0.0292452010788232,-0.05220768204,0.066708
0.97,3.85022662446105,-0.73714699743386,-2.20173449140406,-55.1538396833982,19.42945502513,-43.9648678795693,1.39384157970094,2.59769035153423,1.63784889576796,3.11831846768831,0.329351830306582,-7.12786186564778,0.0292452010788232,0.0292452010788232,0.05220768204,0.066708
0.98,3.9026078546835,-0.765582750311837,-2.2509038599852,-56.9841536768255,18.1823993341303,-44.4293287561625,-2.92484535705853,-0.61621603703497,-2.2230492263979,3.03132289670201,0.530898443744972,-7.08726672410358,-0.0292452010788232,-0.0292452010788232,-0.05220768204,0.066708
0.99,3.95105803486548,-0.792687663787726,-2.3038209661351,-56.434660715998,19.7893087636919,-45.2167579503406,1.38789418768583,2.62299330468295,1.6402629560226,3.19228680959934,0.304130663583917,-6.96706348754896,0.0292452010788232,0.0292452010788232,0.05220768204,0.066708
1,4.00156257836111,-0.821230426558609,-2.35308149561269,-58.2655088782845,18.5417275536015,-45.6642908809499,-2.93098440498087,-0.591466376852363,-2.22071713981737,3.10791983663937,0.502006720211915,-6.92883853102242,-0.0292452010788232,-0.0292452010788232,-0.05220768204,0.066708
1.01,4.04811567170155,-0.848447902637819,-2.40599631936402,-57.7401807240578,20.1400016972777,-46.5027929879844,1.38224459685051,2.64729832193917,1.64266618524815,3.26528990648559,0.275575786803481,-6.80746212442915,0.0292452010788232,0.0292452010788232,0.05220768204,0.066708
1.02,4.09668348861015,-0.877120275947631,-2.45539228487567,-59.5078621896293,18.8915464903342,-46.9324428444522,-2.82699089106913,-0.56769140097917,-2.2183941401377,3.18348855633646,0.462299094806185,-6.77205083794733,-0.028491762704808,-0.0292452010788232,-0.05220768204,0.066708
1.03,4.14127945427104,-0.90447126977976,-2.50834463568517,-58.9445373645831,20.4797049811971,-47.8195844882971,1.48451007495252,2.66884230972054,1.64516322677805,3.33688339558253,0.228952292215565,-6.64989283996463,0.0292452010788232,0.0292452010788232,0.05220768204,0.066708
1.04,4.18796843301465,-0.933259372980982,-2.55782916044819,-60.7146576195637,19.2306092866424,-48.2331907365786,-2.83687480023512,-0.545309243499613,-2.21646559011149,3.25788658906249,0.412605778560483,-6.61734611267874,-0.0292452010788232,-0.0292452010788232,-0.05220768204,0.066708
1.05,4.23066595629596,-0.960730489420782,-2.61077385074966,-60.1775072672666,20.807913533808,-49.1684589670044,1.47515349455303,2.69089845055941,1.64715236350636,3.40717970577793,0.180126858245583,-6.49365000648566,0.0292452010788232,0.0292452010788232,0.05220768204,0.066708
1.06,4.27547368010641,-0.989640866896997,-2.66034607190339,-61.9491787297561,19.5578649819141,-49.5649646397261,-2.84631496008319,-0.523786312407993,-2.21452919511927,3.33092205538557,0.360671880427092,-6.46408118340604,-0.0292452010788232,-0.0292452010788232,-0.05220768204,0.066708
1.07,4.31625493298306,-1.01739681019139,-2.71320400656075,-61.3938164273687,21.0555760839854,-50.4154854485962,1.46621888302782,2.46372242107847,1.64914615429444,3.45995632923284,0.129020697161246,-6.34718033188244,0.0292452010788232,0.026960082831315,0.05220768204,0.066708
1.08,4.35915312806038,-1.04659561420114,-2.76278718366617,-63.1173174340093,19.7381346438564,-50.6633231706831,-2.85267001205249,-0.74650598941123,-2.21196350219335,3.37101568613954,0.306114062017384,-6.32895843788134,-0.0292452010788232,-0.0292452010788232,-0.05220768204,0.066708
1.09,4.39803364916426,-1.07446830038097,-2.81563529595624,-62.5864917160221,21.2277370416796,-51.5630498913305,1.45679674041898,2.49388947944814,1.65056646442112,3.49740400626485,0.0756091885327005,-6.21107830861003,0.0292452010788232,0.0292452010788232,0.05220768204,0.066708
1.1,4.43890809434965,-1.10382199796697,-2.86539501472237,-64.1614940302036,19.9142291882989,-51.7973969214038,-2.60080397278897,-0.717041828548283,-2.21060711578328,3.41217950801343,0.233210141184634,-6.19568708569377,-0.0274516800466236,-0.0292452010788232,-0.05220768204,0.066708
1.11,4.47575068628024,-1.13184504130716,-2.9183129406852,-63.5061827016602,21.3952465196994,-52.7399343566698,1.70405550584289,2.51862045053524,1.65234907671317,3.53525247525085,-0.011995109705245,-6.07713668743331,0.0292452010788232,0.0292452010788232,0.05220768204,0.066708
1.12,4.51473954276252,-1.16132281863943,-2.96815672459829,-65.0901984174014,20.0856902385524,-52.9667269614396,-2.62023117725855,-0.68976650738681,-2.20998866438721,3.45427742507889,0.14363329987123,-6.06482215369741,-0.0292452010788232,-0.0292452010788232,-0.05220768204,0.066708
1.13,4.54968049004068,-1.18947110638498,-3.02105733621614,-64.4623826664195,21.5590400998138,-53.9505046036355,1.68541162441785,2.54565571410991,1.653053722637,3.57389696846401,-0.0993911722720864,-5.94424830791216,0.0292452010788232,0.0292452010788232,0.05220768204,0.066708
1.14,4.58678196314303,-1.21907899933256,-3.07098359363428,-66.0543903832565,20.2529906998855,-54.1684447521298,-2.63880427440076,-0.663490869036274,-2.20929572801899,3.49703156770581,0.0542000030713929,-5.93511673714596,-0.0292452010788232,-0.0292452010788232,-0.05220768204,0.066708
1.15,4.61982083817219,-1.24735410048361,-3.12386586286957,-65.4539117189359,21.7170460386116,-55.1939073601836,1.66759051056624,2.57169571046815,1.65382962962595,3.61310516705119,-0.186776053764469,-5.81260835040995,0.0292452010788232,0.0292452010788232,0.05220768204,0.066708
1.16,4.65501279862703,-1.27710222355705,-3.17388387002004,-67.0467912036514,20.4477379788926,-55.3851972602243,-2.656561797545,-0.638179851378616,-2.14400376819779,3.54010237953261,-0.0376094462891522,-5.80676503188321,-0.0292452010788232,-0.0292452010788232,-0.0513262262319679,0.066708
1.17,4.6861301241933,-1.30550819792887,-3.22675683414516,-66.468385912455,21.934040513748,-56.4369888217266,1.65082259912736,2.59550844316216,1.71791075207192,3.6523597419887,-0.278888067143155,-5.68241730419004,0.0292452010788232,0.0292452010788232,0.05220768204,0.066708
1.18,4.71943098929962,-1.33539973780869,-3.27685209186216,-68.0683841611722,20.6663506569015,-56.6182792392241,-2.67433173504916,-0.614266442887223,-2.14572598284245,3.58314220115927,-0.13170435653486,-5.68010669954624,-0.0292452010788232,-0.0292452010788232,-0.05220768204,0.066708
1.19,4.74864804225648,-1.36393329461734,-3.32970362418323,-67.5188856972575,22.1390794201459,-57.7135884945303,1.63373451507454,2.61925922607773,1.71631310764438,3.6914533364488,-0.371013236131067,-5.55395054053082,0.0292452010788232,0.0292452010788232,0.05220768204,0.066708
1.2,4.78005546469573,-1.39397400954086,-3.37987398979907,-69.124949659505,20.8727432883554,-57.8835563054381,-2.69131612182141,-0.591226945548613,-2.14728216741603,3.6259225458842,-0.225863800303911,-5.55527087270841,-0.0292452010788232,-0.0292452010788232,-0.05220768204,0.066708
1.21,4.80737154352875,-1.42263661170341,-3.43270300753572,-68.604100946267,22.330226245457,-59.0226626417625,1.61740524329516,2.64213825712989,1.71487639397922,3.73024887910364,-0.463314640604544,-5.42740852058693,0.0292452010788232,0.0292452010788232,0.05220768204,0.066708
1.22,4.83684608953667,-1.45283989913443,-3.48296208383802,-70.2058517922288,21.1231157840893,-59.1554171285219,-2.7075494251739,-0.569029820401824,-2.0397961641921,3.66781320563412,-0.324301645567577,-5.43245769233442,-0.0292452010788232,-0.0292452010788232,-0.0507203251602532,0.066708
1.23,4.86222112874423,-1.48167029578496,-3.53576551697731,-69.694273476327,22.6101810843507,-60.28318428808,1.60220413515723,2.60650350770395,1.82029918904069,3.76448672397434,-0.56388332013676,-5.30504897973349,0.0292452010788232,0.0287346514042547,0.05220768204,0.066708
1.24,4.88979196295146,-1.51206731569442,-3.58607608719658,-71.2893527938212,21.3913156181143,-60.3727552941956,-2.72383571464408,-0.602896094889879,-2.04519932521898,3.70255537827208,-0.426759650415832,-5.316182071005,-0.0292452010788232,-0.0292452010788232,-0.05220768204,0.066708
1.25,4.91326900258691,-1.54102457689728,-3.63885378747111,-70.8090104171737,22.8594193398028,-61.5468625390933,1.58577327005809,2.62916341314746,1.81483019539797,3.79509840573238,-0.664345215550539,-5.18726070794697,0.0292452010788232,0.0292452010788232,0.05220768204,0.066708
1.26,4.93870990282736,-1.57158745644814,-3.68933978346732,-72.1313274286893,21.6404108641649,-61.6248125726356,-2.25502761843672,-0.580974556452589,-2.05054712997987,3.73668030904582,-0.554258288779664,-5.1991985968468,-0.025917517764696,-0.0292452010788232,-0.05220768204,0.066708
1.27,4.96005301035722,-1.60069322150193,-3.74218100414057,-71.3997972532325,23.0880154525182,-62.819132340602,2.04547649051908,2.61933267677705,1.81015820355036,3.82291764359037,-0.814479239240517,-5.06661704350465,0.0292452010788232,0.0290214924793767,0.05220768204,0.066708
1.28,4.98360135975702,-1.63142788532473,-3.79272176038131,-72.7364873130331,21.8640926326718,-62.8827719473262,-2.28940793873465,-0.584512871047445,-2.05716166416794,3.76776545590725,-0.704554555390289,-5.0835686244177,-0.0292452010788232,-0.0292452010788232,-0.05220768204,0.066708
1.29,5.00304245705803,-1.66068799700103,-3.84551904652924,-72.0343296969789,23.295115411471,-64.0923869109151,2.01171146896678,2.61225824293404,1.80362786715861,3.8475530371467,-0.961015333205919,-4.94867895476356,0.0292452010788232,0.0289824854876828,0.05220768204,0.066708
1.3,5.02465452055837,-1.69161048189646,-3.89612145111137,-73.3746395340038,22.1257749016693,-64.1169855291643,-2.32230349531934,-0.591994673655908,-1.95353668007603,3.79438802283991,-0.855677229082932,-4.97084330020618,-0.0292452010788232,-0.0292452010788232,-0.0507071470110246,0.066708
1.31,5.04215707709604,-1.72101558927454,-3.94889201659624,-72.7008848573867,23.6031938777675,-65.3398248529599,1.97977259254974,2.63220359187468,1.90511764968828,3.8681862077183,-1.11259737608336,-4.83286525880741,0.0292452010788232,0.0292452010788232,0.05220768204,0.066708
1.32,5.06187600306085,-1.75210775695217,-3.9995480277638,-74.0601503352255,22.4315384299313,-65.3638528862133,-2.35557428849009,-0.571388903729074,-1.96385024429988,3.81927406085643,-1.00750438295738,-4.85942224564507,-0.0292452010788232,-0.0292452010788232,-0.05220768204,0.066708
1.33,5.07745940061475,-1.78179866283978,-4.05219849471292,-73.3611244150936,23.8490753024495,-66.4560158597964,1.94739061229435,2.3736571496806,1.89505976447761,3.87427507727688,-1.26069721548502,-4.7291937551298,0.0292452010788232,0.0266747204634324,0.05220768204,0.066708
1.34,5.09525234739589,-1.81321068439253,-4.10282341662997,-74.6697975946694,22.6307192290352,-66.3144722675276,-2.38395104646986,-0.825365168351894,-1.972698464561,3.81657278013772,-1.15623383111263,-4.77061455838212,-0.0292452010788232,-0.0292452010788232,-0.05220768204,0.066708
1.35,5.10893943143966,-1.84303205747293,-4.15543480899062,-74.0067402543028,24.0367610403607,-67.4446896377306,1.9162911684026,2.40472828778823,1.88532354970317,3.86792985309616,-1.40577608938126,-4.63778006372925,0.0292452010788232,0.0292452010788232,0.05220768204,0.066708
1.36,5.1248461966797,-1.8746606370525,-4.20612264112822,-75.3343901132902,22.8194155988097,-67.3075799307391,-2.41465909981921,-0.795488964468344,-1.98221549626739,3.81507605012235,-1.30183843681496,-4.6879523195674,-0.0292452010788232,-0.0292452010788232,-0.05220768204,0.100514057489359
1.37,5.13664827308779,-1.90465886221892,-4.25870989043225,-74.7067916850114,24.2124742189463,-68.4764083844112,1.88653123030875,2.43462457106689,1.87607702074402,3.86292559923443,-1.54802598082066,-4.55273922797127,0.0292452010788232,0.0292452010788232,0.05220768204,0.066708
1.38,5.15062171582358,-1.93657013892993,-4.30947695470925,-76.0421928471193,23.0749890861514,-68.3180825188374,-2.44404392871064,-0.766734244517111,-1.84851145024128,3.81253777072877,-1.45010235441713,-4.61200324085872,-0.0292452010788232,-0.0292452010788232,-0.0502578581818668,0.135744968246433
1.39,5.16049457265644,-1.96680442104361,-4.3620602330782,-75.4419488673903,24.5311555642144,-69.5038729970069,1.85877116841643,2.46081939858486,2.00718733125983,3.85466315456259,-1.69849010098289,-4.47465821618935,0.0292452010788232,0.0292452010788232,0.05220768204,0.066708
1.4,5.1726028289012,-1.99904183231548,-4.41290583568007,-76.7944890951952,23.3916324317112,-69.3478811491737,-2.47366591633321,-0.739646961869247,-1.86273064548844,3.80862017181815,-1.60068124006362,-4.54352182145118,-0.0292452010788232,-0.0292452010788232,-0.05220768204,0.171666706458343
1.41,5.18062162269146,-2.02956912688309,-4.46549849199828,-76.2334502015702,24.8291809018865,-70.5757304155787,1.82999877899434,2.48802963648106,1.99332839466695,3.84700182816114,-1.84580181233563,-4.40631765360081,0.0292452010788232,0.0292452010788232,0.05220768204,0.0813276844636279
1.42,5.1908767144694,-2.06220462265452,-4.51643310503776,-77.601612514436,23.6877406545092,-70.4200450603374,-2.50199376221636,-0.713595245258745,-1.8762764143689,3.80515029824866,-1.74800424287977,-4.48453847632575,-0.0292452010788232,-0.0292452010788232,-0.05220768204,0.205223332299455
1.43,5.19705650600744,-2.09311180750119,-4.56905624673412,-77.0792366567078,25.1051053123574,-71.6904186129659,1.80249014405283,2.51420083866811,1.98012930616257,3.84007085147073,-1.99017633264803,-4.34964865553601,0.0292452010788232,0.0292452010788232,0.05220768204,0.109206010946928
1.44,5.20547134586588,-2.12623049746088,-4.62009080561389,-78.461533652357,23.9618832533007,-71.5330777323078,-2.52907563929738,-0.688528608198541,-1.8891750867122,3.80225824180678,-1.89221795972681,-4.4366853619478,-0.0292452010788232,-0.0292452010788232,-0.05220768204,0.234440663901576
1.45,5.20982239404581,-2.15759394196392,-4.67276024895588,-77.9771920452988,25.3574611359403,-72.8463183634226,1.77619794055432,2.53938283502574,1.96756410039826,3.83404857300672,-2.13177558282945,-4.30375182107664,0.0292452010788232,0.0292452010788232,0.05220768204,0.133266070754116
1.46,5.21639023106425,-2.19127433452945,-4.72390094320033,-79.3702133714726,24.2320173424193,-72.6808546721381,-2.55495873721788,-0.664400018872248,-1.8668239872072,3.7994041626955,-2.0348136701437,-4.3991840924222,-0.0292452010788232,-0.0292452010788232,-0.0517346583149144,0.260182781674346
1.47,5.2189045453907,-2.22316440308196,-4.77662771558951,-78.9217956334541,25.623257959207,-74.0329899955388,1.75122540849225,2.56296818153744,1.98954325370697,3.82760750405479,-2.27333066243711,-4.26796160339817,0.0292452010788232,0.0292452010788232,0.05220768204,0.154290250945307
1.48,5.22356852085786,-2.25744422783224,-4.82790032683073,-80.2360377829854,24.5103610476922,-73.8593645077861,-2.42483270965977,-0.641365056812277,-1.85367580688434,3.79612334187015,-2.18341928568945,-4.36801155582313,-0.0281800690964228,-0.0292452010788232,-0.051849802111749,0.28315575449834
1.49,5.22418886128008,-2.28989829842959,-4.88071286262588,-79.7358104004682,25.8922205914863,-75.2487756955811,1.87908331799772,2.5835112804586,2.0026722546805,3.8207510085472,-2.42730524431279,-4.23535188131182,0.0292452010788232,0.0292452010788232,0.05220768204,0.17644249835777
1.5,5.22699658862361,-2.32488568583369,-4.93209336717798,-81.0614171428754,24.8247051894231,-75.0629001097552,-2.45528525718512,-0.619170281358234,-1.78134519468206,3.79110662946315,-2.33966730046801,-4.3443107657539,-0.0292452010788232,-0.0292452010788232,-0.0510289498873081,0.310525208732734
1.51,5.22573965516519,-2.35811314325368,-4.98490770849226,-80.5413233593908,26.2109320599863,-76.3485284805279,1.84979847142547,2.38769262810529,2.07361614785535,3.80134194784523,-2.58425555456087,-4.22154085519125,0.0292452010788232,0.0272517991148712,0.05220768204,0.198610374720659
1.52,5.22669923644005,-2.39395794121678,-5.03632909799816,-81.8215096515753,25.11880284444,-76.0265690001689,-2.48253608767741,-0.810536070559059,-1.79736085987955,3.76644337456484,-2.49536238392915,-4.34584482450034,-0.0292452010788232,-0.0292452010788232,-0.05220768204,0.326555542717409
1.53,5.22362827074708,-2.42787826031507,-5.08921497919918,-81.3424494969713,26.482477586699,-77.3556181195154,1.82079198797602,2.41748095261678,2.05707807839672,3.77476223480104,-2.73739378246099,-4.22222671521964,0.0292452010788232,0.0292452010788232,0.05220768204,0.20299236200393
1.54,5.22276479101517,-2.46450014461809,-5.14073886462261,-82.6384508893943,25.3877883266197,-77.0354845421962,-2.51110410225868,-0.782010656818793,-1.81354243784332,3.74386785342238,-2.6469809141344,-4.3523709974106,-0.0292452010788232,-0.0292452010788232,-0.05220768204,0.335416960264445
1.55,5.21787526098956,-2.49913744142149,-5.19369408087573,-82.199634830941,26.7273054562206,-78.4081586401389,1.79304639590077,2.44611571512006,2.04130317094727,3.75049546287956,-2.88669330395479,-4.22845517572903,0.0292452010788232,0.0292452010788232,0.05220768204,0.209665490350785
1.56,5.21492762068041,-2.53647744962702,-5.24535665370847,-83.2802523935665,25.7495030943307,-78.0695492080606,-2.15182579086856,-0.754579511232106,-1.61915620185573,3.71745802944369,-2.81889922049451,-4.35363931243854,-0.0265931176717663,-0.0292452010788232,-0.0493415586303596,0.346033559192093
1.57,5.20796396105358,-2.5717919875708,-5.29841320139418,-82.6548198325302,27.1850466719827,-79.4607122884786,2.14641620561472,2.46509063767687,2.23238408956845,3.71551475535576,-3.08026735753824,-4.22054108946917,0.0292452010788232,0.0292452010788232,0.05220768204,0.229422311669852
1.58,5.20320596527053,-2.61001678748139,-5.35016906721591,-83.7621749475619,26.1979519453172,-79.1312094197841,-2.19543867498822,-0.727621017740449,-1.6432660831114,3.6868881515893,-3.01001926195048,-4.35557973072229,-0.0292452010788232,-0.0292452010788232,-0.05220768204,0.379135907951303
1.59,5.19443357811727,-2.64619005147229,-5.40329408284321,-83.1875695769855,27.611175227966,-80.5600806928456,2.10384531374588,2.49242314096762,2.20880141809987,3.68196681463376,-3.26758139247639,-4.22413341582772,0.0292452010788232,0.0292452010788232,0.05220768204,0.256308449316371
1.6,5.18786783343446,-2.68538473376391,-5.45513576654425,-84.319748068605,26.6154943778748,-80.2372390613373,-2.237172703504,-0.701904308370815,-1.66629583882969,3.65761674947264,-3.19477416908883,-4.36854445369292,-0.0292452010788232,-0.0292452010788232,-0.05220768204,0.408007888150301
1.61,5.17728801425635,-2.72249344279706,-5.50832843853689,-83.7950810409467,28.0048127133117,-81.7046717928182,2.06311561946422,2.51851322403045,2.18627879397001,3.6501859464045,-3.44894721373965,-4.23856081826863,0.0292452010788232,0.0292452010788232,0.05220768204,0.279446537900567
1.62,5.16891358005778,-2.76273252979442,-5.56024482996707,-84.9501785536569,27.00121618193,-81.3861063054792,-2.27709368307564,-0.677344426938836,-1.68828631813967,3.62999177311421,-3.37346255834018,-4.39194487570002,-0.0292452010788232,-0.0292452010788232,-0.05220768204,0.433323879659694
1.63,5.15652452015361,-2.80084382400264,-5.61350083402052,-84.4744691826799,28.3650002889947,-82.8927935462684,2.02416228527458,2.54344369359133,2.1647759254156,3.62050219762801,-3.62463790381697,-4.26328266667162,0.0292452010788232,0.0292452010788232,0.05220768204,0.299435320255359
1.64,5.14633718146035,-2.84219280407347,-5.66547781313891,-85.6506033024868,27.3541335734982,-82.576186111651,-2.31526673884958,-0.653863740007779,-1.7092775185322,3.60435474382885,-3.54634337645274,-4.42530669503904,-0.0292452010788232,-0.0292452010788232,-0.05220768204,0.45564086231187
1.65,5.13207656784851,-2.88149716712037,-5.71867547068691,-85.1276711830365,28.6767364588916,-83.9156957970037,1.9869211871906,2.24555495698552,2.14425338367782,3.57900463171598,-3.79489076313446,-4.3094568310939,0.0292452010788232,0.0262852356139207,0.05220768204,0.316772005558772
1.66,5.1199252578568,-2.92412536185418,-5.7705599779944,-86.2185752236214,27.7379627995229,-83.3864180477729,-2.34727085316561,-0.946691971531278,-1.56371173786188,3.5468945140212,-3.71973208261155,-4.48902291520046,-0.0292452010788232,-0.0292452010788232,-0.0499605888029394,0.463944981875813
1.67,5.10376253100631,-2.96450052331895,-5.82377646680752,-85.738969723961,29.1308039684524,-84.7604098665767,1.95319895449557,2.27819752200866,2.28569455444749,3.51493617057343,-3.97140092478413,-4.37115765591687,0.0292452010788232,0.0292452010788232,0.05220768204,0.311501629865894
1.68,5.08978293798822,-3.00826296127654,-5.87569859642353,-86.8511810261473,28.1836831698866,-84.2405470063003,-2.38286867452228,-0.913194773678066,-1.58958059056708,3.48687709137364,-3.89285236721794,-4.55546528959971,-0.0292452010788232,-0.0292452010788232,-0.05220768204,0.464536699053956
1.69,5.07179628738495,-3.04970184688284,-5.92895395803403,-86.4225381100507,29.5496149282307,-85.6603585130382,1.91850004977781,2.31189182623851,2.26042208249269,3.45438014236859,-4.14151277691689,-4.43660608522515,0.0292452010788232,0.0292452010788232,0.05220768204,0.311053577000316
1.7,5.05597867717816,-3.09460601563611,-5.98090006607975,-87.5544464442436,28.59497718595,-85.1475052217435,-2.4169944480727,-0.881118937148656,-1.61432293099165,3.43031070723873,-4.05954762365917,-4.62631976789151,-0.0292452010788232,-0.0292452010788232,-0.05220768204,0.468778388150347
1.71,5.03616002218125,-3.13711888806221,-6.03418636734345,-87.1759454896133,29.932399896557,-86.6135393261603,1.88524654442994,2.3441691077913,2.23625401121875,3.39759523827018,-4.30547186735313,-4.50719332822798,0.0292452010788232,0.0292452010788232,0.05220768204,0.313615957881782
1.72,5.01836173907497,-3.18304378670228,-6.08621070655397,-88.1406912266704,28.9710406842291,-86.1053537019112,-2.1263680001082,-0.850379551410092,-1.63798018459966,3.37744243893088,-4.23458659928747,-4.68884096276223,-0.0270272197220017,-0.0292452010788232,-0.05220768204,0.47532546750588
1.73,4.99656887052882,-3.22653556876842,-6.13957655982707,-87.6262339305002,30.2827642257365,-87.6104209923016,2.17025229317502,2.37119777733317,2.21362053879468,3.34399255927151,-4.492654485903,-4.55824030269053,0.0292452010788232,0.0292452010788232,0.05220768204,0.332246856575564
1.74,4.97686235120092,-3.2736998551514,-6.19157091597727,-88.6170156341213,29.3881628846469,-87.1091367450702,-2.17042730816192,-0.8195437059729,-1.52874169359314,3.32250419909618,-4.42274882603078,-4.75000605514696,-0.0292452010788232,-0.0292452010788232,-0.0503954882837354,0.509438400433775
1.75,4.95315919505064,-3.31840584831628,-6.24491499646322,-88.1539883074842,30.7506440118779,-88.6501626920341,2.12798459785402,2.40019788811486,2.32072472556947,3.28241141416412,-4.68196277413503,-4.62228985267256,0.0292452010788232,0.0292452010788232,0.05220768204,0.360120393106349
1.76,4.93160857114004,-3.36689143232851,-6.29688847505914,-89.1703699982462,29.8447845982488,-88.1570858469312,-2.21393835003943,-0.790130565162214,-1.55637787354093,3.26531711110658,-4.60812288957449,-4.82370654699621,-0.0292452010788232,-0.0292452010788232,-0.05220768204,0.538313169088725
1.77,4.90606113634399,-3.41288452555365,-6.350231058249,-88.7632740792558,31.1789944185647,-89.7401279534981,2.08549414840706,2.42996665003205,2.29369173455814,3.22475045069417,-4.86408993081464,-4.69854083520779,0.0292452010788232,0.0292452010788232,0.05220768204,0.383100309729558
1.78,4.88265789817334,-3.46276148685944,-6.40216157107769,-89.8033165893823,30.2629026240054,-89.2527507433112,-2.25560106837659,-0.762102725561808,-1.58280184982333,3.21191921492143,-4.78611440188364,-4.90904204250952,-0.0292452010788232,-0.0292452010788232,-0.05220768204,0.562501799405572
1.79,4.85525757417787,-3.51010403850432,-6.45548911670548,-89.4509723390959,31.5671114047139,-90.878347994514,2.0448173654829,2.45835374283861,2.26784814372551,3.17140779859404,-5.03928131451629,-4.78612966268825,0.0292452010788232,0.0292452010788232,0.05220768204,0.401983081597874
1.8,4.82990679615796,-3.56143026481269,-6.50731176580543,-90.5122194659994,30.7312922816609,-90.3932201580268,-2.29547457853062,-0.735363579919959,-1.45179982108511,3.15484616599186,-4.96191521793183,-5.00526194809831,-0.0292452010788232,-0.0292452010788232,-0.0500731859909291,0.58291322304882
1.81,4.80054289038433,-3.61019885724387,-6.56053374423348,-90.1883620023722,32.0918967719212,-92.0093533157583,2.00664279744079,2.40325883742968,2.39628322097011,3.1029488564906,-5.21731085233109,-4.88705549816281,0.0292452010788232,0.0285134046093071,0.05220768204,0.41773763348435
1.82,4.7732937933305,-3.66304105071422,-6.61223290279423,-91.2407789874253,31.2443528060677,-91.4730766819845,-2.33408007607978,-0.788091571398911,-1.481842159383,3.08652529987389,-5.13515453165453,-5.11660888462589,-0.0292452010788232,-0.0292452010788232,-0.05220768204,0.597971080631533
1.83,4.74206142939134,-3.71324496060541,-6.66541199947362,-90.9761120504352,32.5698124864831,-93.1368953127624,1.96815779082544,2.43206105138893,2.36658227306254,3.03546677928566,-5.38761967834724,-4.99985901057317,0.0292452010788232,0.0292452010788232,0.05220768204,0.426255947586117
1.84,4.71288233802675,-3.7675562084653,-6.71702743009897,-91.9938168961087,31.7116908400588,-92.6020981704528,-2.27870275207796,-0.760979102227423,-1.51088775818214,3.02297445287156,-5.30509805641217,-5.23167248833016,-0.0286067290787395,-0.0292452010788232,-0.05220768204,0.608857457373061
1.85,4.67972854348712,-3.81917948149907,-6.77017113710705,-91.7336397438955,33.0016175366902,-94.3117223413939,2.02254507118323,2.45851394037402,2.33829818021109,2.97295806623492,-5.55969557479315,-5.11226031306948,0.0292452010788232,0.0292452010788232,0.05220768204,0.438832838838206
1.86,4.6486008670477,-3.87505273057063,-6.82162627866167,-92.7724080582256,32.1801684441757,-93.7800278843597,-2.31842985700867,-0.7345267475191,-1.45658756860069,2.95998461135362,-5.47454238805636,-5.35272964843896,-0.0292452010788232,-0.0292452010788232,-0.0510829608130259,0.62803301036293
1.87,4.61339798523314,-3.92828873016631,-6.87449653914242,-92.4404426049683,33.4901005582845,-95.291262211107,1.98413165937626,2.1192100487074,2.39156563514556,2.88728650979719,-5.72899548008632,-5.24671108815233,0.0292452010788232,0.0258895898683697,0.05220768204,0.453346126571713
1.88,4.58013946267974,-3.98570080720569,-6.92571139094098,-93.2241299056359,32.6658266649859,-94.5154780139018,-2.11491932385314,-1.06692727884889,-1.48540727103919,2.85938866336702,-5.65115416415639,-5.49005670793483,-0.0276212238265813,-0.0292452010788232,-0.05220768204,0.633350353509614
1.89,4.54292916645862,-4.04033893974617,-6.97855489548763,-92.814681916225,33.9477346118902,-96.0712847246181,2.18022425770308,2.15645737581857,2.36237413618328,2.78847027434213,-5.91520110268652,-5.3720113454225,0.0292452010788232,0.0292452010788232,0.05220768204,0.460151569639898
1.9,4.50768282426749,-4.09936700375315,-7.0295654033387,-93.6300916955527,33.1858737754708,-95.315641983402,-2.15964983328767,-1.02742902297984,-1.38181767838688,2.75744288210776,-5.83601810869952,-5.6235478375977,-0.0292452010788232,-0.0292452010788232,-0.050390243053077,0.656303130844771
1.91,4.46848577376828,-4.15559984909887,-7.08224827614834,-93.2843883474263,34.5151931922872,-96.9214900593694,2.13746176180843,2.1940032049253,2.46395630959625,2.68057361037693,-6.10026055943917,-5.50832222516148,0.0292452010788232,0.0292452010788232,0.05220768204,0.478997798815444
1.92,4.43131664449764,-4.21630485500734,-7.1330745048872,-94.1256623700176,33.7381111719757,-96.1779893926682,-2.20358273135914,-0.98977592830312,-1.4152948980134,2.65412377766346,-6.01554111264571,-5.76787365533401,-0.0292452010788232,-0.0292452010788232,-0.05220768204,0.676414783589426
1.93,4.3902024357387,-4.27419021577169,-7.1856282324878,-93.8443761198439,35.0354831828074,-97.8322837178047,2.09453036521908,2.23189719872187,2.43121344478154,2.57946750655372,-6.27622992941703,-5.65554238157877,0.0292452010788232,0.0292452010788232,0.05220768204,0.495054636991426
1.94,4.35109815132742,-4.33661787177222,-7.23624476403419,-94.7097861865451,34.2447195051629,-97.0983639170103,-2.24578741743414,-0.953928577065871,-1.44735751584481,2.55746008598029,-6.18575133521345,-5.92281891634248,-0.0292452010788232,-0.0292452010788232,-0.05220768204,0.693529024610927
1.95,4.30805570626654,-4.3961970199996,-7.28865322252083,-94.4918025345115,35.5083964257175,-98.8016197735557,2.05330077155588,2.26800131785163,2.3998584290098,2.48557927225864,-6.44337401193128,-5.81330904359429,0.0292452010788232,0.0292452010788232,0.05220768204,0.508434411442807
1.96,4.26688011065376,-4.46036847262166,-7.33895584289472,-95.3863252968114,34.825799873889,-98.0863732840255,-2.28630075693291,-0.919763291079018,-1.2672807279617,2.45430198434751,-6.35213275043467,-6.08805367192154,-0.0292452010788232,-0.0292452010788232,-0.0493285083621986,0.708067090753348
1.97,4.22178108795276,-4.52166097016122,-7.39112446630752,-95.2405002769496,36.1718083925186,-99.8526352497456,2.01499601548742,2.29887363247941,2.57640128638516,2.37212464453661,-6.61186125681169,-5.9815457125685,0.0292452010788232,0.0292452010788232,0.05220768204,0.519773333485673
1.98,4.17841915464901,-4.58729212056131,-7.44138854569981,-95.8617645105485,35.4736712136591,-99.1407112813753,-1.81766938169475,-0.887558543716975,-1.30500053262978,2.34504816649049,-6.54442872326115,-6.23001044792975,-0.0257514693554603,-0.0292452010788232,-0.05220768204,0.720646666608786
1.99,4.1311482920829,-4.65006613077662,-7.49357014285817,-95.4949583957177,36.78539174252,-100.951520564845,2.47430244439673,2.32655144515613,2.54027452202345,2.26447080678484,-6.83107742391368,-6.0982663172611,0.0292452010788232,0.0292452010788232,0.05220768204,0.563138169123062
2,4.08582843597704,-4.71766470644522,-7.54353212613255,-96.1517270433288,36.0665915439559,-100.252589219205,-1.87675658091874,-0.852348428485261,-1.34233084331524,2.24317933267103,-6.75760572624901,-6.36391993632365,-0.0292452010788232,-0.0292452010788232,-0.05220768204,0.793727302485814
2.01,4.03658781775634,-4.78245391947447,-7.59546765712491,-95.8591812751251,37.3478198585424,-102.107445260303,2.41648885987468,2.36214512697712,2.50371417895194,2.16431611017983,-7.03963520606554,-6.24139982795396,0.0292452010788232,0.0292452010788232,0.05220768204,0.623084652981023
2.02,3.98929114621294,-4.85217984247204,-7.6450655651179,-96.5491389095111,36.6102799781252,-101.418711078489,-1.93344026942869,-0.819205129273766,-1.37807690688209,2.14852094239708,-6.95967478196958,-6.52174088963866,-0.0292452010788232,-0.0292452010788232,-0.05220768204,0.848531116065467
2.03,3.93794563125442,-4.91915269119647,-7.69655434537815,-96.2073940206012,37.8778066630851,-103.114020908124,2.36103770574299,2.10730100615921,2.46871004487568,2.05348715268519,-7.23796865586024,-6.41273645986066,0.0292452010788232,0.0265919415039398,0.05220768204,0.667299460748246
2.04,3.88837316951392,-4.99109864434764,-7.74547717679165,-96.8139514090063,37.2897350916595,-102.251278012106,-1.9831545257808,-1.07058939318021,-1.14887466209826,2.00570338769484,-7.15694272001783,-6.71016024671188,-0.0292452010788232,-0.0292452010788232,-0.0486253307520943,0.883588001996397
2.05,3.83487757404886,-5.06027359035303,-7.79652503521835,-96.5587741938031,38.6755568693825,-104.016259663819,2.31166079240304,2.14648891705844,2.69240447577855,1.89560320372826,-7.43639889559774,-6.6056806878013,0.0292452010788232,0.0292452010788232,0.05220768204,0.689976578871912
2.06,3.78330360057375,-5.13450034992142,-7.84500927363825,-97.1935187509349,38.0644878425889,-103.165907388637,-2.03529459965691,-1.02926413520389,-1.19188224989652,1.8530471793758,-7.34800921725238,-6.91195024621172,-0.0292452010788232,-0.0292452010788232,-0.05220768204,0.906195012351551
2.07,3.72781787204105,-5.20596651721815,-7.89570665525183,-97.0212314204422,39.4140620561622,-104.987228846154,2.26058439861761,2.18807741068223,2.65030549874545,1.74720490194713,-7.6226509835025,-6.81215849991321,0.0292452010788232,0.0292452010788232,0.05220768204,0.707898445490479
2.08,3.67422981460476,-5.28251735837801,-7.94371305574572,-97.6823774798861,38.782191168472,-104.146579599752,-2.08547856648017,-0.990227268944983,-1.23311248879804,1.70971204096163,-7.52663875028306,-7.12669983683171,-0.0292452010788232,-0.0292452010788232,-0.05220768204,0.923569922046327
2.09,3.61674421839024,-5.35631230344762,-7.99403223077633,-97.5921855944194,40.0935548920035,-106.025479382686,2.21144116970719,2.22741117818105,2.60995084097494,1.6088555987839,-7.79712330013344,-7.03132438179643,0.0292452010788232,0.0292452010788232,0.05220768204,0.721193355278501
2.1,3.56112682508108,-5.43521678263086,-8.04152347668779,-98.2778102171446,39.4429515665208,-105.191810754084,-2.13373229229456,-0.953302468475987,-1.27262485940842,1.57626499703329,-7.6932098538799,-7.35365269253131,-0.0292452010788232,-0.0292452010788232,-0.05220768204,0.936614886415237
2.11,3.50162907458982,-5.51136566236509,-8.09143829243494,-98.2686377107731,40.7140259907943,-107.129172986129,2.16420365362346,2.26466043419798,2.57128183112421,1.4810860149286,-7.96016406341671,-7.26246532477576,0.0292452010788232,0.0292452010788232,0.05220768204,0.730679672061067
