Time_s,Height_m,X_m,Y_m,Roll_deg,Pitch_deg,Yaw_deg,p,q,r,u,v,w,tx,ty,tz,Thrust
0.01,0.000981,0,0,0.728892128279883,0.5435,0.732093704245974,1.27215675303528,0.948586448458918,1.27774455722138,0,0,-0.0981,0.00872699532582205,0.00872699532582205,0.0174539906516441,1.33416
0.02,0.00294106300013062,-5.07004264920239e-05,6.64498365227742e-05,-1.0180447064203,-0.719470468365455,-0.75770253328646,-3.02431532678859,-2.237196983321,-2.57181619083052,-0.00312523959103914,0.00421474930264245,-0.196114251269072,-0.0292452010788232,-0.0292452010788232,-0.05220768204,1.33416
0.03,0.00588161789109145,-1.23510822598982e-05,1.40118608203929e-05,-0.304168536245722,-0.108343898525661,-0.029290727454338,1.26191265154347,1.0438626010442,1.28996844151161,0.000211239845732167,3.32241755561912e-05,-0.294127164805303,0.0292452010788232,0.0292452010788232,0.05220768204,1.33416
0.04,0.00980149689603419,-6.40047502917128e-05,7.76826725718215e-05,-2.04046537654031,-1.34442547481265,-1.48953881452791,-3.03522898347954,-2.14380908674468,-2.560026095993,-0.00590984398226983,0.00844524744509273,-0.391938115536761,-0.0292452010788232,-0.0292452010788232,-0.05220768204,1.33416
0.05,0.0146959404262344,5.58925369254003e-05,-9.88170514443679e-05,-1.33953437987207,-0.66778366615482,-0.767002102452785,1.25294309435269,1.13532569568203,1.30196647391236,0.000957465333851887,0.000111065276592841,-0.489908277893348,0.0292452010788232,0.0292452010788232,0.05220768204,1.33416
0.06,0.0205735280270758,4.45990857011724e-05,-0.000108465271163115,-3.06742556546824,-1.87853732079147,-2.19934013215723,-3.04487478154308,-2.05414966230212,-2.54844829514654,-0.00796643987235102,0.0127593051195549,-0.587568125689369,-0.0292452010788232,-0.0292452010788232,-0.05220768204,1.33416
0.07,0.0274146260238954,0.000280954321838833,-0.000481763971311107,-2.37743726662584,-1.13846984333343,-1.48481435329753,1.24513711602452,1.22311388346005,1.31374495574909,0.00261157387843833,0.000288557521759695,-0.685530066159854,0.0292452010788232,0.0292452010788232,0.05220768204,1.33416
0.08,0.0352461674395783,0.000343177846809253,-0.000636243369016169,-4.09895125924744,-2.32542839120616,-2.89070241644623,-3.05336140198211,-1.96808395743268,-2.53707745003837,-0.0089410425126481,0.0172176363579926,-0.783090912171983,-0.0292452010788232,-0.0292452010788232,-0.05220768204,1.33416
0.09,0.0440252894417996,0.000722900322634828,-0.00127986059429712,-3.41798794903869,-1.52400402652938,-2.18626110499244,1.2383917133937,1.30736151033431,1.3253086878906,0.00551434559877555,0.00061484847761999,-0.881069445711344,0.0292452010788232,0.0292452010788232,0.05220768204,1.33416
0.1,0.0538055536318078,0.000883920926019523,-0.00165134572773893,-5.13496931915913,-2.68866743024074,-3.56700739869541,-3.06078976611466,-1.88548093624658,-2.5259095825336,-0.00851005245255171,0.0218745741567779,-0.978582672372187,-0.0292452010788232,-0.0292452010788232,-0.05220768204,1.33416
0.11,0.0645128067439582,0.00142620788643772,-0.00263928013350817,-4.46121244934986,-1.82793478236477,-2.87465660708065,1.23261132864849,1.38819911687476,1.33666126053431,0.00997728357546338,0.00113382951412615,-1.07659312448811,0.0292452010788232,0.0292452010788232,0.05220768204,1.33416
0.12,0.0762352200890501,0.00170370942559546,-0.00330032439325366,-6.17534052960238,-2.97176685101245,-4.23143915343905,-3.06725353599957,-1.80621327628738,-2.51494180457494,-0.00637757626962212,0.0267787128079611,-1.17410895557819,-0.0292452010788232,-0.0292452010788232,-0.05220768204,1.33416
0.13,0.0888595493310062,0.00242033340959308,-0.00470677552757027,-5.50708309541083,-2.05375461777132,-3.55311252050211,1.22770736998145,1.46575345016678,1.34780530172388,0.0162851517827917,0.00188469894097023,-1.27215748911485,0.0292452010788232,0.0292452010788232,0.05220768204,1.33416
0.14,0.102516296058275,0.00282468230239524,-0.00573005085051527,-7.21988791961591,-3.17818082125603,-4.88699722671792,-3.07283957930108,-1.73015735412696,-2.50417208701428,-0.00227303585175075,0.0319734889166434,-1.36972469685651,-0.0292452010788232,-0.0292452010788232,-0.05220768204,1.33416
0.15,0.117045555150369,0.00372027560578692,-0.00762916328041514,-6.55554487121952,-2.20489776623191,-4.2245516519973,1.22359776544362,1.54014748619292,1.35874268954953,0.0246982445079433,0.00290246950966875,-1.46780871502581,0.0292452010788232,0.0292452010788232,0.05220768204,1.33416
0.16,0.132627648360816,0.00425479660117768,-0.00908722056157305,-8.26842088578187,-3.31130393785251,-5.53650730880626,-3.07762840260057,-1.65719322130795,-2.49359906262564,0.00405096745905146,0.0374977112081893,-1.5654744446346,-0.0292452010788232,-0.0292452010788232,-0.05220768204,1.33416
0.17,0.149048644562129,0.00532713178316603,-0.0115528479296032,-7.60653761543851,-2.2847386154544,-4.89171949761483,1.22020654637892,1.61150046129342,1.3694747324424,0.0354544191509983,0.0042184299958553,-1.66358304934001,0.0292452010788232,0.0292452010788232,0.05220768204,1.33416
0.18,0.166545971409761,0.0059883797183176,-0.0135178957940725,-9.32075554665924,-3.37447035722132,-6.18263020665045,-3.0816945564868,-1.58720457190381,-2.48322185912075,0.0128205652439331,0.0433860475506103,-1.76139273631054,-0.0292452010788232,-0.0292452010788232,-0.05220768204,1.33416
0.19,0.184844487719534,0.00722864545256201,-0.0166233826372643,-8.66001451341589,-2.29659065141877,-5.55719426550865,1.21746345742794,1.67992791151879,1.38000232149294,0.0487709219241663,0.00586056885456114,-1.85950722465535,0.0292452010788232,0.0292452010788232,0.05220768204,1.33416
0.2,0.204245831995215,0.00800667238158913,-0.0191670824774832,-10.3767316935247,-3.3709532897702,-6.82786970131593,-3.08510701519856,-1.52007870277544,-2.47303995844609,0.0242423396596888,0.0496694761406039,-1.95750458414197,-0.0292452010788232,-0.0292452010788232,-0.05220768204,1.33416
0.21,0.224406629737237,0.00939974425636548,-0.0229850618700458,-9.71595726788087,-2.24370583095261,-6.22339588916989,1.21530359059147,1.74554171885622,1.39032605829323,0.0648460333475643,0.00785396645604184,-2.05559896916219,0.0292452010788232,0.0292452010788232,0.05220768204,1.33416
0.22,0.24569967483118,0.0102783616262146,-0.0261783372822614,-11.4362266593585,-3.30396479734365,-7.47457973313379,-3.08792953313851,-1.45570646745276,-2.46305307904919,0.0385048723489748,0.0563757065197163,-2.15382604024915,-0.0292452010788232,-0.0292452010788232,-0.05220768204,1.33416
0.23,0.26770647937029,0.0118030677380567,-0.0307805425778891,-10.7743882920084,-2.12927432239193,-6.89259441015562,1.21366704125365,1.808450163445,1.40044636141738,0.0838605577264318,0.0102211611421741,-2.25186758448502,0.0292452010788232,0.0292452010788232,0.05220768204,1.33416
0.24,0.2908777943259,0.0127601035161529,-0.0346934015451363,-12.4991664002346,-3.17665585499002,-8.12497123787741,-3.09022098020506,-1.39398222445154,-2.45326107816847,0.0557801478027728,0.0635295749866869,-2.35036481502665,-0.0292452010788232,-0.0292452010788232,-0.05220768204,1.33416
0.25,0.314713266415139,0.0143894848872736,-0.0401504906940949,-11.8353802393971,-1.9564245735237,-7.56691800027965,1.21249858439705,1.86875798100197,1.41036355430887,0.105979178099942,0.0129824932716439,-2.44831456765036,0.0292452010788232,0.0292452010788232,0.05220768204,1.33416
0.26,0.33974827754474,0.0153970357225452,-0.044851859060547,-13.5655340648721,-2.99211665405723,-8.7811188581425,-3.09203565758742,-1.33480378074126,-2.44366387152937,0.076224831653086,0.0711534180365876,-2.54712092778505,-0.0292452010788232,-0.0292452010788232,-0.05220768204,1.33416
0.27,0.365393972571278,0.0170986017131396,-0.0512332501604645,-12.8990631638203,-1.72822367954314,-8.24836080403779,1.21174736951141,1.92656642476337,1.42007793703366,0.131351695549504,0.0161564305232121,-2.6449342577228,0.0292452010788232,0.0292452010788232,0.05220768204,1.33416
0.28,0.39227692288123,0.018123280345575,-0.0567908151239418,-14.6353763148687,-2.75337713401743,-9.44496767276653,-3.09342359542476,-1.27807233100402,-2.43426136812422,0.099981441787436,0.0792674266689165,-2.7440873722007,-0.0292452010788232,-0.0292452010788232,-0.05220768204,1.33416
0.29,0.419713240068432,0.0198592593353616,-0.0641645320317562,-13.9656295838789,-1.44767803255695,-8.9387907102172,1.21136663291481,1.981973331319,1.42958984407969,0.160114169293746,0.0197598769779656,-2.841714491098,0.0292452010788232,0.0292452010788232,0.05220768204,1.33416
0.3,0.448427138536836,0.0208624375665251,-0.070644594547956,-15.7088076470531,-2.46340773668091,-10.1183400215851,-3.09443083353372,-1.22369239326214,-2.42505341801747,0.127179427757368,0.087889983747438,-2.94125078227338,-0.0292452010788232,-0.0292452010788232,-0.05220768204,1.33416
0.31,0.477633261967932,0.0225900232520567,-0.0790771215343666,-15.0353377114953,-1.1177342393498,-9.63995710497617,1.21131342638066,2.03507318977281,1.43889969013381,0.192389971708316,0.0238084678827639,-3.03863725231249,0.0292452010788232,0.0292452010788232,0.05220768204,1.33416
0.32,0.508159824531668,0.0235280708562088,-0.086544456678733,-16.7860129584227,-2.12512037957094,-10.8029424512559,-3.09509968625011,-1.17157174140087,-2.41603977135521,0.157936171721885,0.0970379860472399,-3.13859208709289,-0.0292452010788232,-0.0292452010788232,-0.05220768204,1.33416
0.33,0.539113657686286,0.0251996645570806,-0.0961006012465472,-16.1085130869893,-0.741280296634104,-10.3534986151633,1.21154836110348,2.08595721371267,1.44800800554305,0.228290770307475,0.0283168514890865,-3.23567930963049,0.0292452010788232,0.0292452010788232,0.05220768204,1.33416
0.34,0.571433241624589,0.0260241845549828,-0.104618325718463,-17.8672485820453,-1.74136964601789,-11.5003727685573,-3.09546899230455,-1.12162133506773,-2.40722004697047,0.192357922133015,0.106727152173545,-3.33608714488937,-0.0292452010788232,-0.0292452010788232,-0.05220768204,1.33416
0.35,0.604111336961591,0.0275876339477571,-0.115361088833305,-17.1855488463952,-0.321147013578561,-11.0809508183898,1.21203536614774,2.13471341551522,1.45691546296651,0.267917446817332,0.0332989589472997,-3.43281282668011,0.0292452010788232,0.0292452010788232,0.05220768204,1.33416
0.36,0.638202870209394,0.0282456946873953,-0.124990534913357,-18.9528420084452,-1.31495418867413,-12.2121271588095,-3.09557435055022,-1.07375524739228,-2.39859370916653,0.230540669535954,0.116972317168198,-3.53370734866705,-0.0292452010788232,-0.0292452010788232,-0.05220768204,1.33416
0.37,0.672580355186684,0.0296445293947895,-0.136980988010237,-18.2669048283503,0.139890329331439,-11.8237538736001,1.21274146061307,2.18142668254908,1.46562289654383,0.311360961756871,0.0387682629011888,-3.63000594310734,0.0292452010788232,0.0292452010788232,0.05220768204,1.33416
0.38,0.708421261971296,0.0300788938889005,-0.14778158339559,-20.0431904912011,-0.848618341202075,-12.9396073072596,-3.09544834228058,-1.02789059093552,-2.390160051431,0.272570972216121,0.127787714320994,-3.73142019726063,-0.0292452010788232,-0.0292452010788232,-0.05220768204,1.33416
0.39,0.744471762764091,0.0312525583468775,-0.161078751628724,-19.3531057082862,0.639110097633303,-12.5832600109343,1.21363653881983,2.22617885487387,1.4741313147453,0.358703171416848,0.0447380251586749,-3.82722331865218,0.0292452010788232,0.0292452010788232,0.05220768204,1.33416
0.4,0.782037886832095,0.0314019113095153,-0.173107904674967,-21.1387587178935,-0.345053930281936,-13.6841274488579,-3.09512074081035,-0.983947442246955,-2.3819181859863,0.318526737972022,0.139187244463295,-3.9291898269588,-0.0292452010788232,-0.0292452010788232,-0.05220768204,1.33416
0.41,0.819733450894184,0.0322859953191437,-0.187768655971871,-20.4447383270339,1.17384221102334,-13.3607408110049,1.21469316787501,2.26904880406403,1.48244190792442,0.410017602779702,0.0512215336009816,-4.02442663627436,0.0292452010788232,0.0292452010788232,0.05220768204,1.33416
0.42,0.858998977480362,0.032085168325253,-0.201081645962972,-22.2400757084987,0.193097722845174,-14.4469212653828,-3.09461870894167,-0.941848765378654,-2.37386703821862,0.36847796701568,0.151184732831298,-4.12697749995407,-0.0292452010788232,-0.0292452010788232,-0.05220768204,1.33416
0.43,0.89830999598682,0.0326116356719054,-0.217160585528032,-21.542448359655,1.74146585916913,-14.1573941999128,1.21588639702411,2.31011251281544,1.49055605146509,0.465370190744959,0.0582323283248395,-4.22157506100441,0.0292452010788232,0.0292452010788232,0.05220768204,1.33416
0.44,0.939247373572205,0.0319918308372178,-0.231810457679918,-23.3477310833242,0.763243625100099,-15.2291485470124,-3.09396698489573,-0.90152033467877,-2.36600534514915,0.422487459889746,0.163794173437837,-4.32474204683522,-0.0292452010788232,-0.0292452010788232,-0.05220768204,1.33416
0.45,0.980142504685503,0.0320892463287581,-0.249359827668141,-22.6469364487901,2.33940704439929,-14.974351086175,1.21719357823046,2.34944315502064,1.49847530530068,0.524819981002568,0.0657844168827275,-4.41862565209929,0.0292452010788232,0.0292452010788232,0.05220768204,1.33416
0.46,1.02272236749612,0.0309782588741568,-0.265397292646735,-24.4623708220981,1.36283677529602,-16.0319015370052,-3.09318805725673,-0.862890657161102,-2.35833165722001,0.480611493329966,0.177029960777884,-4.52244026116599,-0.0292452010788232,-0.0292452010788232,-0.05220768204,1.33416
0.47,1.06516846130953,0.0305720141138407,-0.284466876795878,-23.7589539054983,2.96513597272187,-15.8126815681524,1.21859419745357,2.38711117602454,1.50620141048035,0.588419801018976,0.0738924783880431,-4.61553372686601,0.0292452010788232,0.0292452010788232,0.05220768204,1.33416
0.48,1.10935955341984,0.0288944541401812,-0.301940214597659,-25.5846926154067,1.98937368838433,-16.8562108821131,-3.0923023294472,-0.825890894723193,-2.35084434276366,0.542900466180806,0.190907108608118,-4.72002724491351,-0.0292452010788232,-0.0292452010788232,-0.05220768204,1.33416
0.49,1.15332157935124,0.027906992310346,-0.322577247667057,-24.8792980598691,3.61616431674472,-16.6734006446739,1.22006971612224,2.42318437279728,1.51373628336684,0.656216900855287,0.0825720561799093,-4.81225317520076,0.0292452010788232,0.0292452010788232,0.05220768204,1.33416
0.5,1.19909068117574,0.0255845060678457,-0.341532215770129,-26.7154408897524,2.6403918022703,-17.7030511168602,-3.09132827423055,-0.790454786462039,-2.34354159461046,0.609399516778462,0.205441455480139,-4.91745670411957,-0.0292452010788232,-0.0292452010788232,-0.05220768204,1.33416
0.51,1.24453165851056,0.0239355459581659,-0.363781297687824,-26.00880732398,4.29004237605172,-17.5574733666246,1.22160342231944,2.45772797378508,1.52108200796969,0.728253564911592,0.0918397386914503,-5.0087367244907,0.0292452010788232,0.0292452010788232,0.05220768204,1.33416
0.52,1.29184351639253,0.0208870368499077,-0.384261043434403,-27.8554015685086,3.31346679157162,-18.5733456161822,-3.09028257871675,-0.756518571314186,-2.33642143836477,0.680149112637315,0.220649856666005,-5.11468119476155,-0.0292452010788232,-0.0292452010788232,-0.05220768204,1.33416
0.53,1.33872444860542,0.0184937963198874,-0.408164058101165,-27.1483560113588,4.98435616244204,-18.4658193727713,1.22318029121361,2.49080471822237,1.52824082684638,0.804567695175111,0.101713328131954,-5.20493615505432,0.0292452010788232,0.0292452010788232,0.05220768204,1.33416
0.54,1.38754170814229,0.0146356458325573,-0.430209035318955,-29.0053966132967,4.00620981480507,-19.4679709576221,-3.08918028032966,-0.724020911225622,-2.3294817419475,0.755185612801715,0.236550362090304,-5.31165231923856,-0.0292452010788232,-0.0292452010788232,-0.05220768204,1.33416
0.55,1.43582152156276,0.0114130648527091,-0.45580507405884,-28.2988489402239,5.69672443920022,-19.399316758637,1.22478685428766,2.52247493471028,1.535215130941,0.885193366131129,0.112211996574232,-5.40080246676305,0.0292452010788232,0.0292452010788232,0.05220768204,1.33416
0.56,1.48610466524275,0.00665935356006896,-0.47945296396921,-30.1662783740837,4.71626472342984,-20.3877606409483,-3.08803489417881,-0.69290281503646,-2.32272022606165,0.834541802844281,0.253162379871983,-5.50832087435144,-0.0292452010788232,-0.0292452010788232,-0.05220768204,1.33416
0.57,1.5357401525694,0.00252031693041803,-0.506778253651877,-29.4612158326196,6.42479574527757,-20.3588052325749,1.2264110769312,2.55279661888739,1.54200744867452,0.970161351164778,0.123356429031089,-5.59628599790032,0.0292452010788232,0.0292452010788232,0.05220768204,1.33416
0.58,1.58744744223253,-0.00321695433325267,-0.532063890147549,-31.3389237617945,5.44130526299709,-21.333508119465,-3.08685853226341,-0.663107563245919,-2.3161344752904,0.918247402194523,0.270506825079445,-5.70463695202904,-0.0292452010788232,-0.0292452010788232,-0.05220768204,1.33416
0.59,1.63839321134283,-0.008361394534672,-0.561151726037899,-30.6364055082746,7.16624543697628,-21.3450885182014,1.22804224397599,2.58182551003788,1.54862043455199,1.05949962002883,0.135168953107054,-5.79133649768124,0.0292452010788232,0.0292452010788232,0.05220768204,1.33416
0.6,1.69147642173177,-0.0151706741602941,-0.588104875322711,-32.5242282446156,6.17903229840288,-22.3059691033254,-3.08566201492307,-0.634580633804638,-2.30972194958224,1.00632954325847,0.288606253311881,-5.9000563545419,-0.0292452010788232,-0.0292452010788232,-0.05220768204,1.33080324900282
0.61,1.74341781500231,-0.0213194177720663,-0.618837966619646,-31.8253798607128,7.91877278148028,-22.3589359670378,1.22967085276754,2.6096151665012,1.55505685750919,1.15322092466856,0.147679724967073,-5.95404526631089,0.0292452010788232,0.0292452010788232,0.05220768204,1.12087975673168
0.62,1.79711306754178,-0.0290312091468951,-0.647120750365838,-33.7230996585529,6.92717109695813,-23.305863100833,-3.08445497493575,-0.60726962906383,-2.30347999591831,1.09899367586695,0.306508103868339,-6.01031970546285,-0.0292452010788232,-0.0292452010788232,-0.05220768204,0.967892931699106
0.63,1.8491876154008,-0.0359706903325455,-0.679047019281502,-33.0291075939402,8.68009813840403,-23.4010833496578,1.23128851337926,2.63621703976443,1.56131958918404,1.24929371837277,0.160972844797212,-6.01708972475008,0.0292452010788232,0.0292452010788232,0.05220768204,0.809032317866887
0.64,1.90274745022633,-0.0443774523457789,-0.708311075379646,-34.9364518142962,7.68346870470801,-24.3338741691154,-3.08324595465066,-0.581124203994288,-2.29740585999204,1.19457445800258,0.322176451003759,-6.03542372437202,-0.0292452010788232,-0.0292452010788232,-0.05220768204,0.702839421438521
0.65,1.95433532428854,-0.0519352368935951,-0.741093408699955,-34.2485576910048,9.44796026745042,-24.4722327980263,1.23288785558813,2.66168054713516,1.56741159226519,1.34595741869114,0.173046066578519,-6.00745836776663,0.0292452010788232,0.0292452010788232,0.05220768204,0.582031630990183
0.66,2.00722503060853,-0.0608730719429326,-0.771081080015409,-36.1651978761249,8.44569145317176,-25.3906508508577,-3.08204249653052,-0.556095995772761,-2.29149669776132,1.29113559627294,0.334407794156098,-5.99881687571129,-0.0292452010788232,-0.0292452010788232,-0.05220768204,0.511389736484713
0.67,2.05788629387819,-0.0689129884163037,-0.804471438564449,-35.4846925810025,10.2201138022831,-25.5730518762848,1.23446244224419,2.6860531429077,1.57333590904221,1.44182909507221,0.182443814488769,-5.94550604114243,0.0292452010788232,0.0292452010788232,0.05220768204,0.418740978354172
0.68,2.10972859815947,-0.0782555357136865,-0.834995335492501,-37.4102434845531,9.21162263543238,-26.4768052792078,-3.0808512274648,-0.53213855481876,-2.2857495867604,1.38717282142958,0.342348082681537,-5.9181677251052,-0.0292452010788232,-0.0292452010788232,-0.05220768204,0.375142456942884
0.69,2.15915600012424,-0.0866728835499963,-0.868814304566581,-36.7384609687782,10.9943269328036,-26.7041717622857,1.23600668867866,2.70938038795005,1.57909565025715,1.53583333985345,0.188123078733758,-5.84655885522619,0.0292452010788232,0.0292452010788232,0.05220768204,0.303131571520329
0.7,2.20968946972173,-0.0963257131506495,-0.89974110424088,-38.6724795927417,9.97906039226133,-27.5929114387987,-3.0796779372023,-0.509207277351344,-2.28016153708118,1.48152806569423,0.345406813029683,-5.80676543297644,-0.0292452010788232,-0.0292452010788232,-0.05220768204,0.280146903469603
0.71,2.25767299814898,-0.105042735965534,-0.933861794467948,-38.0107902918054,11.7683793401333,-27.8661845280451,1.23751578780889,2.73170601765173,1.58469398433613,1.62714436173923,0.189351948442864,-5.72213395091692,0.0292452010788232,0.0292452010788232,0.05220768204,0.2230588523198
0.72,2.30672081956326,-0.114938305690039,-0.965099446200112,-39.9527749875241,10.7458158506702,-28.7395025773879,-3.07852765123847,-0.487259339523023,-2.27472950195331,1.57332027677934,0.343192089468623,-5.6745838799333,-0.0292452010788232,-0.0292452010788232,-0.05220768204,0.215836768027589
0.73,2.35312113725296,-0.12390003503414,-0.999434860539186,-39.3025787716659,12.5400604306586,-29.0596395143406,1.2389856406112,2.75307200818494,1.59013412706152,1.71513858177613,0.185632900473816,-5.58086620475213,0.0292452010788232,0.0292452010788232,0.05220768204,0.169331114953303
0.74,2.40056773564691,-0.133993224047324,-1.03092251841411,-41.2519684692959,11.5097115588672,-29.9170677702137,-3.07740469847983,-0.466253633176372,-2.26945038786958,1.66188991991426,0.335461584197308,-5.52908989257925,-0.0292452010788232,-0.0292452010788232,-0.05220768204,0.174218473049192
0.75,2.44529632623882,-0.143163742044687,-1.06541567189148,-40.6146870333777,13.3071679173996,-30.2850388033108,1.2404127916456,2.77351864104278,1.59541933172959,1.79935609971267,0.176644857247334,-5.42921198294525,0.0292452010788232,0.0292452010788232,0.05220768204,0.135000736830697
0.76,2.49106990619208,-0.153427943690465,-1.09711580269546,-42.5708606711402,12.2685802629576,-31.126047648155,-3.07631277399458,-0.446150703258432,-2.26432106421723,1.74675464690494,0.32208554826314,-5.37585682516177,-0.0292452010788232,-0.0292452010788232,-0.05220768204,0.149253520791522
0.77,2.53407428126731,-0.162787075343507,-1.13173202193423,-41.9479292747004,14.0675067985667,-31.5428318035003,1.24179436932979,2.79308456582782,1.60055287982576,1.87946955230185,0.162199467224891,-5.27198331634003,0.0292452010788232,0.0292452010788232,0.05220768204,0.114824913809193
0.78,2.57813383445225,-0.173210813091793,-1.16362424246477,-43.91020550651,13.0202640717422,-32.3668293114715,-3.07525499714565,-0.426912686918343,-2.25933837238815,1.82757401118579,0.303018949846263,-5.21903012142856,-0.0292452010788232,-0.0292452010788232,-0.05220768204,0.13638856105858
0.79,2.61938717981906,-0.182781758607848,-1.19833460885813,-43.2976950506612,14.7947703960906,-32.8095783814309,1.24312803067257,2.75337693861224,1.60553807223775,1.95220959026105,0.142208156685451,-5.11382097141836,0.0292452010788232,0.0287076457903332,0.05220768204,0.104855448848489
0.8,2.66171069535378,-0.193395153965475,-1.23040037877785,-45.2587017900415,13.7147397003474,-33.5925977542265,-3.07362405411284,-0.465764578513621,-2.2543747068646,1.89818253741116,0.278210209340127,-5.06368239741385,-0.0292452010788232,-0.0292452010788232,-0.05220768204,0.131128827355342
0.81,2.70119841846644,-0.203146408122513,-1.26520646640267,-44.6628290954295,15.4886528055487,-34.0860202966703,1.24417069040167,2.77359200664267,1.6101990937176,2.01795164316685,0.116673650986984,-4.95707253578633,0.0292452010788232,0.0292452010788232,0.05220768204,0.100127804247384
0.82,2.74177626392403,-0.213925114549146,-1.29745436044308,-46.6277763655541,14.4008087285445,-34.8510781318757,-3.0728973086518,-0.445898575619682,-2.24985490807139,1.96500782535635,0.247830255897479,-4.90958365374137,-0.0292452010788232,-0.0292452010788232,-0.05220768204,0.131210422021879
0.83,2.77949673690926,-0.223921995796444,-1.33233563883658,-46.037661685629,16.1273099939646,-35.3469496772613,1.24518717428712,2.67869025497698,1.61473365037766,2.07415933585617,0.0856502077598883,-4.80471436029806,0.0292452010788232,0.0281940489333281,0.05220768204,0.100930948755777
0.84,2.81832522309531,-0.234935683463579,-1.36475016255054,-47.9911647397104,14.9870340503515,-36.0452091178805,-3.07098663312281,-0.538848460545611,-2.24521344250805,2.01702252742274,0.211852788836514,-4.76269656298357,-0.0292452010788232,-0.0292452010788232,-0.05220768204,0.133690051123263
0.85,2.8542757413323,-0.245127846081003,-1.39972711268335,-47.4191674104472,16.7121776760744,-36.5933347212569,1.24571628750275,2.7017179076668,1.61879476512549,2.12174088844744,0.0492468901133321,-4.65755946342306,0.0292452010788232,0.0292452010788232,0.05220768204,0.101323388231004
0.86,2.89135424540066,-0.256331681590306,-1.43233166436679,-49.3740887785509,15.566484057468,-37.2731600513574,-3.07078118319787,-0.516237653364841,-2.24128511785217,2.06626127148477,0.17059306686812,-4.61903065685275,-0.0292452010788232,-0.0292452010788232,-0.05220768204,0.137778037705534
0.87,2.92553832615388,-0.266732939010635,-1.46740915561985,-48.8213499027588,17.2883045127449,-37.8742861164324,1.24626086663108,2.72378392775862,1.62276365352354,2.16644998826636,0.00760218327250484,-4.51421265669873,0.0292452010788232,0.0292452010788232,0.05220768204,0.105312804771035
0.88,2.96087199992227,-0.278146859182556,-1.50021145063919,-50.7769689441315,16.1368510061997,-38.5349075939685,-3.07055001337075,-0.494569878393842,-2.23744523597803,2.11263415174488,0.124178694906522,-4.47981282361159,-0.0292452010788232,-0.0292452010788232,-0.05220768204,0.14487433592938
0.89,2.9932972738684,-0.288776128252125,-1.53539814811828,-50.2445969835095,17.8533595060053,-39.189745257166,1.2468154945072,2.74492737012752,1.62664091352973,2.20824388504851,-0.0391683394778198,-4.37572383663885,0.0292452010788232,0.0292452010788232,0.05220768204,0.111665513479858
0.9,3.02683953858972,-0.300440734271717,-1.56845587936537,-52.1029306375738,16.695854640015,-39.83034615045,-2.90062729911471,-0.473806921227635,-2.23369326789219,2.15610237597548,0.0653339779880751,-4.34586648781907,-0.0280812549804447,-0.0292452010788232,-0.05220768204,0.153914006649527
0.91,3.05746020899115,-0.311452138420709,-1.60376727749123,-51.4619595882535,18.3183406297227,-40.4185738495975,1.4136533437619,2.51539461694147,1.63056497136089,2.23614400952519,-0.105472278428288,-4.24808765385549,0.0292452010788232,0.0269728940840425,0.05220768204,0.119646566718785
0.92,3.08926808436977,-0.323481597322562,-1.63700061602006,-53.2862639240169,17.070196175085,-40.9282393567402,-2.9044343905917,-0.69670212674433,-2.23007634319519,2.17583098837739,-0.00496100062817965,-4.22785654580914,-0.0292452010788232,-0.0292452010788232,-0.05220768204,0.159097869566017
0.93,3.11813733095956,-0.334750848386047,-1.67243059151083,-52.6673172281647,18.6915925533978,-41.5653999028868,1.40670183461019,2.5439324144548,1.63299747799991,2.25233137878446,-0.175136348420721,-4.12958308238308,0.0292452010788232,0.0292452010788232,0.05220768204,0.118579324728565
0.94,3.14820855339818,-0.34703996878749,-1.70587940311118,-54.4943330660856,17.4443119189369,-42.060909255063,-2.91158963203852,-0.668793573132611,-2.22773130119641,2.19492372942418,-0.0784367973247386,-4.11307627664895,-0.0292452010788232,-0.0292452010788232,-0.05220768204,0.161937088978612
0.95,3.17532602933098,-0.358578089978425,-1.7414305104738,-53.8979909439605,19.0627628301468,-42.7476114233497,1.40010453360708,2.57135027172909,1.63542627746705,2.26779933708802,-0.248028366681583,-4.01487706647952,0.0292452010788232,0.0292452010788232,0.05220768204,0.121079137005419
0.96,3.20366195270137,-0.3711445937161,-1.77509896799048,-55.7270192591178,17.8158263543538,-43.2280588825081,-2.91838668220137,-0.641978567632854,-2.2253880873683,2.21323665851529,-0.155058538164124,-4.00269988296389,-0.0292452010788232,-0.0292452010788232,-0.05220768204,0.167780406265236
0.97,3.22903108511785,-0.382968179293557,-1.81077746117135,-55.1538396833982,19.42945502513,-43.9648678795693,1.39384157970094,2.59769035153423,1.63784889576796,2.28244703748027,-0.324123008993388,-3.90497491764555,0.0292452010788232,0.0292452010788232,0.05220768204,0.125980250111045
0.98,3.25563591274879,-0.39583475611527,-1.84467217090981,-56.9841536768255,18.1823993341303,-44.4293287561625,-2.92484535705853,-0.61621603703497,-2.2230492263979,2.23067435151305,-0.234769213340508,-3.8975819889161,-0.0292452010788232,-0.0292452010788232,-0.05220768204,0.175623403968735
0.99,3.27926203788899,-0.407964433877345,-1.88048654183038,-56.434660715998,19.7893087636919,-45.2167579503406,1.38789418768583,2.62299330468295,1.6402629560226,2.29621473296568,-0.403369135304639,-3.80060674138709,0.0292452010788232,0.0292452010788232,0.05220768204,0.132423223567178
1,3.30414120547106,-0.421157337945198,-1.91461537588099,-58.2655088782845,18.5417275536015,-45.6642908809499,-2.93098440498087,-0.591466376852363,-2.22071713981737,2.24718392837155,-0.317493158489143,-3.79834076882573,-0.0292452010788232,-0.0292452010788232,-0.05220768204,0.184727327758967
1.01,3.32603025140159,-0.433616568899568,-1.95057526968591,-57.7401807240578,20.1400016972777,-46.5027929879844,1.38224459685051,2.64729832193917,1.64266618524815,2.3090794720035,-0.485694438136982,-3.70229931347778,0.0292452010788232,0.0292452010788232,0.05220768204,0.139778753347982
1.02,3.3491543363657,-0.447168170705134,-1.98496763317015,-59.5078621896293,18.8915464903342,-46.9324428444522,-2.82699089106913,-0.56769140097917,-2.2183941401377,2.26275004861372,-0.407205045973735,-3.70488665111319,-0.028491762704808,-0.0292452010788232,-0.05220768204,0.194553071457771
1.03,3.36927687766956,-0.459987886110582,-2.0211025257769,-58.9445373645831,20.4797049811971,-47.8195844882971,1.48451007495252,2.66884230972054,1.64516322677805,2.32090308846126,-0.579002331710847,-3.60944421024684,0.0292452010788232,0.0292452010788232,0.05220768204,0.14819383238959
1.04,3.39068914702613,-0.473924314047641,-2.05574520176602,-60.7146576195637,19.2306092866424,-48.2331907365786,-2.83687480023512,-0.545309243499613,-2.21646559011149,2.27741014589309,-0.503313465642213,-3.61777854573608,-0.0292452010788232,-0.0292452010788232,-0.05220768204,0.205837275331705
1.05,3.40908780910561,-0.48712962362841,-2.09204526821898,-60.1775072672666,20.807913533808,-49.1684589670044,1.47515349455303,2.69089845055941,1.64715236350636,2.33188183639066,-0.674478300020388,-3.52324623652574,0.0292452010788232,0.0292452010788232,0.05220768204,0.157092367408783
1.06,3.42879428465523,-0.501484589450193,-2.12694636679325,-61.9491787297561,19.5578649819141,-49.5649646397261,-2.84631496008319,-0.523786312407993,-2.21452919511927,2.29118353297079,-0.601438504811934,-3.5374735028554,-0.0292452010788232,-0.0292452010788232,-0.05220768204,0.21721372074651
1.07,3.44547049844561,-0.515202570331183,-2.16338436171643,-61.3938164273687,21.0555760839854,-50.4154854485962,1.46621888302782,2.46372242107847,1.64914615429444,2.33328744931951,-0.772070295391044,-3.44960040242024,0.0292452010788232,0.026960082831315,0.05220768204,0.165930311890643
1.08,3.46346327916766,-0.5300984474702,-2.1985111167864,-63.1173174340093,19.7381346438564,-50.6633231706831,-2.85267001205249,-0.74650598941123,-2.21196350219335,2.28703588670433,-0.701655737679627,-3.47452276358703,-0.0292452010788232,-0.0292452010788232,-0.05220768204,0.222782778997356
1.09,3.47841456884628,-0.54423809990148,-2.23512371947413,-62.5864917160221,21.2277370416796,-51.5630498913305,1.45679674041898,2.49388947944814,1.65056646442112,2.32668780529788,-0.871677708453561,-3.38618323843745,0.0292452010788232,0.0292452010788232,0.05220768204,0.164179661467734
1.1,3.4946087953056,-0.559580271302365,-2.27054837200756,-64.1614940302036,19.9142291882989,-51.7973969214038,-2.60080397278897,-0.717041828548283,-2.21060711578328,2.28383049406483,-0.812479387761013,-3.41312284119425,-0.0274516800466236,-0.0292452010788232,-0.05220768204,0.224898985406786
1.11,3.5077470500642,-0.574152910715969,-2.30736979666909,-63.5061827016602,21.3952465196994,-52.7399343566698,1.70405550584289,2.51862045053524,1.65234907671317,2.32067113692813,-0.990578245395854,-3.32282544393122,0.0292452010788232,0.0292452010788232,0.05220768204,0.167829016538388
1.12,3.52223136113029,-0.589964821540492,-2.34305555025294,-65.0901984174014,20.0856902385524,-52.9667269614396,-2.62023117725855,-0.68976650738681,-2.20998866438721,2.28153556093172,-0.932982684501363,-3.35514333418315,-0.0292452010788232,-0.0292452010788232,-0.05220768204,0.234088283709134
1.13,3.53364468276449,-0.604999680321913,-2.38005577812159,-64.4623826664195,21.5590400998138,-53.9505046036355,1.68541162441785,2.54565571410991,1.653053722637,2.31555171186983,-1.10987524580962,-3.26491573011396,0.0292452010788232,0.0292452010788232,0.05220768204,0.175018424283312
1.14,3.5464228157566,-0.621312266520772,-2.41600668121046,-66.0543903832565,20.2529906998855,-54.1684447521298,-2.63880427440076,-0.663490869036274,-2.20929572801899,2.280046364842,-1.05377649697862,-3.30294255327469,-0.0292452010788232,-0.0292452010788232,-0.05220768204,0.244618918059975
1.15,3.5561151140314,-0.636836963778187,-2.4531928529146,-65.4539117189359,21.7170460386116,-55.1939073601836,1.66759051056624,2.57169571046815,1.65382962962595,2.31132139516446,-1.22962382852949,-3.21302054405034,0.0292452010788232,0.0292452010788232,0.05220768204,0.183216194691386
1.16,3.56717517769424,-0.653690338851226,-2.48941464474552,-67.0467912036514,20.4477379788926,-55.3851972602243,-2.656561797545,-0.638179851378616,-2.14400376819779,2.27856913260438,-1.17638432295984,-3.25699819816479,-0.0292452010788232,-0.0292452010788232,-0.0513262262319679,0.255919434695076
1.17,3.57513530816482,-0.669740293491475,-2.52679513681449,-66.468385912455,21.934040513748,-56.4369888217266,1.65082259912736,2.59550844316216,1.71791075207192,2.30634547880906,-1.35276002653115,-3.16756529953251,0.0292452010788232,0.0292452010788232,0.05220768204,0.191970890488412
1.18,3.58449620417291,-0.687163977411556,-2.56328916156056,-68.0683841611722,20.6663506569015,-56.6182792392241,-2.67433173504916,-0.614266442887223,-2.14572598284245,2.27696419385075,-1.30063970699135,-3.21776633527031,-0.0292452010788232,-0.0292452010788232,-0.05220768204,0.267620825217278
1.19,3.59074316074075,-0.703763403731947,-2.60086935170624,-67.5188856972575,22.1390794201459,-57.7135884945303,1.63373451507454,2.61925922607773,1.71631310764438,2.30202383933908,-1.47613344247871,-3.12890994153425,0.0292452010788232,0.0292452010788232,0.05220768204,0.20082125315704
1.2,3.59840652832442,-0.721793409564509,-2.63763822217713,-69.124949659505,20.8727432883554,-57.8835563054381,-2.69131612182141,-0.591226945548613,-2.14728216741603,2.27595002085276,-1.42497936686697,-3.18544609028058,-0.0292452010788232,-0.0292452010788232,-0.05220768204,0.279297619016305
1.21,3.60294138935108,-0.738973745514249,-2.67542396602723,-68.604100946267,22.330226245457,-59.0226626417625,1.61740524329516,2.64213825712989,1.71487639397922,2.29844892960624,-1.59975106115618,-3.0972314285732,0.0292452010788232,0.0292452010788232,0.05220768204,0.209537125310157
1.22,3.6088791456706,-0.757657760383935,-2.71246747379244,-70.2058517922288,21.1231157840893,-59.1554171285219,-2.7075494251739,-0.569029820401824,-2.0397961641921,2.27388544512285,-1.55189812660776,-3.16018440604488,-0.0292452010788232,-0.0292452010788232,-0.0507203251602532,0.29077765288018
1.23,3.61167265914021,-0.775480154617439,-2.75045208984263,-69.694273476327,22.6101810843507,-60.28318428808,1.60220413515723,2.60650350770395,1.82029918904069,2.29038007952276,-1.7284720924205,-3.07396623583394,0.0292452010788232,0.0287346514042547,0.05220768204,0.21803584405096
1.24,3.61590846210759,-0.794859869023597,-2.78776095392809,-71.2893527938212,21.3913156181143,-60.3727552941956,-2.72383571464408,-0.602896094889879,-2.04519932521898,2.267192112914,-1.68110328167422,-3.14458242782452,-0.0292452010788232,-0.0292452010788232,-0.05220768204,0.300749478333981
1.25,3.61698899624033,-0.813318508011886,-2.82595760042562,-70.8090104171737,22.8594193398028,-61.5468625390933,1.58577327005809,2.62916341314746,1.81483019539797,2.28131139336699,-1.85694845055006,-3.05877228446132,0.0292452010788232,0.0292452010788232,0.05220768204,0.223737817715477
1.26,3.61936424670124,-0.83333952594342,-2.86357905262502,-72.1313274286893,21.6404108641649,-61.6248125726356,-2.25502761843672,-0.580974556452589,-2.05054712997987,2.26122795127762,-1.82470783848509,-3.12663650751371,-0.025917517764696,-0.0292452010788232,-0.05220768204,0.309461409318842
1.27,3.61857288480331,-0.852422548724446,-2.90201968255637,-71.3997972532325,23.0880154525182,-62.819132340602,2.04547649051908,2.61933267677705,1.81015820355036,2.27165629538157,-2.0145565472139,-3.03411272204308,0.0292452010788232,0.0290214924793767,0.05220768204,0.238917638974564
1.28,3.6192632528848,-0.873213203307173,-2.93991695434148,-72.7364873130331,21.8640926326718,-62.8827719473262,-2.28940793873465,-0.584512871047445,-2.05716166416794,2.25462314873021,-1.98187605511277,-3.11097301621017,-0.0292452010788232,-0.0292452010788232,-0.05220768204,0.335096288913855
1.29,3.61677020214654,-0.89305359514314,-2.97857671535743,-72.0343296969789,23.295115411471,-64.0923869109151,2.01171146896678,2.61225824293404,1.80362786715861,2.26135645437948,-2.17008512302002,-3.02015451013242,0.0292452010788232,0.0289824854876828,0.05220768204,0.258926363704451
1.3,3.61575485612373,-0.914692248493497,-3.01674470122807,-73.3746395340038,22.1257749016693,-64.1169855291643,-2.32230349531934,-0.591994673655908,-1.95353668007603,2.24481402047956,-2.13931107175544,-3.10559689424855,-0.0292452010788232,-0.0292452010788232,-0.0507071470110246,0.356805815955503
1.31,3.61154049800334,-0.935347653923418,-3.05562746756554,-72.7008848573867,23.6031938777675,-65.3398248529599,1.97977259254974,2.63220359187468,1.90511764968828,2.24660996157125,-2.32849873997058,-3.01555937721058,0.0292452010788232,0.0292452010788232,0.05220768204,0.275470491600806
1.32,3.60885985358533,-0.957870505099593,-3.09407788429417,-74.0601503352255,22.4315384299313,-65.3638528862133,-2.35557428849009,-0.571388903729074,-1.96385024429988,2.23358175701494,-2.29684316464229,-3.10879659576153,-0.0292452010788232,-0.0292452010788232,-0.05220768204,0.376019414132568
1.33,3.60294454457688,-0.979469856232643,-3.13314193126745,-73.3611244150936,23.8490753024495,-66.4560158597964,1.94739061229435,2.3736571496806,1.89505976447761,2.22418087435711,-2.48460532198749,-3.02572007821907,0.0292452010788232,0.0266747204634324,0.05220768204,0.290230194637263
1.34,3.59857854277809,-1.00300600525771,-3.17181622105056,-74.6697975946694,22.6307192290352,-66.3144722675276,-2.38395104646986,-0.825365168351894,-1.972698464561,2.20633256622675,-2.45207939106045,-3.1315384391387,-0.0292452010788232,-0.0292452010788232,-0.05220768204,0.387232913379738
1.35,3.59097541973699,-1.0254797479596,-3.21110984587496,-74.0067402543028,24.0367610403607,-67.4446896377306,1.9162911684026,2.40472828778823,1.88532354970317,2.1954536707918,-2.63855809489302,-3.04740049678002,0.0292452010788232,0.0292452010788232,0.05220768204,0.292248688243526
1.36,3.58493930853708,-1.04995597085307,-3.25005404828692,-75.3343901132902,22.8194155988097,-67.3075799307391,-2.41465909981921,-0.795488964468344,-1.98221549626739,2.18136003389698,-2.60494198731323,-3.15874277454935,-0.0292452010788232,-0.0292452010788232,-0.05220768204,0.393706413554807
1.37,3.57564419733538,-1.07332276190224,-3.28957232569573,-74.7067916850114,24.2124742189463,-68.4764083844112,1.88653123030875,2.43462457106689,1.87607702074402,2.16916556143178,-2.79032764136019,-3.07405189878708,0.0292452010788232,0.0292452010788232,0.05220768204,0.296558949222486
1.38,3.56788985199616,-1.09878061166473,-3.32875803463841,-76.0421928471193,23.0749890861514,-68.3180825188374,-2.44404392871064,-0.766734244517111,-1.84851145024128,2.15477318352772,-2.75861082942805,-3.19132206685606,-0.0292452010788232,-0.0292452010788232,-0.0502578581818668,0.401976581092162
1.39,3.55685766648855,-1.12307928796176,-3.36847743062118,-75.4419488673903,24.5311555642144,-69.5038729970069,1.85877116841643,2.46081939858486,2.00718733125983,2.13733171768796,-2.9460084146849,-3.10652532424203,0.0292452010788232,0.0292452010788232,0.05220768204,0.302363268923629
1.4,3.5474246984419,-1.14953135065295,-3.40791445791012,-76.7944890951952,23.3916324317112,-69.3478811491737,-2.47366591633321,-0.739646961869247,-1.86273064548844,2.12636332568743,-2.91278433144945,-3.23016760051127,-0.0292452010788232,-0.0292452010788232,-0.05220768204,0.411389096053131
1.41,3.53469632137298,-1.17477111566187,-3.44785186369331,-76.2334502015702,24.8291809018865,-70.5757304155787,1.82999877899434,2.48802963648106,1.99332839466695,2.10759607313969,-3.09902553103785,-3.14557094380702,0.0292452010788232,0.0292452010788232,0.05220768204,0.308791618829527
1.42,3.52357880082929,-1.20224744156425,-3.48753054297761,-77.601612514436,23.6877406545092,-70.4200450603374,-2.50199376221636,-0.713595245258745,-1.8762764143689,2.09999451861136,-3.06415460183132,-3.27573395999525,-0.0292452010788232,-0.0292452010788232,-0.05220768204,0.421042985189562
1.43,3.50914812909064,-1.22845510429148,-3.52768146455882,-77.0792366567078,25.1051053123574,-71.6904186129659,1.80249014405283,2.51420083866811,1.98012930616257,2.08016697535486,-3.24945766966458,-3.19151280280079,0.0292452010788232,0.0292452010788232,0.05220768204,0.31532964188747
1.44,3.49633870838075,-1.25698594150725,-3.56759116738022,-78.461533652357,23.9618832533007,-71.5330777323078,-2.52907563929738,-0.688528608198541,-1.8891750867122,2.07587839552545,-3.2127778127055,-3.32829246275911,-0.0292452010788232,-0.0292452010788232,-0.05220768204,0.430648420365602
1.45,3.48019817335931,-1.28418820434711,-3.60795029977696,-77.9771920452988,25.3574611359403,-72.8463183634226,1.77619794055432,2.53938283502574,1.96756410039826,2.05526590595355,-3.39735999401459,-3.24456816062479,0.0292452010788232,0.0292452010788232,0.05220768204,0.321743093764493
1.46,3.46567660967739,-1.31380702855171,-3.64807242469091,-79.3702133714726,24.2320173424193,-72.6808546721381,-2.55495873721788,-0.664400018872248,-1.8668239872072,2.05306372811567,-3.35940094390238,-3.38802439377613,-0.0292452010788232,-0.0292452010788232,-0.0517346583149144,0.440028168681644
1.47,3.44780651697624,-1.3420335674068,-3.68862671118373,-78.9217956334541,25.623257959207,-74.0329899955388,1.75122540849225,2.56296818153744,1.98954325370697,2.03074447182419,-3.54414146505597,-3.30490798421027,0.0292452010788232,0.0292452010788232,0.05220768204,0.327916547979626
1.48,3.43151018104249,-1.37271863596695,-3.72896273368951,-80.2360377829854,24.5103610476922,-73.8593645077861,-2.42483270965977,-0.641365056812277,-1.85367580688434,2.03079057446303,-3.50961973198663,-3.44961535094229,-0.0281800690964228,-0.0292452010788232,-0.051849802111749,0.449101433172328
1.49,3.41185029645881,-1.401953734652,-3.76971680032811,-79.7358104004682,25.8922205914863,-75.2487756955811,1.87908331799772,2.5835112804586,2.0026722546805,2.00689725597565,-3.69956823074898,-3.36251666992259,0.0292452010788232,0.0292452010788232,0.05220768204,0.339339473036245
1.5,3.39381245145625,-1.4338103172351,-3.81023017444359,-81.0614171428754,24.8247051894231,-75.0629001097552,-2.45528525718512,-0.619170281358234,-1.78134519468206,2.00713446245092,-3.66439961484252,-3.51553389923817,-0.0292452010788232,-0.0292452010788232,-0.0510289498873081,0.468140147778621
1.51,3.37236858897267,-1.46422231008825,-3.85109625411471,-80.5413233593908,26.2109320599863,-76.3485284805279,1.84979847142547,2.38769262810529,2.07361614785535,1.97189524566805,-3.85533969988425,-3.43447741157568,0.0292452010788232,0.0272517991148712,0.05220768204,0.353607889790959
1.52,3.35258228528927,-1.49733897645794,-3.89173729907285,-81.8215096515753,25.11880284444,-76.0265690001689,-2.48253608767741,-0.810536070559059,-1.79736085987955,1.9680515211227,-3.81759633810518,-3.5988596542956,-0.0292452010788232,-0.0292452010788232,-0.05220768204,0.479993549537166
1.53,3.3294009821525,-1.52888524640247,-3.93278574742679,-81.3424494969713,26.482477586699,-77.3556181195154,1.82079198797602,2.41748095261678,2.05707807839672,1.9329111641873,-4.00771013197155,-3.51813369237674,0.0292452010788232,0.0292452010788232,0.05220768204,0.357655040756108
1.54,3.30788424125798,-1.56322294212672,-3.97360113243355,-82.6384508893943,25.3877883266197,-77.0354845421962,-2.51110410225868,-0.782010656818793,-1.81354243784332,1.93240244244504,-3.96711020688323,-3.68880587766614,-0.0292452010788232,-0.0292452010788232,-0.05220768204,0.487249507475272
1.55,3.28295497320911,-1.59592285593221,-4.01482401779716,-82.199634830941,26.7273054562206,-78.4081586401389,1.79304639590077,2.44611571512006,2.04130317094727,1.89766210552559,-4.15662693607195,-3.60861767273578,0.0292452010788232,0.0292452010788232,0.05220768204,0.362148977613032
1.56,3.25947842107138,-1.63136960222132,-4.05578365912537,-83.2802523935665,25.7495030943307,-78.0695492080606,-2.15182579086856,-0.754579511232106,-1.61915620185573,1.89171688141146,-4.13090100844608,-3.76964050062471,-0.0265931176717663,-0.0292452010788232,-0.0493415586303596,0.494771286181322
1.57,3.23258032721996,-1.66513710152236,-4.09714790824653,-82.6548198325302,27.1850466719827,-79.4607122884786,2.14641620561472,2.46509063767687,2.23238408956845,1.84791432926832,-4.33766454365912,-3.67660231882601,0.0292452010788232,0.0292452010788232,0.05220768204,0.383312344936245
1.58,3.20737635637567,-1.7019179150982,-4.13826375639255,-83.7621749475619,26.1979519453172,-79.1312094197841,-2.19543867498822,-0.727621017740449,-1.6432660831114,1.8457755202363,-4.30879053739413,-3.84879857327324,-0.0292452010788232,-0.0292452010788232,-0.05220768204,0.532797843946952
1.59,3.17873360645344,-1.73699415156271,-4.17979150516137,-83.1875695769855,27.611175227966,-80.5600806928456,2.10384531374588,2.49242314096762,2.20880141809987,1.80137688671992,-4.51372548310252,-3.75956880898144,0.0292452010788232,0.0292452010788232,0.05220768204,0.413698466653739
1.6,3.15180305892126,-1.77520137599823,-4.22104886605418,-84.319748068605,26.6154943778748,-80.2372390613373,-2.237172703504,-0.701904308370815,-1.66629583882969,1.80293265760526,-4.48140141991311,-3.94190782726114,-0.0292452010788232,-0.0292452010788232,-0.05220768204,0.562945630380318
1.61,3.12141372118462,-1.81166599561998,-4.26273301561162,-83.7950810409467,28.0048127133117,-81.7046717928182,2.06311561946422,2.51851322403045,2.18627879397001,1.75848238003154,-4.6849372654392,-3.8557216060808,0.0292452010788232,0.0292452010788232,0.05220768204,0.437240002576598
1.62,3.09275241693785,-1.85137319616947,-4.30411265042549,-84.9501785536569,27.00121618193,-81.3861063054792,-2.27709368307564,-0.677344426938836,-1.68828631813967,1.76364010131192,-4.64887159999594,-4.04742258469709,-0.0292452010788232,-0.0292452010788232,-0.05220768204,0.587022778648433
1.63,3.06061039043466,-1.88928948289768,-4.34594166255937,-84.4744691826799,28.3650002889947,-82.8927935462684,2.02416228527458,2.54344369359133,2.1647759254156,1.71964439912966,-4.85139551447746,-3.96370961770587,0.0292452010788232,0.0292452010788232,0.05220768204,0.455505279900279
1.64,3.03020989904538,-1.93055553774643,-4.38742098503904,-85.6506033024868,27.3541335734982,-82.576186111651,-2.31526673884958,-0.653863740007779,-1.7092775185322,1.72832529471692,-4.81130107967283,-4.16417904574298,-0.0292452010788232,-0.0292452010788232,-0.05220768204,0.606411384312229
1.65,2.99624768463398,-1.97004458722802,-4.42926731567931,-85.1276711830365,28.6767364588916,-83.9156957970037,1.9869211871906,2.24555495698552,2.14425338367782,1.67186354882694,-5.01316828312048,-4.08807293068754,0.0292452010788232,0.0262852356139207,0.05220768204,0.469697624205116
1.66,2.96396974809073,-2.01297546289682,-4.47065820638952,-86.2185752236214,27.7379627995229,-83.3864180477729,-2.34727085316561,-0.946691971531278,-1.56371173786188,1.66280674440621,-4.97180999381615,-4.3008708636497,-0.0292452010788232,-0.0292452010788232,-0.0499605888029394,0.616733796556403
1.67,2.92817436645483,-2.05399572147874,-4.51256011444401,-85.738969723961,29.1308039684524,-84.7604098665767,1.95319895449557,2.27819752200866,2.28569455444749,1.59982733671818,-5.17548728262267,-4.22519732936061,0.0292452010788232,0.0292452010788232,0.05220768204,0.471545782058606
1.68,2.89413482827844,-2.09852415449537,-4.55401985302383,-86.8511810261473,28.1836831698866,-84.2405470063003,-2.38286867452228,-0.913194773678066,-1.58958059056708,1.59415619146387,-5.12965487990858,-4.44399832843234,-0.0292452010788232,-0.0292452010788232,-0.05220768204,0.621917818069818
1.69,2.85656205732313,-2.14107935794891,-4.59602722388378,-86.4225381100507,29.5496149282307,-85.6603585130382,1.91850004977781,2.31189182623851,2.26042208249269,1.53301801068086,-5.33215651220784,-4.36929506399174,0.0292452010788232,0.0292452010788232,0.05220768204,0.474354693108456
1.7,2.82074785868398,-2.18721932072547,-4.63753674218111,-87.5544464442436,28.59497718595,-85.1475052217435,-2.4169944480727,-0.881118937148656,-1.61432293099165,1.53068386268278,-5.28164460834021,-4.59425381627346,-0.0292452010788232,-0.0292452010788232,-0.05220768204,0.627418656373686
1.71,2.78138520074527,-2.23132188855751,-4.67963752947139,-87.1759454896133,29.932399896557,-86.6135393261603,1.88524654442994,2.3441691077913,2.23625401121875,1.47178714758592,-5.4832617512951,-4.52072995846818,0.0292452010788232,0.0292452010788232,0.05220768204,0.477357179582236
1.72,2.7436473752017,-2.27891331300666,-4.72124418643937,-88.1406912266704,28.9710406842291,-86.1053537019112,-2.1263680001082,-0.850379551410092,-1.63798018459966,1.47273700851699,-5.4424552096906,-4.73420929124644,-0.0270272197220017,-0.0292452010788232,-0.05220768204,0.632934275463803
1.73,2.70234781216169,-2.32443046226785,-4.76347877035294,-87.6262339305002,30.2827642257365,-87.6104209923016,2.17025229317502,2.37119777733317,2.21362053879468,1.41552997944312,-5.65813688427385,-4.64693560330444,0.0292452010788232,0.0292452010788232,0.05220768204,0.498315122709887
1.74,2.66277264309271,-2.37374354461484,-4.80504430477943,-88.6170156341213,29.3881628846469,-87.1091367450702,-2.17042730816192,-0.8195437059729,-1.52874169359314,1.41306040044933,-5.61462188648086,-4.87195637009657,-0.0292452010788232,-0.0292452010788232,-0.0503954882837354,0.671634415013676
1.75,2.61961437081979,-2.42096141795047,-4.84728158876472,-88.1539883074842,30.7506440118779,-88.6501626920341,2.12798459785402,2.40019788811486,2.32072472556947,1.35014401538861,-5.83092611108777,-4.78946068869187,0.0292452010788232,0.0292452010788232,0.05220768204,0.529269827394863
1.76,2.57824853680465,-2.47208234806737,-4.88883466639822,-89.1703699982462,29.8447845982488,-88.1570858469312,-2.21393835003943,-0.790130565162214,-1.55637787354093,1.35154332300985,-5.78230958619375,-5.02490062602645,-0.0292452010788232,-0.0292452010788232,-0.05220768204,0.701652631789178
1.77,2.53327907270959,-2.52107589837101,-4.93111528958682,-88.7632740792558,31.1789944185647,-89.7401279534981,2.08549414840706,2.42996665003205,2.29369173455814,1.29084716219918,-5.99740226028668,-4.94647323128657,0.0292452010788232,0.0292452010788232,0.05220768204,0.552576989679651
1.78,2.49011085842184,-2.57407278929451,-4.97262612231879,-89.8033165893823,30.2629026240054,-89.2527507433112,-2.25560106837659,-0.762102725561808,-1.58280184982333,1.29599841868203,-5.9433109102755,-5.19139553367881,-0.0292452010788232,-0.0292452010788232,-0.05220768204,0.724643394000601
1.79,2.44331757720852,-2.62489968123493,-5.01493022282556,-89.4509723390959,31.5671114047139,-90.878347994514,2.0448173654829,2.45835374283861,2.26784814372551,1.23810071123426,-6.15764406540647,-5.11632060174042,0.0292452010788232,0.0292452010788232,0.05220768204,0.569822353896227
1.8,2.39826483171544,-2.67982245685444,-5.05629574826949,-90.5122194659994,30.7312922816609,-90.3932201580268,-2.29547457853062,-0.735363579919959,-1.45179982108511,1.23728067022595,-6.09964790583988,-5.37001959982874,-0.0292452010788232,-0.0292452010788232,-0.0500731859909291,0.742318871895455
1.81,2.34954812293405,-2.73253612199675,-5.09849432236759,-90.1883620023722,32.0918967719212,-92.0093533157583,2.00664279744079,2.40325883742968,2.39628322097011,1.16880369922104,-6.31527489047164,-5.2989508019844,0.0292452010788232,0.0285134046093071,0.05220768204,0.582627967545718
1.82,2.30263646741417,-2.78942670200461,-5.13972214808859,-91.2407789874253,31.2443528060677,-91.4730766819845,-2.33408007607978,-0.788091571398911,-1.481842159383,1.16733826960123,-6.25106761790023,-5.56158487393985,-0.0292452010788232,-0.0292452010788232,-0.05220768204,0.755105860768429
1.83,2.25207175710553,-2.8440485166888,-5.18190512080221,-90.9761120504352,32.5698124864831,-93.1368953127624,1.96815779082544,2.43206105138893,2.36658227306254,1.10261202248552,-6.46575554106232,-5.49323306993117,0.0292452010788232,0.0292452010788232,0.05220768204,0.590341145151617
1.84,2.20326324661394,-2.90286080954384,-5.22303371202899,-91.9938168961087,31.7116908400588,-92.6020981704528,-2.27870275207796,-0.760979102227423,-1.51088775818214,1.10458750010704,-6.40011652089984,-5.75721894748222,-0.0286067290787395,-0.0292452010788232,-0.05220768204,0.763944262141925
1.85,2.15078965300148,-2.95935880597382,-5.26520525707735,-91.7336397438955,33.0016175366902,-94.3117223413939,2.02254507118323,2.45851394037402,2.33829818021109,1.04380533655647,-6.6193908276168,-5.6862592167776,0.0292452010788232,0.0292452010788232,0.05220768204,0.601770510704132
1.86,2.10007410955992,-3.02019166319189,-5.3061328705969,-92.7724080582256,32.1801684441757,-93.7800278843597,-2.31842985700867,-0.7345267475191,-1.45658756860069,1.04398024824432,-6.54796998250453,-5.95918773595922,-0.0292452010788232,-0.0292452010788232,-0.0510829608130259,0.781951244154175
1.87,2.04556329875301,-3.07869379485517,-5.34801504225953,-92.4404426049683,33.4901005582845,-95.291262211107,1.98413165937626,2.1192100487074,2.39156563514556,0.960378546315934,-6.76756007193936,-5.89561241873977,0.0292452010788232,0.0258895898683697,0.05220768204,0.614803700691326
1.88,1.99272174538591,-3.14143023372633,-5.38867088925705,-93.2241299056359,32.6658266649859,-94.5154780139018,-2.11491932385314,-1.06692727884889,-1.48540727103919,0.94291121650222,-6.70357888278003,-6.16302140153873,-0.0276212238265813,-0.0292452010788232,-0.05220768204,0.791832294576458
1.89,1.93620323412086,-3.20180025108813,-5.43054275959792,-92.814681916225,33.9477346118902,-96.0712847246181,2.18022425770308,2.15645737581857,2.36237413618328,0.86355929234051,-6.93597116855675,-6.08834260491355,0.0292452010788232,0.0292452010788232,0.05220768204,0.634617335893629
1.9,1.88141194891692,-3.26665251891646,-5.47093518069461,-93.6300916955527,33.1858737754708,-95.315641983402,-2.15964983328767,-1.02742902297984,-1.38181767838688,0.841202197053329,-6.86689591789499,-6.36652274831137,-0.0292452010788232,-0.0292452010788232,-0.050390243053077,0.826928850197734
1.91,1.82292889358431,-3.3291385469171,-5.51262233311149,-93.2843883474263,34.5151931922872,-96.9214900593694,2.13746176180843,2.1940032049253,2.46395630959625,0.757149680536507,-7.09877296217534,-6.29762241821271,0.0292452010788232,0.0292452010788232,0.05220768204,0.663009159284424
1.92,1.76623530587023,-3.39619010256213,-5.55278930991042,-94.1256623700176,33.7381111719757,-96.1779893926682,-2.20358273135914,-0.98977592830312,-1.4152948980134,0.738942863531956,-7.02288424097268,-6.58541271729471,-0.0292452010788232,-0.0292452010788232,-0.05220768204,0.853641206707911
1.93,1.7058392983389,-3.46086757173319,-5.59434355920689,-93.8443761198439,35.0354831828074,-97.8322837178047,2.09453036521908,2.23189719872187,2.43121344478154,0.659957743187741,-7.25312718263971,-6.52170879728451,0.0292452010788232,0.0292452010788232,0.05220768204,0.68408873009527
1.94,1.64722775199916,-3.53017411051564,-5.63425208656784,-94.7097861865451,34.2447195051629,-97.0983639170103,-2.24578741743414,-0.953928577065871,-1.44735751584481,0.645746419229909,-7.1700016036324,-6.81821757870281,-0.0292452010788232,-0.0292452010788232,-0.05220768204,0.873525906220628
1.95,1.5849036220638,-3.59708960031766,-5.67565220730667,-94.4918025345115,35.5083964257175,-98.8016197735557,2.05330077155588,2.26800131785163,2.3998584290098,0.572464359608161,-7.39914683615452,-6.75902434544678,0.0292452010788232,0.0292452010788232,0.05220768204,0.699269375853801
1.96,1.52425534486237,-3.66867066585935,-5.71515154962332,-95.3863252968114,34.825799873889,-98.0863732840255,-2.28630075693291,-0.919763291079018,-1.2672807279617,0.54651416922961,-7.30957244232079,-7.06357403327984,-0.0292452010788232,-0.0292452010788232,-0.0493285083621986,0.88823351354746
1.97,1.45989192941421,-3.73784124622953,-5.75625950701899,-95.2405002769496,36.1718083925186,-99.8526352497456,2.01499601548742,2.29887363247941,2.57640128638516,0.464003109062439,-7.53884793560735,-7.00865885173545,0.0292452010788232,0.0292452010788232,0.05220768204,0.710193997099958
1.98,1.3970266459481,-3.81136310002176,-5.79569652948047,-95.8617645105485,35.4736712136591,-99.1407112813753,-1.81766938169475,-0.887558543716975,-1.30500053262978,0.441815703227166,-7.47671989053318,-7.28226025848922,-0.0257514693554603,-0.0292452010788232,-0.05220768204,0.899146171646552
1.99,1.33044642950558,-3.88251115083416,-5.83683029516554,-95.4949583957177,36.78539174252,-100.951520564845,2.47430244439673,2.32655144515613,2.54027452202345,0.363939954165722,-7.74012481344311,-7.19913786059113,0.0292452010788232,0.0292452010788232,0.05220768204,0.756679791856086
2,1.26563078212877,-3.95854534841663,-5.87589675050691,-96.1517270433288,36.0665915439559,-100.252589219205,-1.87675658091874,-0.852348428485261,-1.34233084331524,0.34736817309532,-7.67059480107344,-7.49171966562494,-0.0292452010788232,-0.0292452010788232,-0.05220768204,0.97846695299495
2.01,1.19707389831313,-4.03226636702731,-5.91675090674457,-95.8591812751251,37.3478198585424,-102.107445260303,2.41648885987468,2.36214512697712,2.50371417895194,0.27418239119279,-7.93149875382696,-7.41991383968717,0.0292452010788232,0.0292452010788232,0.05220768204,0.821117996541565
2.02,1.1302872064467,-4.11098050805824,-5.9553732705946,-96.5491389095111,36.6102799781252,-101.418711078489,-1.93344026942869,-0.819205129273766,-1.37807690688209,0.26291347548829,-7.85390809799007,-7.72836697325861,-0.0292452010788232,-0.0292452010788232,-0.05220768204,1.03574197926315
2.03,1.05960015360457,-4.18738736471681,-5.99571816734077,-96.2073940206012,37.8778066630851,-103.114020908124,2.36103770574299,2.10730100615921,2.46871004487568,0.173116509146792,-8.11324645442381,-7.66609688290768,0.0292452010788232,0.0265919415039398,0.05220768204,0.866666798614898
2.04,0.990547188208446,-4.26881509770996,-6.03351107790856,-96.8139514090063,37.2897350916595,-102.251278012106,-1.9831545257808,-1.07058939318021,-1.14887466209826,0.123850615903195,-8.02809226870598,-7.98782284142303,-0.0292452010788232,-0.0292452010788232,-0.0486253307520943,1.07622159441969
2.05,0.917725086630853,-4.34800415012004,-6.07331503285872,-96.5587741938031,38.6755568693825,-104.016259663819,2.31166079240304,2.14648891705844,2.69240447577855,0.0196023012616723,-8.28554543174306,-7.93300358898679,0.0292452010788232,0.0292452010788232,0.05220768204,0.898615745914263
2.06,0.846667493587382,-4.4322916044585,-6.11057289307308,-97.1935187509349,38.0644878425889,-103.165907388637,-2.03529459965691,-1.02926413520389,-1.19188224989652,-0.0246185539286431,-8.19165139729812,-8.26518527737773,-0.0292452010788232,-0.0292452010788232,-0.05220768204,1.10520261387575
2.07,0.771842374102726,-4.51437314721265,-6.14996699207175,-97.0212314204422,39.4140620561622,-104.987228846154,2.26058439861761,2.18807741068223,2.65030549874545,-0.121332430681113,-8.44627666318153,-8.21744613595741,0.0292452010788232,0.0292452010788232,0.05220768204,0.921366110331373
2.08,0.698764991717682,-4.6015719563188,-6.18664079272097,-97.6823774798861,38.782191168472,-104.146579599752,-2.08547856648017,-0.990227268944983,-1.23311248879804,-0.160716064596139,-8.34317499904181,-8.55889239798796,-0.0292452010788232,-0.0292452010788232,-0.05220768204,1.12509772715985
