Time_s,Height_m,X_m,Y_m,Roll_deg,Pitch_deg,Yaw_deg,p,q,r,u,v,w,tx,ty,tz,Thrust
0.01,0.000981,0,0,0.728892128279883,0,0.732093704245974,1.27215675303528,0,1.27774455722138,0,0,-0.0981,0.00872699532582205,0,0.0174539906516441,1.33416
0.02,0.00294140450089111,-7.38403542564342e-07,6.70109544649267e-05,-0.999397948728878,0.0256134380968307,-0.740057300313183,-3.01643522733492,0.0120145014091719,-2.56974898985277,1.17862258823977e-05,0.00420707507103693,-0.196109838060597,-0.0292452010788232,0,-0.05220768204,1.33416
0.03,0.0058817804663876,-3.79867644976304e-06,1.5032793929211e-05,-0.250068698459277,0.000611980861545799,0.00742711051624738,1.30724305017106,-0.066383949281602,1.30364672776184,-0.00010742012680134,-7.1968128042027e-05,-0.29408366566443,0.0292452010788232,-0.00124615581182705,0.05220768204,1.33416
0.04,0.00980103788498333,1.4759520949827e-05,8.05830119664353e-05,-1.95835108390038,0.377548085598328,-1.45196043799372,-2.98148801206981,0.668988234232716,-2.54421620598971,0.00186085562615216,0.00826528181405931,-0.391893380708075,-0.0292452010788232,0.00663732498918125,-0.05220768204,1.33416
0.05,0.0146955632968886,-0.000105264856755525,-8.80118647503238e-05,-1.17816346010024,-1.00911885481219,-0.640889244918593,1.35235640420105,-2.46715062510201,1.33202355161278,-0.00834593079210727,-0.000419866180391471,-0.489818599143043,0.0292452010788232,-0.0292452010788232,0.05220768204,1.33416
0.06,0.0205717133304544,-2.98846867036332e-05,-9.32899038064805e-05,-2.82368455824464,-0.595132195569527,-2.08853731282006,-2.91647381086662,0.774333069824153,-2.51084010488193,-0.00280652361437474,0.0116396730938165,-0.587541601831358,-0.0292452010788232,0.0292452010788232,-0.05220768204,1.33416
0.07,0.0274166706132168,-0.000126845562323601,-0.000442508826522967,-2.02024262713974,-1.91048842435031,-1.24047124654575,1.4176448172303,-2.36585475668105,1.36518392837129,-0.0155262471026413,-0.00149531027686385,-0.685277063967817,0.0292452010788232,-0.0292452010788232,0.05220768204,1.33416
0.08,0.0352443898773771,6.91818614942071e-05,-0.00058074572193465,-3.6068848004957,-1.45975242207261,-2.67802173226655,-2.85285834143191,0.874593273390125,-2.47831300081263,-0.00620980426416714,0.0142150241903888,-0.782985710025893,-0.0292452010788232,0.0292452010788232,-0.05220768204,1.33416
0.09,0.0440333097652872,5.28064205092554e-05,-0.00116935673704804,-2.78053051432528,-2.70711340430365,-1.79682971720375,1.4814396835695,-2.26946623517159,1.39746608224456,-0.02127546963332,-0.00348138368223712,-0.880598474415184,0.0292452010788232,-0.0292452010788232,0.05220768204,1.33416
0.1,0.0538057913579761,0.000424743522119528,-0.00149773581993917,-4.31201439877897,-2.21997284352184,-3.22557012217992,-2.79071856865557,0.97005122813504,-2.4466625534716,-0.0079934515352188,0.0158230277911452,-0.97834625854799,-0.0292452010788232,0.0292452010788232,-0.05220768204,1.33416
0.11,0.064531041545764,0.000538221188006724,-0.00237978509722954,-3.46283650169307,-3.4026221572284,-2.31472045601575,1.54367512987271,-2.1777085691143,1.4288467675402,-0.0252648860710591,-0.00655145882133867,-1.07588919546012,0.0292452010788232,-0.0292452010788232,0.05220768204,1.33416
0.12,0.0762405632102793,0.00113328993223146,-0.00295048893893899,-4.94274452640887,-2.8794464749088,-3.73563006038141,-2.73011720513436,1.06097462332732,-2.41591017186162,-0.007843995572993,0.0163028484372398,-1.17371195863243,-0.0292452010788232,0.0292452010788232,-0.05220768204,1.33416
0.13,0.0888938521022538,0.00141814695134803,-0.00417524017906558,-4.0706384647243,-4.00061745038328,-2.79824251278864,1.60429864674903,-2.09032011477375,1.45930862679644,-0.0272045587822797,-0.0108704759953198,-1.27122402973909,0.0292452010788232,-0.0292452010788232,0.05220768204,1.33416
0.14,0.102532250759647,0.00227602885382453,-0.00503543850868032,-5.5024320747409,-3.44178690616302,-4.21203299511299,-2.67110398067024,1.14761676849715,-2.3860715569463,-0.00548503207976499,0.0155002033498999,-1.36914128662735,-0.0292452010788232,0.0292452010788232,-0.05220768204,1.33416
0.15,0.117105045717533,0.00276653922518585,-0.00664735176102935,-4.60714843281109,-4.5046485906322,-3.25092077705077,1.66326985817971,-2.00705369762457,1.4888396609434,-0.0268388007277137,-0.0165957944982422,-1.46664802689727,0.0292452010788232,-0.0292452010788232,0.05220768204,1.33416
0.16,0.132664107985844,0.00391984916382074,-0.00783922289542193,-5.99418023625306,-3.91054443092851,-4.65807217365038,-2.61371685089086,1.23021697891264,-2.35715722576707,-0.000673048011810576,0.0132668215936771,-1.56466435100265,-0.0292452010788232,0.0292452010788232,-0.05220768204,1.33416
0.17,0.14914797688745,0.0046434970744526,-0.00987796548223142,-5.07536385289296,-4.91819097774508,-3.67577608544414,1.72055935503898,-1.92767617073762,1.51743272028883,-0.0239424097876098,-0.0238776919891614,-1.66217849006371,0.0292452010788232,-0.0292452010788232,0.05220768204,1.33416
0.18,0.166619754548933,0.00611822853391622,-0.0114387445538038,-6.42088572046396,-4.28918871901324,-5.07656879175641,-2.5579831405282,1.30900101866361,-2.32917301305576,0.0068060506644716,0.00946020880293099,-1.76028491174714,-0.0292452010788232,0.0292452010788232,-0.05220768204,1.33416
0.19,0.185006638848474,0.00709614223182757,-0.0139392278685033,-5.47810718616523,-5.24463151393825,-4.07538532737223,1.77614759604148,-1.85196792328649,1.54508501963275,-0.0183175446944059,-0.032859581478897,-1.85780708847421,0.0292452010788232,-0.0292452010788232,0.05220768204,1.33416
0.2,0.204383697530076,0.00891208276707268,-0.0159012761888233,-6.78527516604071,-4.58109664430264,-5.4699286899378,-2.50392061866379,1.38418158884963,-2.3021205475262,0.0171398192638731,0.00394365211103755,-1.95598247489443,-0.0292452010788232,0.0292452010788232,-0.05220768204,1.33416
0.21,0.224666124364634,0.0101594390621059,-0.018893713097577,-5.81805605653671,-5.487258638346,-4.45193346454146,1.83002387784159,-1.77972235114936,1.57179767976363,-0.00979113903094505,-0.0436780080058694,-2.05350201168672,0.0292452010788232,-0.0292452010788232,0.05220768204,1.33416
0.22,0.24594173299214,0.0123305556766788,-0.021284603924339,-7.08993282822647,-4.78954417429818,-5.84019139122965,-2.4515385047314,1.45595884959213,-2.27599770099668,0.0304916600036715,-0.00341359234729308,-2.15171440803865,-0.0292452010788232,0.0292452010788232,-0.05220768204,1.33416
0.23,0.268112973231618,0.0138569550501336,-0.0247945823524598,-6.09776576690845,-5.64925600879887,-4.80725894128035,1.88218537468891,-1.7107453003103,1.59757529671559,0.00178723747343982,-0.056462479571884,-2.24921012088265,0.0292452010788232,-0.0292452010788232,0.05220768204,1.33416
0.24,0.291281241126213,0.0163917498892228,-0.0276371991402744,-7.33732123886196,-4.91770145336072,-6.18907286379624,-2.40083840528472,1.52452096582605,-2.25079900929581,0.0470027980105065,-0.0127359793724871,-2.34741804009266,-0.0292452010788232,0.0292452010788232,-0.05220768204,1.33416
0.25,0.315335419633957,0.0182015628005492,-0.0316857681747553,-6.31968567797691,-5.7336990497576,-5.14289362250839,1.93263624697408,-1.64485449250621,1.62242553945053,0.0165471491951559,-0.0713351795720773,-2.44485906768516,0.0292452010788232,-0.0292452010788232,0.05220768204,1.33416
0.26,0.340391387457039,0.0211034000917704,-0.0349984120961747,-7.52979623205826,-4.96863038688209,-6.51800307385965,-2.35181518251622,1.59004466803969,-2.22651606455449,0.0667939214355389,-0.0241412648610151,-2.54301272137047,-0.0292452010788232,0.0292452010788232,-0.05220768204,1.33416
0.27,0.366323551227231,0.0231960855260633,-0.0396021775890451,-6.48617068489875,-5.74355373899408,-5.46009813391577,1.98138681715133,-1.58187894134949,1.64635877605384,0.034598764386278,-0.0884106010290021,-2.64035936182398,0.0292452010788232,-0.0292452010788232,0.05220768204,1.33416
0.28,0.393263241355362,0.0264634910929678,-0.0433986817206366,-7.66961748343507,-4.94528417078487,-6.82815914999607,-2.30445775628145,1.65269582029653,-2.20313787900686,0.0899665491089411,-0.0377400423063298,-2.73840182932377,-0.0292452010788232,0.0292452010788232,-0.05220768204,1.33416
0.29,0.421069390629342,0.0288338887236115,-0.0485699089430963,-6.59948881534372,-5.68167712716968,-5.75989327772641,2.02845281087118,-1.52165836600393,1.66938772807719,0.0560340826726142,-0.107795136571258,-2.83560637672364,0.0292452010788232,-0.0292452010788232,0.05220768204,1.33416
0.3,0.449889821962418,0.0324608236737403,-0.0528597570321306,-7.75895551092025,-4.85050831929123,-7.1204947927555,-2.25874984196872,1.71262998897114,-2.18065122082995,0.116604179960086,-0.0536352557242451,-2.93347471173678,-0.0292452010788232,0.0292452010788232,-0.05220768204,1.33416
0.31,0.479566908903816,0.035099421243631,-0.0586064784147428,-6.66182579743155,-5.55081918155801,-6.04308804422277,2.07385466067025,-1.46404260841625,1.69152715231113,0.0809279698443426,-0.129586652350305,-3.03048228741802,0.0292452010788232,-0.0292452010788232,0.05220768204,1.33416
0.32,0.510266080578852,0.0390755316166868,-0.0633949265847535,-7.79989592013885,-4.68704283063233,-7.3957664213398,-2.21467062698345,1.76999300665198,-2.15904092286298,0.146773270291827,-0.0719217137202493,-3.12810856354335,-0.0292452010788232,0.0292452010788232,-0.05220768204,1.33416
0.33,0.541811979609004,0.0419687092887876,-0.0697210529926773,-6.67528729980859,-5.35362562346928,-6.31030462357554,2.11761686922149,-1.40889105911686,1.71279354900644,0.109339041916981,-0.153874068982013,-3.22485793868912,0.0292452010788232,-0.0292452010788232,0.05220768204,1.33416
0.34,0.574388827610144,0.046279553559812,-0.0750092531199057,-7.79444153981012,-4.45752520031708,-7.65455644181287,-2.17219538891384,1.8249215265979,-2.13829016527646,0.180524077865441,-0.0926856247007194,-3.32217023620478,-0.0292452010788232,0.0292452010788232,-0.05220768204,1.33416
0.35,0.607802281070878,0.0494098070700261,-0.0819146874622067,-6.64189942276067,-5.09264149264959,-6.5620007361095,2.15976742892197,-1.3560720957053,1.73320489537385,0.141310433831686,-0.18073696811507,-3.41859464346297,0.0292452010788232,-0.0292452010788232,0.05220768204,1.33416
0.36,0.642256611292362,0.0540370634529468,-0.0876998112682561,-7.74451297671545,-4.16449404845828,-7.89729394114199,-2.13129605863271,1.87754356398155,-2.11838073342384,0.217891405544082,-0.116004169128951,-3.51551798019748,-0.0292452010788232,0.0292452010788232,-0.05220768204,1.33416
0.37,0.67753715371185,0.0573832079293293,-0.0951805635342948,-6.56360791441439,-4.77031522416911,-6.79848953527876,2.20033729446749,-1.30546253732969,1.75278040306229,0.176870482438116,-0.210245239328638,-3.61154591264477,0.0292452010788232,-0.0292452010788232,0.05220768204,1.33416
0.38,0.713869554642739,0.0623048634308424,-0.101455926700955,-7.65194802156038,-3.81039317423839,-8.12427305200942,-2.0919417316883,1.92797902090977,-2.09929325221466,0.258895271864176,-0.141945121189821,-3.70800312193715,-0.0292452010788232,0.0292452010788232,-0.05220768204,1.33416
0.39,0.751017418529631,0.0658422197345233,-0.109504229761696,-6.44227649650557,-4.38900306641229,-7.01995729097981,2.23935990501382,-1.25694711775307,1.77154029823643,0.216033348461596,-0.242458778697037,-3.80355911802927,0.0292452010788232,-0.0292452010788232,0.05220768204,1.33416
0.4,0.789229156384145,0.0710327428776634,-0.116259415588887,-7.51850025335025,-3.39757588896523,-8.33566918978872,-2.05409913136322,1.9763401928818,-2.08100739840982,0.303541531261076,-0.170566529196924,-3.89947167666748,-0.0292452010788232,0.0292452010788232,-0.05220768204,1.33416
0.41,0.828245162163153,0.0747333082819883,-0.124863841303058,-6.27968460745974,-3.95097370450568,-7.22647902713266,2.27687075253812,-1.21041797896949,1.78950562283505,0.258799597902786,-0.277427247475166,-3.99447708990586,0.0292452010788232,-0.0292452010788232,0.05220768204,1.33416
0.42,0.868338060975447,0.0801638073616333,-0.132084823606489,-7.34583711841554,-2.92830951090268,-8.53155333137424,-2.01773302674942,2.02273225493429,-2.06350209226477,0.351822462676442,-0.201916461495187,-4.08976589866301,-0.0292452010788232,0.0292452010788232,-0.05220768204,1.33416
0.43,0.909223493400837,0.0839964123246557,-0.141230398936578,-6.07752480477501,-3.45841298321651,-7.4180322633186,2.31290699307621,-1.16577418678448,1.80669805558318,0.305156759662212,-0.315189896899808,-4.18413965066245,0.0292452010788232,-0.0292452010788232,0.05220768204,1.33416
0.44,0.951199802334307,0.0896347809806917,-0.148899664023568,-7.13553769917941,-2.40477993137529,-8.71190448253986,-1.98280660911224,2.06725372623255,-2.04675566994329,0.403717341835125,-0.23603282242416,-4.27872576968658,-0.0292452010788232,0.0292452010788232,-0.05220768204,1.33416
0.45,0.993956275473495,0.0935652336885039,-0.15856798699987,-5.83740001246722,-2.91342864807506,-7.59450899300371,2.34750709761097,-1.12292126930191,1.82313975134835,0.355079873041789,-0.355775463015972,-4.37238508520482,0.0292452010788232,-0.0292452010788232,0.05220768204,1.33416
0.46,1.0378185253589,0.0993762854921137,-0.166664654674803,-6.88909033575392,-1.82909618348857,-8.87662046371806,-1.94928182970834,2.10999691230658,-2.03074603809999,0.459193009522247,-0.272943241060511,-4.46619042611132,-0.0292452010788232,0.0292452010788232,-0.05220768204,1.33416
0.47,1.0824478380232,0.103367505761597,-0.176834010151544,-5.56082075145083,-2.31805504404486,-7.75572601841736,2.38071053951386,-1.081770778856,1.83885319746585,0.408532036077806,-0.39920213367531,-4.5590515484434,0.0292452010788232,-0.0292452010788232,0.05220768204,1.33416
0.48,1.1281986889335,0.109313099410683,-0.185333953790899,-6.6078902193383,-1.20329496292957,-9.02552713161973,-1.91711970209017,2.15104832450322,-2.01545081198766,0.518204445648556,-0.312665033905608,-4.65199952454584,-0.0292452010788232,0.0292452010788232,-0.05220768204,1.33416
0.49,1.17470267224426,0.113325243444055,-0.195979429021067,-5.24920245019814,-1.67425772815294,-7.90143375289366,2.41255751558681,-1.04223987758748,1.8538610857074,0.465464963340674,-0.445477588371389,-4.74397840952484,0.0292452010788232,-0.0292452010788232,0.05220768204,1.33416
0.5,1.22234475373388,0.119364400058727,-0.204855394825633,-6.2932370392072,-0.529345065323929,-9.15838614450177,-1.88628057178136,2.19048907653984,-2.00084743839303,0.580695356704628,-0.355205241384045,-4.8359945452447,-0.0292452010788232,0.0292452010788232,-0.05220768204,1.33416
0.51,1.27072511234662,0.1233549774419,-0.215948994943876,-4.90386289898525,-0.983937966643423,-8.03132359421958,2.44308869790982,-1.0042509465794,1.86818619862622,0.525819559840923,-0.494599110335389,-4.92700753194662,0.0292452010788232,-0.0292452010788232,0.05220768204,1.33416
0.52,1.32026085782568,0.129443991343093,-0.225170720525958,-5.94633273397888,0.19084828297369,-9.27490137104316,-1.85672435604844,2.22839525830546,-1.98691330464232,0.646598782320866,-0.400560736935278,-5.01802003208368,-0.0292452010788232,0.0292452010788232,-0.05220768204,1.33416
0.53,1.37051900618999,0.133367975577764,-0.236681484074989,-4.52601988272993,-0.248937098889376,-8.14503396638117,2.47234501386426,-0.967731218235578,1.88185130907669,0.589526515961101,-0.546553769281924,-5.10798448822169,0.0292452010788232,-0.0292452010788232,0.05220768204,1.33416
0.54,1.42195048276731,0.139460519823481,-0.246215816573861,-5.56827937208941,0.955439213569882,-9.37472403591777,-1.82841075633036,2.26483828726822,-1.9736258348515,0.715837725026829,-0.448718406582283,-5.19792476745351,-0.0292452010788232,0.0292452010788232,-0.05220768204,1.33416
0.55,1.47408737767343,0.143270453580916,-0.258109931241807,-4.11678900415539,0.528959240122842,-8.24215512143541,2.500367451869,-0.932612431396169,1.8948790917758,0.656506926849465,-0.601318672339118,-5.28675970737353,0.0292452010788232,-0.0292452010788232,0.05220768204,1.33416
0.56,1.52741611268279,0.149317681427114,-0.267920945183914,-5.16007716528537,1.76263712874313,-9.45745668869815,-1.80129944572199,2.29988523801999,-1.96096257452627,0.788325805903205,-0.499655396121773,-5.37556288009189,-0.0292452010788232,0.0292452010788232,-0.05220768204,1.33416
0.57,1.58143208323467,0.152963777611189,-0.28016186394041,-3.67718169013095,1.34801703909994,-8.32223278763649,2.52719689053327,-0.898830508536062,1.90729204584453,0.726672938430037,-0.658861279995009,-5.4631895532514,0.0292452010788232,-0.0292452010788232,0.05220768204,1.33416
0.58,1.63665888855508,0.158914420958985,-0.290210979073892,-4.72262260185296,2.61070273586694,-9.52265607631579,-1.77535023374354,2.33359915062377,-1.94890126454592,0.863967947611677,-0.553339422477831,-5.5507948836365,-0.0292452010788232,0.0292452010788232,-0.05220768204,1.33416
0.59,1.69255346461287,0.162344660568213,-0.302759536903336,-3.20810335894868,2.20654996554491,-8.38477074414838,2.55287394909323,-0.866325254276259,1.91911242733812,0.799928421076545,-0.719139783323052,-5.63713733146179,0.0292452010788232,-0.0292452010788232,0.05220768204,1.33416
0.6,1.7496782598028,0.16814512635699,-0.313005636241224,-4.25670667264584,3.49794419564911,-9.56983499271212,-1.75052321046821,2.3660393185332,-1.93741990549487,0.942661085245893,-0.609729145275967,-5.72348864354248,-0.0292452010788232,0.0292452010788232,-0.05220768204,1.33416
0.61,1.80744999985209,0.171305354040833,-0.32582016767432,-2.71035171444262,3.10291554551488,-8.42923239653496,2.57743885715733,-0.835040074352652,1.93036219084409,0.876169671041691,-0.782103538294957,-5.80847422261573,0.0292452010788232,-0.0292452010788232,0.05220768204,1.33416
0.62,1.86647163503836,0.176899819448458,-0.336219715978712,-3.76301315222218,4.42271337172641,-9.59846317241619,-1.72677887192554,2.39726155693004,-1.92649681323655,1.02429490454921,-0.668774594311913,-5.89352026996241,-0.0292452010788232,0.0292452010788232,-0.05220768204,1.33416
0.63,1.92611795436857,0.179733837562602,-0.349256173619737,-2.18461512373735,4.03551145272585,-8.45504142068,2.60093134193712,-0.804921714125521,1.94106293929491,0.955286138908565,-0.847693552634736,-5.97708013958481,0.0292452010788232,-0.0292452010788232,0.05220768204,1.33416
0.64,1.98703403376102,0.185064344779898,-0.359763336551848,-3.2421168890656,5.38340216540516,-9.6079672875353,-1.7040782285506,2.42731845237831,-1.91611066655765,1.10875260627366,-0.730417648295691,-6.06077493422838,-0.0292452010788232,0.0292452010788232,-0.05220768204,1.33416
0.65,2.04855103376939,0.187514006658834,-0.372975410790209,-1.63147102856486,5.00277188831206,-8.4615815358591,2.62339053128428,-0.775920015673357,1.95123588120731,1.03716118362187,-0.915843020400696,-6.14284450653641,0.0292452010788232,-0.0292452010788232,0.05220768204,1.33416
0.66,2.1113577406108,0.192520557915883,-0.38354217493945,-2.69448205250564,6.37843891622308,-9.59773010005266,-1.68238289830855,2.45625959472787,-1.90624054764682,1.19591169479466,-0.794592560035405,-6.22514760669702,-0.0292452010788232,0.0292452010788232,-0.05220768204,1.33416
0.67,2.17474003998942,0.19452586099923,-0.396881415021281,-1.05138433510113,6.0031640297686,-8.4481954604162,2.6448548709907,-0.747987692492603,1.9609017946225,1.12167285004944,-0.986477899291784,-6.30566695766978,0.0292452010788232,-0.0292452010788232,0.05220768204,1.33416
0.68,2.23943196369592,0.199146514436262,-0.407457709011541,-2.12046027917877,7.40628484636143,-9.56708881343974,-1.66165518599197,2.48413179221703,-1.896865976111,1.2856447885351,-0.861226523077541,-6.38654371390862,-0.0292452010788232,0.0292452010788232,-0.05220768204,1.33416
0.69,2.30467253220718,0.200645693807897,-0.420873645631259,-0.444705723784024,7.03518452527202,-8.41418309597126,2.66536205493631,-0.721080120817773,1.97008099708034,1.20869466750847,-1.05951752555173,-6.46545795379161,0.0292452010788232,-0.0292452010788232,0.05220768204,1.33416
0.7,2.3712424984057,0.204816660703496,-0.431407462485124,-1.52028865834211,8.4654305246153,-9.51533265948026,-1.64185815006442,2.51097927072765,-1.88796693717556,1.37782044927943,-0.930240274733047,-6.5448797132621,-0.0292452010788232,0.0292452010788232,-0.05220768204,1.33416
0.71,2.43833249390484,0.205746283529854,-0.444847732038783,0.188330181727213,8.0973560075477,-8.35879897840291,2.68494896678876,-0.695155146581368,1.97879332101588,1.29809646625601,-1.13487526128112,-6.62213931514037,0.0292452010788232,-0.0292452010788232,0.05220768204,1.33416
0.72,2.50677139803045,0.20940202732401,-0.455285252961343,-0.894087492779655,9.55439232350404,-9.44169974795973,-1.62295565830752,2.53684385813832,-1.87952390466021,1.47230402706551,-1.00154873038423,-6.70008358370772,-0.0292452010788232,0.0292452010788232,-0.05220768204,1.33416
0.73,2.57570000735151,0.209697088609768,-0.468695723584193,0.8476068486595,9.18822359961027,-8.28124902612811,2.70365163207043,-0.670172907047888,1.98705809401829,1.38974520858286,-1.21245916895699,-6.77564466918563,0.0292452010788232,-0.0292452010788232,0.05220768204,1.33416
0.74,2.64599665242817,0.212770426088964,-0.478981443307892,-0.241857770192647,10.6717088410581,-9.34537319859783,-1.6049124334212,2.56176515470493,-1.8715178592728,1.56895851702021,-1.07506164398051,-6.8520952312999,-0.0292452010788232,0.0292452010788232,-0.05220768204,1.33416
0.75,2.7167509367116,0.212364446104764,-0.492306342798221,1.53312813514536,10.3063513829354,-8.1806866085646,2.72150517951122,-0.646095666178995,1.99489412344048,1.4835058308557,-1.29217270799531,-6.92591981247949,0.0292452010788232,-0.0292452010788232,0.05220768204,1.33416
0.76,2.78889187590363,0.214786651050715,-0.502383196609597,0.436521721336466,11.8159372567497,-9.22547656640758,-1.58769408962687,2.58578069037399,-1.86393030271603,1.66764542424908,-1.15068428968567,-7.00086680882333,-0.0292452010788232,0.0292452010788232,-0.05220768204,1.33416
0.77,2.86145662090923,0.213611774728553,-0.515565242320348,2.24502091904262,11.450318796832,-8.05620795025361,2.73854381070104,-0.622887662815715,2.00231968489237,1.57924209262004,-1.37391544826902,-7.0729229860156,0.0292452010788232,-0.0292452010788232,0.05220768204,1.33416
0.78,2.93542600539807,0.215312684271371,-0.525374734868805,1.14129770108803,12.9856495888492,-9.08106856368265,-1.57126716123043,2.60892606990478,-1.85674326805891,1.76822563269406,-1.22831815973099,-7.14636294909842,-0.0292452010788232,0.0292452010788232,-0.05220768204,1.33416
0.79,3.00978357731451,0.213299782808715,-0.53835526562806,2.98353811797076,12.6187169358908,-7.9068468790956,2.7548007771441,-0.600514970797175,2.00935251419227,1.67681742869961,-1.45758379560756,-7.21662506394646,0.0292452010788232,-0.0292452010788232,0.05220768204,1.33416
0.8,3.08556301002486,0.214207906669182,-0.547837601596579,1.87284619443081,14.1794288181072,-8.91113707419612,-1.55559912401723,2.63123510664307,-1.84993932678464,1.87056027373125,-1.30786167365259,-7.28856091197835,-0.0292452010788232,0.0292452010788232,-0.05220768204,1.33416
0.81,3.16159279311679,0.211311223482536,-0.560563988089432,3.74906216200143,13.8101447103113,-7.73156892069541,2.77030836389799,-0.578945370172337,2.01600980238878,1.7760958001027,-1.54307172444879,-7.34664613266643,0.0292452010788232,-0.0292452010788232,0.05220768204,1.26368804191011
0.82,3.23866863049347,0.211466345971141,-0.569708588798062,2.63167689039199,15.3958648400006,-8.71459244812455,-1.54065841027218,2.65273994575249,-1.84350159288969,1.97423667286829,-1.3893705607364,-7.37667702483246,-0.0292452010788232,0.0292452010788232,-0.05220768204,1.05930086584848
0.83,3.31541732133637,0.207867151372506,-0.58219331309853,4.54210897888378,15.0232048315986,-7.52926473514471,2.78509787905502,-0.558148228700553,2.02230819350104,1.87694806017977,-1.62901136510631,-7.37666786827919,0.0292452010788232,-0.0292452010788232,0.05220768204,0.880760295983357
0.84,3.39276213417717,0.207445158512455,-0.591069861985498,3.41843812551365,16.6335502047904,-8.49026005992341,-1.52641441814614,2.67347117767109,-1.83741372437468,2.07678735681978,-1.47279334730598,-7.35729207967403,-0.0292452010788232,0.0292452010788232,-0.05220768204,0.732798944868828
0.85,3.46936252411155,0.203338749122066,-0.60334385180273,5.36333254939441,16.2564995835192,-7.29874288796305,2.79919964839179,-0.538094392877569,2.02826378465739,1.9771681857078,-1.71378387557692,-7.31471683767568,0.0292452010788232,-0.0292452010788232,0.05220768204,0.602895964591123
0.86,3.54623164490358,0.202170649460984,-0.611967932946573,4.22744745959519,17.6545484310496,-8.26000259423338,-1.51283751602358,2.27882488458055,-1.83165992243641,2.14580938756344,-1.55639240734147,-7.26767874798821,-0.0292452010788232,0.0254305769457709,-0.05220768204,0.497566382934549
0.87,3.62204143832039,0.197410191940884,-0.624007552934825,6.19339146450502,17.0400909385491,-7.08204632403527,2.80770537357515,-0.925096484546883,2.0328175913565,2.01504042182711,-1.79562046580158,-7.20157976230323,0.0292452010788232,-0.0292452010788232,0.05220768204,0.39604688357059
0.88,3.69788261901466,0.195947440894144,-0.632495940081832,5.05948933863538,18.4712447169067,-8.01988741304813,-1.49937124722714,2.31441790974255,-1.82532799312983,2.18372869593994,-1.63894645987493,-7.12782953955922,-0.0292452010788232,0.0292452010788232,-0.05220768204,0.315593220264469
0.89,3.77244083651332,0.190985642078059,-0.644388322787235,7.04963974437948,17.8600000713104,-6.8403724326951,2.82123089798478,-0.890467803426915,2.03906173342601,2.05357391679001,-1.87472187526534,-7.03690359202804,0.0292452010788232,-0.0292452010788232,0.05220768204,0.242614257691429
0.9,3.84686071355654,0.189325963953134,-0.652791537254105,5.9177855236606,19.3234602151298,-7.75376646723661,-1.48653774611567,2.34868744703939,-1.81935465515407,2.22081654850774,-1.71941960649824,-6.94466964761332,-0.0292452010788232,0.0292452010788232,-0.05220768204,0.189265108970504
0.91,3.91984557220231,0.184261403999344,-0.664567722044197,7.93252655459043,18.7141815232917,-6.57242137788193,2.83412320348002,-0.857122432528357,2.04495199091578,2.09144873542742,-1.95039085525638,-6.83615363867717,0.0292452010788232,-0.0292452010788232,0.05220768204,0.137389008228457
0.92,3.99257995993005,0.182473861051054,-0.672925005074522,6.80294027037984,20.209143170683,-7.46028086733242,-1.47431251837304,2.38168360298854,-1.81372442668895,2.25607241956924,-1.79689837560128,-6.73161198682153,-0.0292452010788232,0.0292452010788232,-0.05220768204,0.104555531514768
0.93,4.0637802097105,0.177375286736167,-0.684609215409934,8.84262912638087,19.6006071803205,-6.2768384838417,2.84640703949654,-0.825011950394839,2.0505037613504,2.12754583036006,-2.02206635426909,-6.61095412166063,0.0292452010788232,-0.0292452010788232,0.05220768204,0.06813953797504
0.94,4.13468227175334,0.175498786005904,-0.692944840622439,7.71569100370867,21.1262570139267,-7.1380074773834,-1.46267149488394,2.41345434578687,-1.80842222574597,2.28862936309823,-1.87066652863556,-6.50106494530127,-0.0292452010788232,0.0292452010788232,-0.05220768204,0.066708
0.95,4.20404564361292,0.170382755568973,-0.704539996934292,9.78065624951508,20.5172611636358,-5.95220861753346,2.85810668175131,-0.794090001920376,2.05573202890756,2.16090291058624,-2.08936587369484,-6.37840392162805,0.0292452010788232,-0.0292452010788232,0.05220768204,0.066708
0.96,4.27311470306031,0.168412010649988,-0.712850293105405,8.65691262907539,22.0727749242484,-6.78545227285324,-1.45159108191844,2.44404562173407,-1.80343338339787,2.31793040616309,-1.94010991788786,-6.26880933256339,-0.0292452010788232,0.0292452010788232,-0.05220768204,0.066708
0.97,4.34064253598947,0.163275610650306,-0.724351395211066,10.7474519088436,21.4621345186466,-5.59705009434984,2.86924588773049,-0.764312184974889,2.06065135330248,2.19085589396386,-2.15211829029598,-6.14452594294847,0.0292452010788232,-0.0292452010788232,0.05220768204,0.066708
0.98,4.40787960672215,0.161204726534279,-0.73263239189522,9.62762208203254,23.0466741374398,-6.40104319777248,-1.441048203344,2.47350146388611,-1.7987436539618,2.34346762678811,-2.00498748262162,-6.03531740299476,-0.0292452010788232,0.0292452010788232,-0.05220768204,0.066708
0.99,4.47357298539028,0.156045024003856,-0.744034434887211,11.7439990712234,22.4332196604798,-5.20980817393519,2.87984785963747,-0.735635944705476,2.06527586152357,2.21691340029211,-2.21009235762838,-5.90959202488963,0.0292452010788232,-0.0292452010788232,0.05220768204,0.066708
1,4.53897879032261,0.153868122549843,-0.752282288795422,10.6289831202871,24.0459299520569,-5.98312258334399,-1.43102033561809,2.50186409344301,-1.7943392224229,2.36476741822649,-2.06507967744934,-5.80087701233671,-0.0292452010788232,0.0292452010788232,-0.05220768204,0.066708
1.01,4.6028385356316,0.148682163840661,-0.763580288737059,12.7714236131819,23.4285045354221,-4.78884822250234,2.88993521408494,-0.708020475003654,2.06961924214527,2.23861927457672,-2.26307371275457,-5.67390002798491,0.0292452010788232,-0.0292452010788232,0.05220768204,0.066708
1.02,4.66641349885649,0.146393402818716,-0.771791287948603,11.6623113433972,25.068509389401,-5.5299392023917,-1.42148553625976,2.52917401435528,-1.79020670936745,2.38139216400154,-2.12018274143534,-5.56580141087367,-0.0292452010788232,0.0292452010788232,-0.05220768204,0.066708
1.03,4.72844015995313,0.141178213076612,-0.782980307746317,13.8309983592182,24.4459664576851,-4.33244863172577,2.89952995786804,-0.681426626650523,2.07369474196149,2.25555266966797,-2.31086517410682,-5.43777296788215,0.0292452010788232,-0.0292452010788232,0.05220768204,0.066708
1.04,4.79017380184214,0.138532210884258,-0.79111038315058,12.7033543889996,25.8825091652606,-5.10180255132108,-1.41242246644617,2.14231760816207,-1.78633317367696,2.37047403157215,-2.17010902177296,-5.33974715177381,-0.0292452010788232,0.0254441981390823,-0.05220768204,0.066708
1.05,4.85035167690939,0.133046559344676,-0.802138960183212,14.8654323175355,25.0280144617755,-3.96031240445229,2.90385521133158,-1.06070626525586,2.07651553269326,2.22357855987617,-2.35281210048268,-5.22024510207743,0.0292452010788232,-0.0292452010788232,0.05220768204,0.066708
1.06,4.91025115712414,0.130292200445213,-0.810230739688793,13.7507525863806,26.4993120198517,-4.69493597636053,-1.4030508027264,2.18390289368976,-1.78167706379254,2.33577726071305,-2.21479528612714,-5.12337170367252,-0.0292452010788232,0.0292452010788232,-0.05220768204,0.066708
1.07,4.96859437626475,0.124778611496852,-0.821137184385748,15.9282290103165,25.6481419621304,-3.55597663144054,2.91345629368246,-1.0201247082355,2.08114407667575,2.19131267061461,-2.38959015922888,-5.00208175039208,0.0292452010788232,-0.0292452010788232,0.05220768204,0.066708
1.08,5.02666005388757,0.121911429631617,-0.829186963388487,14.8271546378035,27.1528965233584,-4.25433588406257,-1.39415891049878,2.22391985068836,-1.77732618137414,2.30037252601612,-2.25424758265931,-4.90643251191908,-0.0292452010788232,0.0292452010788232,-0.05220768204,0.066708
1.09,5.08316899433211,0.116368036048251,-0.839968001540614,17.0203272826177,26.3037257319848,-3.11783103943825,2.92257097621682,-0.98107002130417,2.08547024603227,2.15815539149179,-2.42102340005837,-4.78364029424927,0.0292452010788232,-0.0292452010788232,0.05220768204,0.066708
1.1,5.13940098341934,0.113383574554306,-0.847972208001774,15.9336955946412,27.8406216610061,-3.77828900338424,-1.38572735591932,2.26242710152352,-1.77326613294287,2.26368379609488,-2.28830259431299,-4.68929804875217,-0.0292452010788232,0.0292452010788232,-0.05220768204,0.066708
1.11,5.19407580530221,0.107808443984806,-0.858624556319261,18.1427868460771,26.9921523004692,-2.64421857945531,2.93121913956094,-0.943485263150491,2.08950838054566,2.12354896028299,-2.44695412312652,-4.5652889138883,0.0292452010788232,-0.0292452010788232,0.05220768204,0.066708
1.12,5.24847396777163,0.104702274461271,-0.866579757099464,17.0716370871263,28.5598514760802,-3.26502536075239,-1.37773698238137,2.29948095862573,-1.76948295015215,2.22517730108429,-2.31681419867493,-4.47234768703018,-0.0292452010788232,0.0292452010788232,-0.05220768204,0.066708
1.13,5.30131460728554,0.099093410087634,-0.877100147383515,19.2967892242678,27.7108116732347,-2.13343172561208,2.93942033418388,-0.90731573620061,2.09327238315494,2.08697727135462,-2.46724287341064,-4.34740727649704,0.0292452010788232,-0.0292452010788232,0.05220768204,0.066708
1.14,5.35387854735841,0.0958611510662691,-0.885003053962841,18.2423687612282,29.3079482601149,-2.71271386707863,-1.37016896588317,2.3351355331505,-1.76596309771507,2.18436135109297,-2.33965346817894,-4.25597220436914,-0.0292452010788232,0.0292452010788232,-0.05220768204,0.066708
1.15,5.40488471135414,0.0902164926179949,-0.895388256984323,20.4836380807293,28.4570908414157,-1.58370910157653,2.94719373072868,-0.872508880370016,2.09677571384279,2.04796568277078,-2.48176846330045,-4.1303868608526,0.0292452010788232,-0.0292452010788232,0.05220768204,0.066708
1.16,5.45561377155526,0.0868538281949053,-0.90323573055641,19.4474090444829,30.0822654773192,-2.11945835916653,-1.36300486205268,2.36944283713377,-1.76269347882117,2.14078614697116,-2.35670870193796,-4.04057394325385,-0.0292452010788232,0.0292452010788232,-0.05220768204,0.066708
1.17,5.50478493360031,0.0811712533606661,-0.913482579482438,21.704758805726,29.2283670686945,-0.993232632277425,2.95455807818162,-0.83901417326664,2.1000313858733,2.00608081926053,-2.49042801486086,-3.9146309550964,0.0292452010788232,-0.0292452010788232,0.05220768204,0.066708
1.18,5.55367819231523,0.0776739517398203,-0.92127163538397,20.6884050819471,30.8801404143914,-1.48329432091199,-1.35622664561155,2.40245287955975,-1.75966143827038,2.09404358016165,-2.36788548015091,-3.82656666210827,-0.0292452010788232,0.0292452010788232,-0.05220768204,0.066708
1.19,5.6010135902199,0.0719512780059301,-0.931377048580239,22.9616972004379,30.0220009544762,-0.360125448999484,2.96153166913325,-0.806783036422122,2.10305196416091,1.96093036670904,-2.49313701363461,-3.70055436136473,0.0292452010788232,-0.0292452010788232,0.05220768204,0.066708
1.2,5.64806663900695,0.0682693466293917,-0.939096019577957,21.952692167633,31.6399095636945,-0.831046295433842,-1.34981674300451,2.32242174165114,-1.75685476354162,2.03963009279805,-2.37310673255391,-3.61656727315769,-0.0292452010788232,0.0282167145400011,-0.05220768204,0.066708
1.21,5.69356105156182,0.062458205945701,-0.949047015575352,24.2251824279088,30.7184280661015,0.260509541426622,2.96685540996535,-0.885324921935467,2.10559107139085,1.90414296284056,-2.48975555208024,-3.49294852222857,0.0292452010788232,-0.0292452010788232,0.05220768204,0.066708
1.22,5.73877524496982,0.058637041340154,-0.956702920898659,23.2401714163055,32.3625198446975,-0.160844680917728,-1.34351096651861,2.35738114265473,-1.75395990624481,1.97813885614263,-2.37233491901593,-3.41091899725261,-0.0292452010788232,0.0292452010788232,-0.05220768204,0.066708
1.23,5.78243144829848,0.0527823387987194,-0.966505917797665,25.525291616978,31.4377152085956,0.925501418052202,2.97339001350825,-0.851175339083123,2.10848340297581,1.84459711305445,-2.48039466364002,-3.28747739069588,0.0292452010788232,-0.0292452010788232,0.05220768204,0.066708
1.24,5.82580537957695,0.0488183022074579,-0.974096133719642,24.566272228477,33.1063320450351,0.556127621024199,-1.33755853691596,2.39101299774408,-1.75128945217598,1.91362926611202,-2.36557111845487,-3.20754190920272,-0.0292452010788232,0.0292452010788232,-0.05220768204,0.066708
1.25,5.86762216165008,0.0429180444615177,-0.983748656515096,26.8636609626695,32.1770238708789,1.63673805029077,2.97956539612839,-0.818319689615374,2.11115347042684,1.78194516889093,-2.46501241851275,-3.08458428301403,0.0292452010788232,-0.0292452010788232,0.05220768204,0.066708
1.26,5.9091423859211,0.0386696225466524,-0.99124270437194,25.8682480505407,33.6656956454802,1.20058822980257,-1.33194284879636,2.02669147644693,-1.74883147991101,1.83354527353508,-2.3527794722212,-3.01395572970558,-0.0292452010788232,0.0255957901566888,-0.05220768204,0.066708
1.27,5.94910377684116,0.0325821799818353,-1.00071075191532,28.1059209969231,32.5315529883241,2.15621807838147,2.98088824221966,-1.17545166994622,2.11270802457148,1.69219541068934,-2.44338383552999,-2.89870429323322,0.0292452010788232,-0.0292452010788232,0.05220768204,0.066708
1.28,5.98880313044462,0.0281800652925069,-1.00812250990811,27.1406333016856,34.0505966690717,1.77371052030609,-1.32573273769643,2.07343212883118,-1.74548252043998,1.74050007219329,-2.33401057430468,-2.83311994201916,-0.0292452010788232,0.0292452010788232,-0.05220768204,0.0881467734420536
1.29,6.0269552256357,0.0220221276812247,-1.01741425009333,29.381898938558,32.9214897634873,2.71951055656431,2.98746044507887,-1.12975891951005,2.11607459368408,1.6024341201444,-2.41606713554651,-2.71904661136323,0.0292452010788232,-0.0292452010788232,0.05220768204,0.0758492127535413
1.3,6.06487112014448,0.0174376459693968,-1.02471576073758,28.4479853666294,34.4689171666377,2.39260530238297,-1.31989487226096,2.11838799158134,-1.74240388677104,1.64721298776527,-2.30943999144137,-2.65944019775122,-0.0292452010788232,0.0292452010788232,-0.05220768204,0.115077920188843
1.31,6.10126734638197,0.0111685027545732,-1.03379581426146,30.6926543946403,33.3435210163787,3.32806927024252,2.99364931964417,-1.0858075249726,2.11917256556707,1.51222776980168,-2.38312556466947,-2.54916218491741,0.0292452010788232,-0.0292452010788232,0.05220768204,0.100255238103091
1.32,6.1374486954175,0.00636393568842634,-1.04094869687916,29.7915721629712,34.9172982130486,3.05884835245363,-1.31441256994145,2.16162570437938,-1.73958128905127,1.55335389015378,-2.27909863936272,-2.49523089285583,-0.0292452010788232,0.0292452010788232,-0.05220768204,0.13908889744234
1.33,6.17213433289613,-5.36556848793786e-05,-1.04978337970688,32.0393245143665,33.7943389107001,3.98335476377519,2.99947211187847,-1.04353259318161,2.12201617209857,1.42124734848503,-2.34465942373716,-2.38870961632095,0.0292452010788232,-0.0292452010788232,0.05220768204,0.121951318389745
1.34,6.20662206523913,-0.00511270779662824,-1.05675141235268,31.17273509816,35.3923794111744,3.77402271772888,-1.30926939293793,2.20320938533489,-1.73700094067581,1.45861658673649,-2.24310394798528,-2.34017820374459,-0.0292452010788232,0.0292452010788232,-0.05220768204,0.160343118468018
1.35,6.23963473847307,-0.0117127445172353,-1.06530893385941,33.4231142778038,34.2706352523286,4.68682822598681,3.00494576795008,-1.00287168622596,2.12461913333377,1.32921472293951,-2.30077708713345,-2.23738587343889,0.0292452010788232,-0.0292452010788232,0.05220768204,0.141089133260516
1.36,6.27246230026609,-0.0170575441356875,-1.07205820757016,32.5928781584793,35.8907927924619,4.53971155339507,-1.30444920428862,2.24320073852051,-1.7346495585799,1.36274462015562,-2.20157954721061,-2.19400513128976,-0.0292452010788232,0.0292452010788232,-0.05220768204,0.178996664990635
1.37,6.30383247191379,-0.0238709631457358,-1.0803088491514,34.8452850225953,34.7690959717501,5.43994381089601,3.01008688397273,-0.963764716113747,2.12699465874039,1.23589899110831,-2.25159481034753,-2.09492454206367,0.0292452010788232,-0.0292452010788232,0.05220768204,0.157813590103325
1.38,6.33502632930259,-0.0295297828179176,-1.08680790474455,34.0534548501006,36.4091569456093,5.35748894324468,-1.29993621516868,2.28165915560993,-1.73251436156251,1.26552778971615,-2.15465520948597,-2.05646963665252,-0.0292452010788232,0.0292452010788232,-0.05220768204,0.195198087326144
1.39,6.36477779394258,-0.0365846132057612,-1.09472417888267,36.3071409918156,35.2863958742728,6.24413910655238,3.01491166400479,-0.926153845308174,2.1291554502653,1.14111321914003,-2.1972365908803,-1.96109376302099,0.0292452010788232,-0.0292452010788232,0.05220768204,0.17226273846573
1.4,6.39435793383426,-0.0425828536577582,-1.10094412608214,35.5559527256664,36.9440714783615,6.22890837490451,-1.29571502425893,2.31864181200278,-1.73058306682766,1.16679902883306,-2.10246683668733,-1.92736252529163,-0.0292452010788232,0.0292452010788232,-0.05220768204,0.209088516126363
1.41,6.42250830963104,-0.0499043410575996,-1.10850091565452,37.8100136776912,35.819193760297,7.10082346453439,3.01943588548646,-0.889983392732364,2.13111370705219,1.04471151536979,-2.13783406695815,-1.83569398067221,0.0292452010788232,-0.0292452010788232,0.05220768204,0.184567937171608
1.42,6.45047606407136,-0.0563283150825691,-1.11440327438909,37.0225566375881,37.350480434069,7.01995435370391,-1.29177064998093,2.0413194180332,-1.72884388492429,1.06068799643477,-2.0451564755113,-1.80977392463371,-0.0292452010788232,0.0263666651529679,-0.05220768204,0.22080196773304
1.43,6.47702073138043,-0.064001173834224,-1.12156559099286,39.191464641796,36.0834106270094,7.74270504646241,3.02015804967655,-1.16182639784648,2.13218876776453,0.935478088046961,-2.07342903968443,-1.72443666025387,0.0292452010788232,-0.0292452010788232,0.05220768204,0.191610800794783
1.44,6.50339109345905,-0.0707915946541233,-1.12714785487506,38.4461016858938,37.6355970894095,7.72945959486254,-1.2872883297281,2.08783298658979,-1.72638281105063,0.948564079668903,-1.98290873461322,-1.70146229701074,-0.0292452010788232,0.0292452010788232,-0.05220768204,0.22464319945941
1.45,6.52834350632562,-0.0787588805761079,-1.13391660922573,40.6113038280123,36.3741734850212,8.43688744091757,3.02504012977444,-1.1163237940705,2.13468751626047,0.826389264254837,-2.00434090802698,-1.61829051507954,0.0292452010788232,-0.0292452010788232,0.05220768204,0.195621751905109
1.46,6.55311637390996,-0.0859248234143808,-1.13916380144674,39.9095772746214,37.9447732609568,8.49328188389305,-1.28311652832853,2.13255834769198,-1.72416011488229,0.836453115965706,-1.91590965240746,-1.59856926711737,-0.0292452010788232,0.0292452010788232,-0.05220768204,0.229596192843682
1.47,6.57647736204474,-0.0941967253617173,-1.145525222511,42.0702866863149,36.6878525632348,9.18424875922051,3.0295996757167,-1.07256725313606,2.13694914511719,0.717207067040655,-1.9306648014772,-1.51803343556318,0.0292452010788232,-0.0292452010788232,0.05220768204,0.200442031076306
1.48,6.59965270243791,-0.101748352140254,-1.15042123083432,41.413883011259,38.274310457042,9.31236996206159,-1.27923968108231,2.17556234285535,-1.7221620869789,0.724154451079193,-1.84425346409361,-1.50175669121037,-0.0292452010788232,0.0292452010788232,-0.05220768204,0.234891170317868
1.49,6.62142258901402,-0.110335969817293,-1.15636098401529,43.569181576851,37.0208252268933,9.98561942828354,3.03385278086906,-1.03049163546444,2.13898728776632,0.607740673722321,-1.85251572355834,-1.42421727100174,0.0292452010788232,-0.0292452010788232,0.05220768204,0.205417754830685
1.5,6.6429993165327,-0.118283593597685,-1.16088959609053,42.9599121807245,38.6205118003296,10.1876106002716,-1.27564255162124,2.21690932886953,-1.72037556326093,0.611510240158673,-1.7680561510812,-1.41149384971553,-0.0292452010788232,0.0292452010788232,-0.05220768204,0.239985268003572
1.51,6.66317701610085,-0.127198091755752,-1.16639364028916,45.1087489826462,37.3694733796961,10.8417655545271,3.03781516249572,-0.990034221647117,2.14081502725964,0.497843614758547,-1.77002527452519,-1.33723059377091,0.0292452010788232,-0.0292452010788232,0.05220768204,0.210090735277629
1.52,6.68315228914201,-0.13555150350388,-1.17053933431486,44.5485281800146,38.979679668949,11.1198092042379,-1.27231027553768,2.25666127828766,-1.71878791906184,0.498403476748233,-1.68745137672847,-1.32811137489172,-0.0292452010788232,0.0292452010788232,-0.05220768204,0.244503826561803
1.53,6.7017347647736,-0.144803506132137,-1.1755945797033,46.6897189930162,37.7301816115902,11.7533706071066,3.04150212332297,-0.95113461409575,2.14244490344728,0.387410942095152,-1.68333915411391,-1.2573450782755,0.0292452010788232,-0.0292452010788232,0.05220768204,0.214147770924946
1.54,6.72010280035258,-0.153573176644773,-1.17934306379909,46.175975848699,39.3425548379342,12.1022117549014,-1.26922839617483,2.28073247376285,-1.71738706167942,0.384577975921484,-1.60258742962116,-1.25189582646848,-0.0292452010788232,0.0291150633901457,-0.05220768204,0.248196514130842
1.55,6.73708392708742,-0.163173996604632,-1.1839377377649,48.3034109874819,38.0883273439921,12.7062133501961,3.04477057969592,-0.927597136784312,2.14385816621762,0.276032617365318,-1.59261084343999,-1.18484221518888,0.0292452010788232,-0.0292452010788232,0.05220768204,0.217329540579364
1.56,6.75381840258023,-0.172401337859571,-1.18727771042907,47.7289679748758,39.5769461850785,12.9511882431085,-1.26634463979192,1.97950932409067,-1.71611950522955,0.266026261432485,-1.51362551570664,-1.18388638261758,-0.0292452010788232,0.0261308277404168,-0.05220768204,0.250815272498643
1.57,6.76917035296518,-0.182393070128627,-1.19140107434491,49.7277664187788,38.1964886587304,13.3507879997691,3.04421703496921,-1.22284429333987,2.14443566524944,0.156323548072999,-1.49790564325074,-1.12117522076041,0.0292452010788232,-0.0292452010788232,0.05220768204,0.218671426480471
1.58,6.78428388225434,-0.192039108461647,-1.19432411357523,49.2025591249071,39.6971499146458,13.6714830698595,-1.26276730747706,2.02869017453089,-1.71401476985377,0.143925581137375,-1.42074744598007,-1.12287663446147,-0.0292452010788232,0.0292452010788232,-0.05220768204,0.251024932038278
1.59,6.79801930279046,-0.202386400943265,-1.19796937590468,51.1932009329784,38.3263117432279,14.0536898619746,3.04824378479075,-1.1747120806273,2.14659256133598,0.0374340608042732,-1.39950310341444,-1.06308584750752,0.0292452010788232,-0.0292452010788232,0.05220768204,0.219420033935512
1.6,6.81150323862879,-0.212452409437652,-1.20046629542296,50.7182972333753,39.8361789948429,14.4515402881478,-1.25947567698078,2.0759721636272,-1.71214391025023,0.0225918292919205,-1.32410230625101,-1.06770749255167,-0.0292452010788232,0.0292452010788232,-0.05220768204,0.252042950863049
1.61,6.82361444675665,-0.223158193996177,-1.20362566836828,52.6996503897513,38.4739757560135,14.8148003243654,3.05197122329137,-1.12843484848367,2.14851657650825,-0.080770043452352,-1.29754191646116,-1.01125140419331,0.0292452010788232,-0.0292452010788232,0.05220768204,0.220736179284293
1.62,6.83546003267542,-0.233646197589387,-1.20568674101583,52.276164985957,39.9901455165515,15.2912218746864,-1.25645451593068,2.12142639313746,-1.71049281753821,-0.0980757661311744,-1.22382668209794,-1.01895576556028,-0.0292452010788232,0.0292452010788232,-0.05220768204,0.253234429716786
1.63,6.84593887842582,-0.244714060549536,-1.20835242842042,54.2470293944811,38.6356869098171,15.6339254805239,3.05541515927972,-1.08394326971647,2.15022173669409,-0.198382118614043,-1.19217825749321,-0.966153413500105,0.0292452010788232,-0.0292452010788232,0.05220768204,0.222085706463273
1.64,6.85613655492747,-0.255626020761131,-1.20996835116471,53.8760930270381,40.155187952073,16.1902887910422,-1.25368892219744,2.16512133969422,-1.70904797309577,-0.218140773434679,-1.12007616630089,-0.977031660041004,-0.0292452010788232,0.0292452010788232,-0.05220768204,0.254161458705004
1.65,6.86497388282313,-0.267059475999157,-1.21213333423618,55.8352043737589,38.8076800740713,16.5107734593252,3.05859102111507,-1.04117057536594,2.15172147349262,-0.315456895186134,-1.0835827719235,-0.92813224856244,0.0292452010788232,-0.0292452010788232,0.05220768204,0.223103654328417
1.66,6.8735128990808,-0.278396726248637,-1.21329592949387,55.5179308463359,40.3274735833929,17.1483761051599,-1.25116436981026,2.2071229584652,-1.70779643984441,-0.337631111653531,-1.01302168082514,-0.942225558257335,-0.0292452010788232,0.0292452010788232,-0.05220768204,0.254530949191421
1.67,6.88069827006122,-0.290198715087952,-1.21495453620703,57.4639666527091,38.9862213080631,17.4449317671487,3.06151381627623,-1.00005245320263,2.15302863407451,-0.43201282273689,-0.97193827944913,-0.897427228870574,0.0292452010788232,-0.0292452010788232,0.05220768204,0.223549337632582
1.68,6.8875665152986,-0.301961576983689,-1.21565724802323,57.2014176700941,40.503202072184,18.164968083434,-1.24886674648088,2.24749478159045,-1.70672585214885,-0.456540852482696,-0.902846712105525,-0.914742274966456,-0.0292452010788232,0.0292452010788232,-0.05220768204,0.254155877653398
1.69,6.89308811462245,-0.314134132038152,-1.216805553147,59.1330056789975,39.1676114413462,18.4358447328797,3.06419809878819,-0.960526951410903,2.15415549234635,-0.548034402109891,-0.857438014731471,-0.87420589567945,0.0292452010788232,-0.0292452010788232,0.05220768204,0.223272991309803
1.7,6.89825751001483,-0.326327836082517,-1.21705523888706,58.8502255278991,40.622901408172,19.1191563090881,-1.2467823836292,2.09678249905801,-1.70582440449286,-0.576488874981944,-0.78974522633722,-0.893687392006322,-0.0292452010788232,0.0275016583620928,-0.05220768204,0.25292653977718
1.71,6.90208774790689,-0.338878316904456,-1.21770015135496,60.6877282786543,39.2378813555138,19.24455059246,3.06455615118935,-1.10825958953851,2.15470899843461,-0.666704191230583,-0.74019802742655,-0.856518788012279,0.0292452010788232,-0.0292452010788232,0.05220768204,0.223258866400522
1.72,6.90556301354369,-0.35149490750096,-1.21747969155225,60.4580689080457,40.6901572992436,20.008619838295,-1.24435848621186,2.14153826480173,-1.70450583046759,-0.697130414264906,-0.673910908156797,-0.879145945723228,-0.0292452010788232,0.0292452010788232,-0.05220768204,0.252913862988591
1.73,6.90769883424778,-0.364420889792377,-1.21757907647978,62.1408699846268,39.3147034241244,20.1121589226215,2.81922491395974,-1.06444162775161,2.15608789717635,-0.784279466915371,-0.618277668520665,-0.84803578863273,0.0275426543460187,-0.0292452010788232,0.05220768204,0.22347782948372
1.74,6.90945886438301,-0.377459423222144,-1.21686057786032,61.8207914830366,40.761622325403,20.9502318646679,-1.4853873909841,2.18060142823155,-1.70383188211856,-0.816622637671998,-0.551324414947315,-0.874838191065636,-0.0292452010788232,0.0292452010788232,-0.05220768204,0.250454796914673
1.75,6.90989643003829,-0.390756114952454,-1.21644401746567,63.50101997387,39.3950375413529,21.0387996837739,2.83162457667984,-1.02313051903171,2.15773198290817,-0.900703660257854,-0.492427468892284,-0.847300464202651,0.0292452010788232,-0.0292452010788232,0.05220768204,0.220268145914737
1.76,6.90993717132192,-0.404209446674052,-1.21525788329616,63.2346028670037,40.8358318126415,21.94953463938,-1.47380387264362,2.22131832927134,-1.70239845443414,-0.934859135994837,-0.426934985586787,-0.87622599781414,-0.0292452010788232,0.0292452010788232,-0.05220768204,0.247065896822098
1.77,6.90866491993893,-0.417875156986545,-1.21432903123388,64.9104720519347,39.4775129790145,22.0209791316486,2.84340676039847,-0.983389448319319,2.15919626932597,-1.0159063455688,-0.364968365004143,-0.852679699758527,0.0292452010788232,-0.0292452010788232,0.05220768204,0.21819397488636
1.78,6.90697399590543,-0.431739702319937,-1.21267722636908,64.6971079202509,40.908877788872,23.0036559333178,-1.46280547450187,2.25825098947587,-1.70113637617712,-1.05179574170355,-0.300835989634446,-0.883943681507092,-0.0292452010788232,0.0292246641869175,-0.05220768204,0.244421778328048
1.79,6.90398063441397,-0.445774213806119,-1.21123885858382,66.3658918980615,39.5577810142298,23.0544039350706,2.85457543416811,-0.947347479200041,2.16048380205643,-1.12985903920133,-0.236017693334475,-0.86468518870633,0.0292452010788232,-0.0292452010788232,0.05220768204,0.216679183652635
1.8,6.90050941845264,-0.460044747094243,-1.20916728119901,66.0290126458382,40.8833756999973,23.8320689885344,-1.4523581985107,1.88617875774544,-1.70003202396297,-1.17088287454837,-0.173141718848381,-0.893836771269142,-0.0292452010788232,0.0254747554925914,-0.05220768204,0.242068428484696
1.81,6.8957477052688,-0.47444711774725,-1.20725846476411,67.508763927301,39.4467803627914,23.5886841919648,2.86068515295304,-1.31212148136352,2.16059996117767,-1.24938967268393,-0.105469361032288,-0.874848209812838,0.0292452010788232,-0.0292452010788232,0.05220768204,0.22000851371687
1.82,6.89053463398512,-0.489133303587442,-1.20470755599102,67.2211472993792,40.7706374320624,24.4356928947703,-1.44124596026573,1.93863129853453,-1.69812071925304,-1.29171814005754,-0.0439790422548452,-0.907305413622539,-0.0292452010788232,0.0292452010788232,-0.05220768204,0.248676879982941
1.83,6.88404357546549,-0.503919504458239,-1.20226552922758,68.7060692697432,39.3485100677017,24.1896289703924,2.87213079796432,-1.26087798224158,2.16256663524494,-1.36688000813579,0.0264397772915252,-0.893437573442081,0.0292452010788232,-0.0292452010788232,0.05220768204,0.226810016789621
1.84,6.87708585013973,-0.519029059805971,-1.19921730837493,68.4675302558943,40.6679987080255,25.1063130845929,-1.43073292621471,1.98907446075687,-1.69641977273409,-1.41038943361287,0.086690051420449,-0.929133483064297,-0.0292452010788232,0.0292452010788232,-0.05220768204,0.253833908646151
1.85,6.8688628297809,-0.534209113568535,-1.19622795334336,69.9555885575332,39.2596896809687,24.85502065074,2.88296848052174,-1.21159362327207,2.16432228034684,-1.48228941816981,0.159557801266124,-0.920457921062314,0.0292452010788232,-0.0292452010788232,0.05220768204,0.232237820900231
1.86,6.86015547131691,-0.549747493724148,-1.19266763719021,69.7658708788492,40.5721250816903,25.8415880671471,-1.42079109785572,2.03758377496582,-1.69491922838499,-1.52683764264908,0.218708888413405,-0.959314984261844,-0.0292452010788232,0.0292452010788232,-0.05220768204,0.257556129375218
1.87,6.85019184583595,-0.565326636418079,-1.18911785523199,71.2247506262213,39.177053199186,25.5826629076217,2.84014968344511,-1.16419491146138,2.16587700338574,-1.59554684148479,0.294230622920921,-0.955773683829202,0.0288810933406822,-0.0292452010788232,0.05220768204,0.236323549896679
1.88,6.83972410330104,-0.581294683046605,-1.18503234537921,71.0527425567277,40.4800396327749,26.6376627981972,-1.46340871046271,2.08338217057658,-1.69371507733083,-1.64099392754365,0.352899552758436,-0.997515018471955,-0.0292452010788232,0.0292452010788232,-0.05220768204,0.260016813522499
1.89,6.82801805000045,-0.597282345684655,-1.18091576572612,72.5134612040518,39.0974010398733,26.3706685208249,2.85194971553112,-1.11879160933637,2.16732063614888,-1.70654944553287,0.430238679422589,-0.999207863323597,0.0292452010788232,-0.0292452010788232,0.05220768204,0.239451377794598
1.9,6.81578623432803,-0.613685042173819,-1.17629839450096,72.3895002502455,40.3886979715071,27.493725084619,-1.45247351849805,2.12809674055697,-1.69249860121242,-1.75272641309799,0.488053014921577,-1.04384539725061,-0.0292452010788232,0.0292452010788232,-0.05220768204,0.261428612469152
1.91,6.80230765327576,-0.630067518619962,-1.17160400540187,73.7004665774602,39.0180529230824,27.2164165435231,2.60168177050902,-1.07512128552971,2.16858501190661,-1.81517827075835,0.569634528113153,-1.04956850981524,0.0274515856021045,-0.0292452010788232,0.05220768204,0.241531030535483
1.92,6.78828072238527,-0.646888867853863,-1.16644546590077,73.4725240816356,40.2969480678956,28.3999891327827,-1.69834261414684,2.16690884769892,-1.69193378578966,-1.86201808721917,0.629333702701375,-1.0954719685637,-0.0292452010788232,0.0292452010788232,-0.05220768204,0.263061618595489
1.93,6.77304867572204,-0.663694293112295,-1.16117054619542,74.7934884674394,38.9363814491376,28.1190765500175,2.62260915874307,-1.03401674424529,2.17014776218867,-1.9212720534668,0.712112754205303,-1.10645042253163,0.0292452010788232,-0.0292452010788232,0.05220768204,0.245529600544413
1.94,6.75724476484974,-0.680959511392252,-1.15546825311886,74.6127032305769,40.2028452902726,29.3615937152603,-1.67840279934595,2.20755702953258,-1.69054841488968,-1.96861550940693,0.771126079217071,-1.15481280756939,-0.0292452010788232,0.0292452010788232,-0.05220768204,0.26535566688936
1.95,6.74025405202527,-0.698197549665117,-1.14960720709506,75.941521167338,38.8520533331598,29.0745779810916,2.64257742539838,-0.994448071685083,2.17154827929502,-2.02470865249732,0.854827061649149,-1.17119043281131,0.0292452010788232,-0.0292452010788232,0.05220768204,0.248965236448932
1.96,6.72266613383102,-0.715911423974264,-1.14335454335718,75.8072225395485,40.1036612485294,30.3760968589678,-1.65938312247861,2.24668197911525,-1.68931965840038,-2.07235104732157,0.913311921968495,-1.22202397788437,-0.0292452010788232,0.0292452010788232,-0.05220768204,0.266958655777908
1.97,6.70391036943804,-0.733590869069062,-1.13690350271765,77.1418959114675,38.7623928767814,30.0806362712541,2.6616287840988,-0.956358349468024,2.17279175117251,-2.12531458150862,0.997645151315701,-1.24391161392644,0.0292452010788232,-0.0292452010788232,0.05220768204,0.251716947892603
1.98,6.68451117312802,-0.751749447503108,-1.13013112111036,76.9786078733414,39.9754719332609,31.3217871725721,-1.64124281882171,2.11791090681373,-1.68824226984552,-2.17510663364174,1.05575790736418,-1.29366370509303,-0.0292452010788232,0.0277140519969494,-0.05220768204,0.26778497508233
1.99,6.6639634666227,-0.769870579398465,-1.12311835702511,78.2414584844177,38.6224332483999,30.8991656303485,2.67797714868967,-1.08279357487686,2.17341573674913,-2.22701851378649,1.14057511484111,-1.31799172447677,0.0292452010788232,-0.0292452010788232,0.05220768204,0.257304509776102
2,6.64276943616583,-0.788494028988825,-1.11577520352879,78.1222443237068,39.8210310298972,32.1983678910408,-1.62343096516944,2.16070853584905,-1.68702396474015,-2.2767879126514,1.19829572961982,-1.37103654013965,-0.0292452010788232,0.0292452010788232,-0.05220768204,0.274575958203066
2.01,6.62044665012598,-0.807082349099068,-1.10814934194426,79.3939956207531,38.4789440786144,31.7722579447339,2.69588539912326,-1.04108877907183,2.17466407317581,-2.32554834773861,1.28338068162111,-1.40164930294754,0.0292452010788232,-0.0292452010788232,0.05220768204,0.264455049299672
2.02,6.59745124441174,-0.826180228627985,-1.10022078046595,79.317871162588,39.6606265176127,33.1291748398323,-1.60646173447897,2.20189179511597,-1.68595997612773,-2.37503775073583,1.34089076087318,-1.45773982101564,-0.0292452010788232,0.0292452010788232,-0.05220768204,0.2790571885963
2.03,6.57334728787198,-0.845248789328545,-1.09197204806197,80.5966231442614,38.329307679609,32.6972756940025,2.71295171638738,-1.00095341318552,2.17575730574828,-2.42069072057921,1.42588955891302,-1.49452953949604,0.0292452010788232,-0.0292452010788232,0.05220768204,0.26956130509006
2.04,6.54854211679631,-0.864827317013261,-1.08344821776895,80.5624427625612,39.4916275232498,34.1113686938253,-1.59029708250865,2.24152069268516,-1.68504469572835,-2.46963641223533,1.48336277373094,-1.5534607447421,-0.0292452010788232,0.0292452010788232,-0.05220768204,0.28161947875738
2.05,6.52260232566097,-0.88433101928758,-1.07458369995735,81.6505069793728,38.1709397331284,33.6715556973602,2.38720914908954,-0.962329287005967,2.17670126709839,-2.51221601867816,1.57323246793874,-1.59128209414487,0.026899046999154,-0.0292452010788232,0.05220768204,0.272975802487453
2.06,6.49593282724456,-0.90434680844973,-1.0654725711976,81.4593535873908,39.3152565029767,35.1330753767431,-1.91006525373874,2.27415050297758,-1.68483610070961,-2.56064879612088,1.63603290883178,-1.64788966638478,-0.0292452010788232,0.0292452010788232,-0.05220768204,0.287750131866879
2.07,6.46820429907563,-0.924365982167167,-1.05595774809608,82.5656714415554,38.0022310394711,34.6942085060274,2.41619569265392,-0.926372408170767,2.17824029883502,-2.59987188980944,1.72541325539573,-1.69272553848887,0.0292452010788232,-0.0292452010788232,0.05220768204,0.285237657218917
2.08,6.43966961423937,-0.944877810825184,-1.04632102102008,82.2592916150852,39.1038698489503,35.9481099459868,-1.88215802389644,1.95877029809498,-1.68342889145175,-2.65356091889898,1.78843230966511,-1.74310726773109,-0.0292452010788232,0.026014972646264,-0.05220768204,0.296656535004068
2.09,6.41010109002128,-0.965418348115415,-1.03622363533741,83.2237283124427,37.7716887409568,35.2606162120289,2.44007221699511,-1.23581211803162,2.17849379885639,-2.69536244038282,1.87735075620619,-1.78668978713777,0.0292452010788232,-0.0292452010788232,0.05220768204,0.304184671013007
2.1,6.37975451166446,-0.98649101785484,-1.02591495603272,82.957992952137,38.8642701579901,36.5613861888046,-1.85437478941938,2.0070201534573,-1.68184913882919,-2.74846993430259,1.94027562133088,-1.8421874233404,-0.0292452010788232,0.0292452010788232,-0.05220768204,0.320624048407473
2.11,6.3483994411036,-1.00762393909574,-1.01508608352906,83.9505443234593,37.5410748941594,35.8898115878682,2.46780725549848,-1.18889461169042,2.1801020021642,-2.7868786982863,2.02860101241795,-1.89423809246974,0.0292452010788232,-0.0292452010788232,0.05220768204,0.326749937151005
