Time_s,Height_m,X_m,Y_m,Roll_deg,Pitch_deg,Yaw_deg,p,q,r,u,v,w,tx,ty,tz,Thrust
0.01,0.000981,0,0,-0.728892128279883,0.5435,0,-1.27215675303528,0.948586448458918,0,0,0,-0.0981,-0.00872699532582205,0.00872699532582205,0,1.33416
0.02,0.00294106286547641,-4.99651180116347e-05,-6.70149189851043e-05,0.999564698213525,-0.745083906462286,0.0175789972201132,3.01643522733492,-2.24921148473017,0.00206720097775458,-0.00313702581692154,-0.0042070189250784,-0.196114251269072,0.0292452010788232,-0.0292452010788232,0,1.33416
0.03,0.00588161641621848,-1.12058415978655e-05,-1.49782588426225e-05,0.250603039558077,-0.186701117059692,0.0251837999652154,-1.3070120935243,0.974645038238027,-0.00373130302667155,5.33588687224563e-05,7.14991997235476e-05,-0.294126919617336,-0.0292452010788232,0.0292452010788232,-0.000237402463089971,1.33416
0.04,0.00980149655990117,-6.00775086371707e-05,-8.05688806408259e-05,1.9593113581642,-1.46079636180033,0.0325733169633059,2.98230063748087,-2.22363802040357,0.0226231121435858,-0.00616733321587494,-0.00827126251162848,-0.391937570693238,0.0292452010788232,-0.0292452010788232,0.000329173294505058,1.33416
0.05,0.0146959316374132,6.73499793251921e-05,9.03413526069112e-05,1.1929420688331,-0.885413146375076,-0.0258715688200453,-1.34016716076649,1.00015962755921,-0.136247300387346,0.000270962656432143,0.000334150907903239,-0.489907381989065,-0.0292452010788232,0.0292452010788232,-0.00231916763674207,1.33416
0.06,0.020573521339301,6.84225719749343e-05,9.18743345752076e-05,2.87625949762578,-2.15448383300533,0.446051085768876,2.95067097522115,-2.19732016022002,0.869497111856316,-0.00897532082878032,-0.0120819683808722,-0.587566261538505,0.0292452010788232,-0.0292452010788232,0.0136698809913145,1.33416
0.07,0.0274145977504263,0.000335223265545542,0.00044363835899081,2.16013515675123,-1.47176676980628,-1.21818681212376,-1.35906984154937,1.04441557683337,-2.95872493357344,0.00121572927158505,0.000569085933247084,-0.685529480155093,-0.0292452010788232,0.0292452010788232,-0.05220768204,1.33416
0.08,0.0352461407609608,0.000430941054775482,0.000577126256556117,3.83870951239646,-2.70874024962272,-0.734425550115445,2.95135080481929,-2.12557766281311,0.924819754620207,-0.0108320500897875,-0.015978687961517,-0.783088639056981,0.0292452010788232,-0.0292452010788232,0.05220768204,1.33416
0.09,0.0440252402623898,0.000884148184141643,0.00117038192425269,3.13714941157238,-1.95936532913228,-2.35406298027704,-1.35804464564203,1.11593441986344,-2.90486889720039,0.00301778848205507,0.000917588694734055,-0.881072880888518,-0.0292452010788232,0.0292452010788232,-0.05220768204,1.33416
0.1,0.0538055398899512,0.00111500219523912,0.00149933224352033,4.81235770578089,-3.16628963669291,-1.85886514410794,2.95334049872694,-2.05605220836839,0.977763215521987,-0.0117374671159767,-0.0197684134454222,-0.978585238297715,0.0292452010788232,-0.0292452010788232,0.05220768204,1.33416
0.11,0.0645128902798047,0.00179536792025904,0.00239489634158815,4.12250500616349,-2.35244084458348,-3.43337167875649,-1.35580506662318,1.18523867086395,-2.85332880129543,0.00585535974302383,0.00140147172972203,-1.0766088426562,-0.0292452010788232,0.0292452010788232,-0.05220768204,1.33416
0.12,0.0762354731399217,0.002197534674747,0.00298211103088056,5.79564528315889,-3.53129353169397,-2.92713660870475,2.95644700150056,-1.98869861982796,1.02842918986413,-0.0115199452787858,-0.0234431287176491,-1.17412639506876,0.0292452010788232,-0.0292452010788232,0.05220768204,1.33416
0.13,0.0888602789622291,0.00314125401962183,0.00424038535840827,5.11486545762776,-2.65517024249496,-4.45594493614711,-1.35253377032771,1.25237479100968,-2.80400631629973,0.009895725141714,0.00202514645684058,-1.2722003768147,-0.0292452010788232,0.0292452010788232,-0.05220768204,1.33416
0.14,0.102517522826376,0.00374667862261491,0.00514825481017541,6.78716108509238,-3.80785693532669,-3.93907284882611,2.96049670379457,-1.92346728946732,1.07691413310328,-0.0100182490588386,-0.0270104050936067,-1.36977400736908,0.0292452010788232,-0.0292452010788232,0.05220768204,1.33416
0.15,0.117048068322471,0.00498552306896436,0.00682950161010167,6.11304385206105,-2.87166420543252,-5.42160643128667,-1.34839489683819,1.31739322254301,-2.75680809139293,0.0152965965463661,0.00277839110694891,-1.46790295403441,-0.0292452010788232,0.0292452010788232,-0.05220768204,1.33416
0.16,0.132631296456758,0.0058220154429564,0.0081202618262745,7.78564752295071,-4.0000180307941,-4.89450086482819,2.96533384249804,-1.86030540206083,1.12330969645123,-0.00708025475723356,-0.0304908449623311,-1.56558231450548,0.0292452010788232,-0.0292452010788232,0.05220768204,1.33416
0.17,0.149055015587114,0.00738347224558708,0.0102848411658324,7.11600781793696,-3.00595776458535,-6.33019604611566,-1.3435355893256,1.38034725819785,-2.71164534508782,0.0222072424995745,0.00363878832509908,-1.66376519045375,-0.0292452010788232,0.0292452010788232,-0.05220768204,1.33416
0.18,0.166554561242645,0.00847481205274498,0.0120207960891328,8.79000519109927,-4.11173952948571,-5.7932654149601,2.97081900346887,-1.7991579501187,1.16770311149243,-0.0025618941999746,-0.0339158360565021,-1.76159863617305,0.0292452010788232,-0.0292452010788232,0.05220768204,1.33416
0.19,0.184858078837789,0.0103822257510335,0.0147293677286803,8.12288284864586,-3.06200251292471,-7.18158845966131,-1.33808742421258,1.44129210358121,-2.6684335042143,0.0307694190147112,0.00457386097384714,-1.85982949746388,-0.0292452010788232,0.0292452010788232,-0.05220768204,1.33416
0.2,0.204263323342407,0.0117482724532764,0.0169730788397484,9.79929579594371,-4.14690152973157,-6.6352469157316,2.97682772488432,-1.73996857125653,1.21017752979524,0.0036737202106756,-0.0373255888608374,-1.95786406026119,0.0292452010788232,-0.0292452010788232,0.05220768204,1.33416
0.21,0.22443247111443,0.014020985879574,0.0202867711139834,9.13295377524936,-3.0436603393706,-7.97570646414342,-1.33216774479316,1.50028410455649,-2.62709188548659,0.0411181420063123,0.00554293359283689,-2.05613268561301,-0.0292452010788232,0.0292452010788232,-0.05220768204,1.33416
0.22,0.24573185878307,0.0156777911578682,0.0231012164177957,10.8127432307521,-4.10929579620054,-7.42037423209124,2.98324919815075,-1.68268023382773,1.25081232295195,0.011757024476481,-0.0407674309365461,-2.15441407359947,0.0292452010788232,-0.0292452010788232,0.05220768204,1.33416
0.23,0.267751669604992,0.0183312839360381,0.0270817645836725,10.1456643481284,-2.95469859535865,-8.71252966008683,-1.32588090140255,1.55738011533449,-2.58754341440574,0.0533823332396315,0.00649874556629031,-2.25270651780988,-0.0292452010788232,0.0292452010788232,-0.05220768204,1.33416
0.24,0.290932702445651,0.0202912043414929,0.0305304690787291,11.829732773569,-4.00262137822952,-8.14863299053226,2.98998506256004,-1.62723579349208,1.2896833479451,0.0218126157593999,-0.0442943334329694,-2.3512791336453,0.0292452010788232,-0.0292452010788232,0.05220768204,1.33416
0.25,0.314787385993406,0.0233372274405208,0.0352403254780841,11.1606150055602,-2.79878660903294,-9.39209916545885,-1.31931940190012,1.61263698619698,-2.549714376792,0.0676853664630999,0.00738884045482169,-2.44957821023596,-0.0292452010788232,0.0292452010788232,-0.05220768204,1.33416
0.26,0.339836600947067,0.0256090356939992,0.0393874651344655,12.8498084977652,-3.83048148902316,-8.82007003000736,2.99694828937567,-1.57357844035892,1.32686318222117,0.033959773671201,-0.0479636466718376,-2.54848518163593,0.0292452010788232,-0.0292452010788232,0.05220768204,1.33416
0.27,0.365509503503925,0.0290557410694871,0.044889883390057,12.1775589928045,-2.57949346150685,-10.0145189491834,-1.31256497667186,1.66611115260351,-2.51353419875622,0.0841455357898862,0.00815675425999105,-2.6467708814997,-0.0292452010788232,0.0292452010788232,-0.05220768204,1.33416
0.28,0.392412434725885,0.031644734876963,0.0498003645705419,13.8726690648676,-3.59638156684074,-9.43479458341984,3.00406215072218,-1.52165205368228,1.36242133236531,0.0483129104957951,-0.051836023347775,-2.74605409930115,0.0292452010788232,-0.0292452010788232,0.05220768204,1.33416
0.29,0.419885985675218,0.0354967996119263,0.0561594598924687,13.1963970514732,-2.30028693638506,-10.5799543692857,-1.30568956262516,1.71785830990876,-2.47893525139911,0.102876464393659,0.00874302368040954,-2.8443039518701,-0.0292452010788232,0.0292452010788232,-0.05220768204,1.33416
0.3,0.448627114146461,0.0384049072322856,0.061898976044472,14.8981621214421,-3.30372843605489,-9.99297675426275,3.0112592684925,-1.47140147875673,1.39642441981983,0.064981966973726,-0.0559745095362505,-2.94400411211705,0.0292452010788232,-0.0292452010788232,0.05220768204,1.33416
0.31,0.477882761427565,0.0426636518913229,0.0691797635777408,14.21717093032,-1.96453354967329,-11.0886284595683,-1.29875621078003,1.7679331600852,-2.44585267696826,0.123987468135356,0.00908603373696594,-3.04219349513722,-0.0292452010788232,0.0292452010788232,-0.05220768204,1.33416
0.32,0.508445453980402,0.0458895339932356,0.0758148309104871,15.926277550223,-2.9558304819054,-10.4948438181629,3.01848073844366,-1.42277273862654,1.42893634667525,0.0840727670457007,-0.0604437852994863,-3.14235014247416,0.0292452010788232,-0.0292452010788232,0.05220768204,1.33416
0.33,0.539463590553918,0.0505530351427274,0.0840832439097244,15.2400559795995,-1.57549956349993,-11.5408164665643,-1.29181992208719,1.81638921874039,-2.41422423360398,0.14758388579037,0.0091227225257678,-3.24045254594078,-0.0292452010788232,0.0292452010788232,-0.05220768204,1.33416
0.34,0.571830030207445,0.0540921827279765,0.0916812176564621,16.9571398346915,-2.55589874902001,-10.9406748382803,3.02567532469342,-1.37571319144431,1.46001844418885,0.105687342200663,-0.0653095382070593,-3.34110411619201,0.0292452010788232,-0.0292452010788232,0.05220768204,1.33416
0.35,0.604589913371288,0.05915537975995,0.101004107134539,16.2653530861376,-1.13635288451485,-11.9368390918062,-1.284928416053,1.86327867237103,-2.38399015616648,0.173767385044221,0.00878915932250932,-3.43909136542052,-0.0292452010788232,0.0292452010788232,-0.05220768204,1.33416
0.36,0.638741022699413,0.0630002081214109,0.109633179887774,17.9909997900407,-2.10704887108319,-11.3307940380738,3.03279871993696,-1.3301716427662,1.48972960634835,0.129924233747222,-0.070637954525771,-3.54027522565376,0.0292452010788232,-0.0292452010788232,0.05220768204,1.33416
0.37,0.673220687911837,0.0684550046591967,0.120078297254216,17.2934801892603,-0.650165746849783,-12.2770548448869,-1.27812283664186,1.90865227723693,-2.3550930309603,0.20263625131546,0.00802101082402128,-3.63811766787723,-0.0292452010788232,0.0292452010788232,-0.05220768204,1.33416
0.38,0.709136047009448,0.0725949434905648,0.129807480755661,19.0282258958175,-1.61230373782863,-11.6655633266113,3.03981286685507,-1.28609842072343,1.51812641049845,0.156878779371036,-0.0764953141745975,-3.73987015254788,0.0292452010788232,-0.0292452010788232,0.05220768204,1.33416
0.39,0.745312217711323,0.0784303037581975,0.141443444839836,18.3249635923589,-0.119918080283162,-12.5618518621787,-1.27143839977646,1.95255929249116,-2.32747768245968,0.23428566469615,0.00675390897793642,-3.83753681086663,-0.0292452010788232,0.0292452010788232,-0.05220768204,1.33416
0.4,0.782969978181831,0.0828518836465708,0.152342536507839,20.0692954399647,-1.07459680597122,-11.9453743221941,3.04668533636998,-1.24344542083869,1.54526322678089,0.186643388704866,-0.0829476767821076,-3.93989325285323,0.0292452010788232,-0.0292452010788232,0.05220768204,1.33416
0.41,0.820817972963756,0.0890539242577246,0.165238786251935,19.360429254237,0.451498533296993,-12.7916394961611,-1.26490498657704,1.99504744129178,-2.30109107039252,0.268807968825798,0.0049237326211484,-4.03735195083662,-0.0292452010788232,0.0292452010788232,-0.05220768204,1.33416
0.42,0.860194769222596,0.0937408598752302,0.177378321638531,21.114785653522,-0.496775962743558,-12.170640171322,3.05338875861074,-1.20216612624022,1.57119231790351,0.219307811277075,-0.0900606473262672,-4.14034670633618,0.0292452010788232,-0.0292452010788232,0.05220768204,1.33416
0.43,0.899688407552163,0.100292937546964,0.191605055646547,20.4005942110852,1.06127640808966,-12.9668399325916,-1.25854768628283,2.03616289456482,-2.27588219576505,0.306292934292259,0.00246681402012716,-4.23756416609947,-0.0292452010788232,0.0292452010788232,-0.05220768204,1.33416
0.44,0.94075926662487,0.105226207918882,0.205056247934502,22.1653649823427,0.118392145820501,-12.3417874134211,3.05990030266808,-1.16221560814663,1.59596393054678,0.25495939907823,-0.0978992108831945,-4.34123063247409,0.0292452010788232,-0.0292452010788232,0.05220768204,1.33416
0.45,0.981870774233521,0.112109003645301,0.220684351975669,21.446258245979,1.70668689503293,-13.0878800484574,-1.25238729258992,2.07595027290585,-2.25180201460497,0.346828018145595,-0.000679919623037373,-4.4381725486321,-0.0292452010788232,0.0292452010788232,-0.05220768204,1.33416
0.46,1.0246090251223,0.117266929913862,0.235519019552922,23.2217846088223,0.768217405072398,-12.4592480984902,3.06620120144325,-1.12355051073529,1.61962637953478,0.293683365059033,-0.10652762696705,-4.54254317440063,0.0292452010788232,-0.0292452010788232,0.05220768204,1.33416
0.47,1.06730894004796,0.124458530148898,0.252619983040773,22.4982958897468,2.38507519666736,-13.1551836836406,-1.24644075692598,2.11445266281407,-2.22880335837319,0.390498620286179,-0.00457886057142874,-4.63917426593555,-0.0292452010788232,0.0292452010788232,-0.05220768204,1.33416
0.48,1.11168612364614,0.12981685127772,0.268910466125351,24.2848703042723,1.45008121813548,-12.523452325741,3.07227631811995,-1.08612902385088,1.64222612573967,0.335563038115846,-0.116009374813707,-4.74428055219651,0.0292452010788232,-0.0292452010788232,0.05220768204,1.33416
0.49,1.15594320383566,0.137292826677803,0.287556288526359,23.5576488059634,3.09385493139368,-13.1691644640884,-1.2407216019679,2.15171164406206,-2.20684086014302,0.43738833681863,-0.00929168258371799,-4.84056459396987,-0.0292452010788232,0.0292452010788232,-0.05220768204,1.33416
0.5,1.20192898428383,0.14282477355475,0.305375355758678,25.3555146622382,2.16143126021325,-12.5348213369586,3.07811375101086,-1.04991084644611,1.6638078485504,0.380680114506627,-0.126407141752602,-4.94643708663077,0.0292452010788232,-0.0292452010788232,0.05220768204,1.33416
0.51,1.24771011757639,0.15055825582384,0.325638443826266,24.6253185843719,3.83050251553591,-13.1302192842699,-1.23524029849755,2.18776732552892,-2.18587088577621,0.487579209924876,-0.0148793430679063,-5.04233692201612,-0.0292452010788232,0.0292452010788232,-0.05220768204,1.33416
0.52,1.29527219587619,0.156234624222409,0.34505918969725,26.4346697354025,2.89977606632766,-12.493761268946,3.08370447374648,-1.01485714316148,1.68441451361742,0.429114905148331,-0.137782847530811,-5.14900519429525,0.0292452010788232,-0.0292452010788232,0.05220768204,1.33416
0.53,1.34254231311457,0.16419638158579,0.367012246377262,25.702359941594,4.59255142495418,-13.0387225318516,-1.23000460848503,2.22265838727464,-2.16585146943718,0.541151973382837,-0.0214021185507531,-5.24448273020506,-0.0292452010788232,0.0292452010788232,-0.05220768204,1.33416
0.54,1.39164634374494,0.169985604438998,0.388107980319238,27.5233400740744,3.66267951186511,-12.4006576450479,3.08904200798287,-0.980930496035142,1.7040874364809,0.480946577858163,-0.150197698107587,-5.35197535496592,0.0292452010788232,-0.0292452010788232,0.05220768204,1.33416
0.55,1.44036833569358,0.178144116250127,0.411823886130813,26.7898743056519,5.37758639165385,-12.8950211176632,-1.22501989709093,2.25642212701921,-2.14674225288455,0.598186292524944,-0.028919667288482,-5.44699154038917,-0.0292452010788232,0.0292452010788232,-0.05220768204,1.33416
0.56,1.49097784690913,0.184012335677886,0.434668014063138,28.6225761427502,4.44775523951033,-12.2558706662075,3.0941221260045,-0.94809485297888,1.72286634260088,0.536253393300011,-0.16371226303256,-5.55533605196728,0.0292452010788232,-0.0292452010788232,0.05220768204,1.33416
0.57,1.54111248559629,0.192333866635846,0.460219701723605,27.8890037415466,6.18323758512971,-12.6994303588443,-1.22028941608955,2.28909450951949,-2.12850442806268,0.658760997178931,-0.0374911134187455,-5.64985084101796,-0.0292452010788232,0.0292452010788232,-0.05220768204,1.33416
0.58,1.59318880402668,0.19824500614833,0.484885600815777,29.7334680727795,5.25266108089216,-12.05973134696,3.09894258078804,-0.91631547435329,1.74078942423035,0.595112933170979,-0.178386571062735,-5.75907368630433,0.0292452010788232,-0.0292452010788232,0.05220768204,1.33416
0.59,1.64469466907065,0.206693680573089,0.512345923848933,29.0009251587299,7.00717482324211,-12.4522307521218,-1.21581456103507,2.3207102176171,-2.11110068258828,0.722954305950249,-0.0471751475755446,-5.85304598670123,-0.0292452010788232,0.0292452010788232,-0.05220768204,1.33416
0.6,1.69809757038944,0.212609477450464,0.538850037028585,30.8571396936038,6.07509351671681,-11.8125385307864,3.1035028612725,-0.885558878718222,1.75789339450593,0.657602319000337,-0.194280219167759,-5.95173586111462,0.0292452010788232,-0.0292452010788232,0.05220768204,1.25639109115906
0.61,1.75048450006235,0.221136007128593,0.568018461324272,30.1268447275227,7.84710185338095,-12.153665666987,-1.21159510432234,2.3513027039692,-2.09449514778932,0.790575130896314,-0.0581687047006438,-6.00420670964916,-0.0292452010788232,0.0292452010788232,-0.05220768204,1.05584826775249
0.62,1.80437122411044,0.227032979111696,0.595963127179421,31.9947427721295,6.91278221544839,-11.5145568118438,3.10780397074975,-0.855792788616832,1.77421353907356,0.723975357414694,-0.209959106362186,-6.05197103637481,0.0292452010788232,-0.0292452010788232,0.05220768204,0.903477833122035
0.63,1.85678978205884,0.23558344132848,0.626379461291377,31.2679924201208,8.70075074162895,-11.8039399845634,-1.20762940613387,2.38090424267487,-2.07865334900641,0.859900188835039,-0.0700152304826769,-6.05932005722933,-0.0292452010788232,0.0292452010788232,-0.05220768204,0.752733501464036
0.64,1.91042401696283,0.241454421550703,0.655387888611743,33.1474513792938,7.76348468780247,-11.1660153857056,3.11184822644778,-0.826986077068052,1.78978376551789,0.792837477108497,-0.223560391481732,-6.07019881612795,0.0292452010788232,-0.0292452010788232,0.05220768204,0.64526218003964
0.65,1.96226227501036,0.249995521959221,0.686701811366668,32.4256165825342,9.56587640565071,-11.4032197066206,-1.20391460511443,2.40954598018004,-2.0635421579126,0.929670381065425,-0.0807473042093108,-6.04453177461754,-0.0292452010788232,0.0292452010788232,-0.05220768204,0.5317493153076
0.66,2.01511628471919,0.255841281383138,0.716488219423777,34.3164562945585,8.62498109249972,-10.7671078498281,3.11563907852684,-0.799108715288227,1.80463665082218,0.862678731013985,-0.233899303988621,-6.02914339085759,0.0292452010788232,-0.0292452010788232,0.05220768204,0.45829644731042
0.67,2.06593876150662,0.264353473046693,0.74843650608342,33.6009784364314,10.4402513261405,-10.9516325599027,-1.20044679047392,2.43725798498586,-2.04912974664614,0.998843024504987,-0.0889316019761477,-5.97956098093344,-0.0292452010788232,0.0292452010788232,-0.05220768204,0.37245413722565
0.68,2.11763948120309,0.270179000502664,0.778787539789851,35.5029593527294,9.49506922790869,-10.3179929744155,3.11918094684665,-0.772131722033927,1.81880348704958,0.932279894630011,-0.240132670812797,-5.94592758463254,0.0292452010788232,-0.0292452010788232,0.05220768204,0.324792685432666
0.69,2.16714115773077,0.278651535357084,0.811175756237841,34.7953464042855,11.3216604718646,-10.4492696230969,-1.19722115708857,2.46406929580435,-2.03538554358407,1.0665641728202,-0.0935405751514045,-5.87925632473917,-0.0292452010788232,0.0292452010788232,-0.05220768204,0.259348183118826
0.7,2.21742960918282,0.284463481920227,0.841935444846009,36.7081676330301,10.3715597443856,-9.81879646559657,3.12247907399082,-0.746027114851047,1.83231432540673,1.00066412214413,-0.241677284115985,-5.83343111390637,0.0292452010788232,-0.0292452010788232,0.05220768204,0.231265378220225
0.71,2.26540135119578,0.292890900948156,0.874623260230948,36.009990147393,12.2078964746116,-9.89618800675697,-1.19423214504807,2.49000796790369,-2.0222801906123,1.13214271794944,-0.0938545191701718,-5.75477811684524,-0.0292452010788232,0.0292452010788232,-0.05220768204,0.180687541735159
0.72,2.31410213786868,0.298695876524128,0.905680873369309,37.9332873877235,11.2522716132671,-9.26961374474715,3.12553939315407,-0.720767863427035,1.84519801882416,1.06705600513814,-0.238147457725502,-5.70132214918355,0.0292452010788232,-0.0292452010788232,0.05220768204,0.16749895274358
0.73,2.36040474325332,0.30707556370511,0.938570295941995,37.2461742043284,13.0967550926736,-9.2924146196632,-1.19147356498356,2.51510111746667,-2.00978550177189,1.19502704407083,-0.0893869223475847,-5.61449603617878,-0.0292452010788232,0.0292452010788232,-0.05220768204,0.127582193852666
0.74,2.40740316829231,0.312879050696696,0.969850560257972,39.1795176068143,12.1350278905311,-8.67051376976579,3.12836840960773,-0.696327845170826,1.85748226316666,1.13084728955021,-0.229307337353017,-5.55684047670983,0.0292452010788232,-0.0292452010788232,0.05220768204,0.125762488973275
0.75,2.45194793181066,0.321209567679046,1.00287652955048,38.5051511173715,13.9860310047423,-8.63795105778746,-1.18893871040555,2.53937496385226,-1.9978744231812,1.25478451236337,-0.0798276348743386,-5.46467058058601,-0.0292452010788232,0.0292452010788232,-0.05220768204,0.0933100936117963
0.76,2.49717287681145,0.327015276009029,1.03433176275907,40.4480431166518,13.0176518160342,-8.02154392550679,3.13097309456179,-0.672681803086328,1.86919363716803,1.19156841975339,-0.215034542604081,-5.40539182705406,0.0292452010788232,-0.0292452010788232,0.05220768204,0.10021254080121
0.77,2.5399070760091,0.335295265053237,1.06745463752554,39.7881539367061,14.8735139802194,-7.93277965351317,-1.18662045818427,2.56285486970422,-1.98652099415044,1.31108375968583,-0.0649996677893231,-5.30997012633686,-0.0292452010788232,0.0292452010788232,-0.05220768204,0.0727956450163516
0.78,2.58331823000156,0.341104798260827,1.0990584357747,41.7400271138197,13.8979632928404,-7.32273601071899,3.13336079033583,-0.649805305958207,1.88035764116903,1.24886508148605,-0.19529250255362,-5.25099868166965,0.0292452010788232,-0.0292452010788232,0.05220768204,0.0864390867242504
0.79,2.62421911185122,0.3493316807938,1.13226252031726,41.0963879971204,15.7569854767673,-7.17687072229505,-1.18451135821392,2.58556537889348,-1.97570030941945,1.36367962905684,-0.0448264079182661,-5.15452404092375,-0.0292452010788232,0.0292452010788232,-0.05220768204,0.066708
0.8,2.66580167641881,0.355143642325448,1.16400836279865,43.0566030419215,14.773775795338,-6.57411334704572,3.13553912583887,-0.62767471083131,1.89099873472456,1.30247481955604,-0.170130178343947,-5.09720373773719,0.0292452010788232,-0.0292452010788232,0.05220768204,0.0804497944403373
0.81,2.70486172734512,0.363313886692705,1.19729114533635,42.4310218700885,16.6342157212747,-6.37019104072071,-1.18260371321971,2.60753025231561,-1.96538848246114,1.4124113775263,-0.0193209285816215,-5.00065612202418,-0.0292452010788232,0.0292452010788232,-0.05220768204,0.066708
0.82,2.7446135158098,0.369124823449533,1.22918346074819,44.3988657281745,15.6428937594036,-5.77569903118995,3.1375159414388,-0.606267127735947,1.90114037313494,1.35223214862264,-0.139631496728055,-4.94599694762891,0.0292452010788232,-0.0292452010788232,0.05220768204,0.0799764872464577
0.83,2.78183094127783,0.377234520110861,1.26254780679177,43.7931774060804,17.5029613360664,-5.51271358311787,-1.18088964958875,2.62877250159068,-1.95556260980314,1.45717774256901,0.0114520379334266,-4.84946771621575,-0.0292452010788232,0.0292452010788232,-0.05220768204,0.066708
0.84,2.81975404325205,0.383039902363165,1.29459548764322,45.7678617096463,16.503110512589,-4.92752534350327,3.13929922237652,-0.58556038658901,1.91080504294746,1.39803875451057,-0.103894977631834,-4.79831983286845,0.0292452010788232,-0.0292452010788232,0.05220768204,0.0839367985038466
0.85,2.85513126415422,0.39108460460708,1.32804885409749,45.1839187984452,18.3609635778339,-4.60442853256567,-1.1793611800353,2.64931442073331,-1.94620073632797,1.4979182881809,0.0474019688387011,-4.70190610880977,-0.0292452010788232,0.0292452010788232,-0.05220768204,0.066708
0.86,2.89123074253245,0.396878767624592,1.36026452163751,47.1645786960636,17.3522068068862,-4.02964431428369,3.14089703994885,-0.565533006184447,1.92001429646649,1.4398379201067,-0.0630409646103208,-4.65497922590778,0.0292452010788232,-0.0292452010788232,0.05220768204,0.0913854321959331
0.87,2.92477556700297,0.404852816644295,1.39382102126439,46.6042406219754,19.2059472620686,-3.64535556554577,-1.17801025884446,2.66917761587538,-1.93728182151878,1.5346112207952,0.0884156831746444,-4.55916053735106,-0.0292452010788232,0.0292452010788232,-0.05220768204,0.0692765122276642
0.88,2.95898269600048,0.410660135681673,1.42629569158972,48.4499719535526,18.1879500207441,-3.08213943225749,2.89803740508863,-0.546164165174917,1.92878878530484,1.47761002608449,-0.00608375084225342,-4.51676875794147,0.0275694396294632,-0.0292452010788232,0.05220768204,0.101118388492827
0.89,2.99063013724204,0.418581737751318,1.46005002866143,47.7759272303108,20.0354258863336,-2.64197278633779,-1.41622332314394,2.68490051138658,-1.92901425410463,1.56690006456366,0.156140924668166,-4.42234327881685,-0.0292452010788232,0.0292452010788232,-0.05220768204,0.0781574358634041
0.9,3.02304164031024,0.424362647664839,1.49273079143037,49.6331366519358,19.0100626753625,-2.08587516565941,2.90892241232179,-0.527431288011162,1.93801834709418,1.51142521538693,0.0652242573366598,-4.38530576719846,0.0292452010788232,-0.0292452010788232,0.05220768204,0.112302087299034
0.91,3.05288313031217,0.432146346838879,1.526649580008,48.9733360527432,20.8132888908238,-1.6387617438551,-1.40575927635373,2.60053138944371,-1.92005244688614,1.59074817743131,0.226493283161056,-4.29349137626899,-0.0292452010788232,0.0282968562152268,-0.05220768204,0.0874820303205786
0.92,3.08350571200572,0.437844678401861,1.55957663675569,50.8232106031574,19.7423570662176,-1.13780371586726,2.91796755141065,-0.610355339890709,1.94654962066837,1.53250341752588,0.139196996045639,-4.26334411630337,0.0292452010788232,-0.0292452010788232,0.05220768204,0.122534116550717
0.93,3.11155812152203,0.445528938371512,1.59366747114587,50.1932545806835,21.5405228985117,-0.635162288414014,-1.39581634781219,2.62266034795982,-1.91126912492265,1.60698620701099,0.299433713071135,-4.17248606776087,-0.0292452010788232,0.0292452010788232,-0.05220768204,0.0943109545612293
0.94,3.14040849656245,0.451179828004819,1.62684906693574,52.0515535924012,20.4639416791003,-0.142810844907324,2.92783809482825,-0.588900684208932,1.95516589456039,1.55064353205226,0.215649247866783,-4.1475233533074,0.0292452010788232,-0.0292452010788232,0.05220768204,0.131896846888829
0.95,3.1666827610007,0.45875557923362,1.66113469212885,51.4528014954928,22.2553053033176,0.416617517309989,-1.38638174348949,2.6440143842137,-1.90292246161334,1.62035285546921,0.374917928245563,-4.05785952248136,-0.0292452010788232,0.0292452010788232,-0.05220768204,0.101948198516609
0.96,3.19377160827973,0.464346380665439,1.69459507103726,53.3183686105377,21.1726420587612,0.898940099726776,2.93720587436918,-0.568192538855282,1.96335395178877,1.56588317711446,0.29455010235972,-4.03829750703717,0.0292452010788232,-0.0292452010788232,0.05220768204,0.141813476324653
0.97,3.2182740899536,0.471774356303652,1.72910800485193,52.739533432692,22.9310839816839,1.48141121488369,-1.37743430230998,2.59360693095949,-1.89499290879665,1.62804145948153,0.452916092357852,-3.95110596251826,-0.0292452010788232,0.0285918670114217,-0.05220768204,0.109907139798363
0.98,3.24360449212156,0.477263503261941,1.76287952138555,54.5970814984529,21.8179908632824,1.9178914196472,2.94521702739993,-0.617798420575878,1.97096544731412,1.57270828718012,0.375913247877176,-3.93802377424497,0.0292452010788232,-0.0292452010788232,0.05220768204,0.150766309834599
0.99,3.26634619073893,0.4845644863462,1.79763132895129,54.0511134391207,23.5677988549281,2.55924508841641,-1.36891959773161,2.61628968985094,-1.88727557173392,1.6306113866112,0.533360512331178,-3.85206522019047,-0.0292452010788232,0.0292452010788232,-0.05220768204,0.115822287033785
1,3.28992865591826,0.489969395444327,1.8317255669647,55.9132289566858,22.4496916945849,2.98383274466842,2.9537096248186,-0.5957666626095,1.97854379851312,1.5773605147993,0.459577667541199,-3.84426194397972,0.0292452010788232,-0.0292452010788232,0.05220768204,0.158897924567427
1.01,3.31091434014391,0.497128189661191,1.86673825027506,55.3985738370961,24.1843842999076,3.67792484307069,-1.36084981686034,2.62406843645352,-1.87995127596544,1.6305577316296,0.616174577494716,-3.7599153009561,-0.0292452010788232,0.0291154668629257,-0.05220768204,0.122101377435653
1.02,3.33275252709091,0.502430159447106,1.90117771111867,57.2609774309099,23.0564778191309,4.08199784887039,2.96158850115922,-0.58832973086795,1.98570357498561,1.57885281389752,0.545488299921943,-3.75773919612756,0.0292452010788232,-0.0292452010788232,0.05220768204,0.167010280497759
1.03,3.35197301830319,0.509361032061918,1.9364918797068,56.7382056291384,24.7137726342405,4.72686033961437,-1.35319679626333,2.43539655078351,-1.87296438383179,1.62015329283738,0.701288415143004,-3.67815791852981,-0.0292452010788232,0.0273101322132553,-0.05220768204,0.12801088264166
1.04,3.37196254353853,0.51451192383509,1.97135651003913,58.3961703847626,23.5163431403999,5.00809308838976,2.68847976107495,-0.773404401902864,1.9920789739003,1.5630421410137,0.643941272847324,-3.68222642386063,0.0273368036522877,-0.0292452010788232,0.05220768204,0.171623218287387
1.05,3.38934161185397,0.521323108236449,2.00699988473574,57.747534271705,25.1657569848138,5.70644887179635,-1.61842199635519,2.46047523299184,-1.8661393873705,1.60091958290024,0.808671597364348,-3.60164557097909,-0.0292452010788232,0.0292452010788232,-0.05220768204,0.130017718670582
1.06,3.40759228408607,0.526361752928668,2.04223206060641,59.4161448266633,23.9688146531326,5.98310304447541,2.70694731549651,-0.745237250862972,1.99994349418235,1.54693494265748,0.753439640524005,-3.61069701438199,0.0292452010788232,-0.0292452010788232,0.05220768204,0.178256422503452
1.07,3.42322309938955,0.533008118664078,2.07817934406231,58.8038670481145,25.6109911794041,6.73346707787897,-1.60065049293629,2.48850831073779,-1.85853830391288,1.58138545825064,0.916401431083161,-3.53078829350243,-0.0292452010788232,0.0292452010788232,-0.05220768204,0.135092246210232
1.08,3.43973867300074,0.537920848619533,2.11379722457696,60.4818023147253,24.4140380059739,7.00382740702234,2.7245805262952,-0.718099888266836,2.00739451707531,1.53044069554943,0.863211230572014,-3.54512942578988,0.0292452010788232,-0.0292452010788232,0.05220768204,0.186104501833741
1.09,3.45362521709754,0.544392220705778,2.15006736886485,59.9064901088451,26.0472132716301,7.80724395254699,-1.58368801465427,2.51551363379096,-1.85134044861516,1.56156005820896,1.02455875346966,-3.46614928245207,-0.0292452010788232,0.0292452010788232,-0.05220768204,0.14107261431441
1.1,3.46840957772924,0.549163937554555,2.18609095244257,61.5924066847348,24.8498050053286,8.06959865606258,2.74141234858853,-0.691951940256171,2.01444936897686,1.51357677752963,0.973312103933578,-3.48600066471654,0.0292452010788232,-0.0292452010788232,0.05220768204,0.194599231632982
1.11,3.48055558714579,0.555449151147398,2.22270427304079,61.0546307750957,26.472152721468,8.9270513141749,-1.56750234779424,2.54153131076331,-1.84452878246626,1.54148233320347,1.13319850679393,-3.40812857143709,-0.0292452010788232,0.0292452010788232,-0.05220768204,0.147476513738513
1.12,3.49361202815949,0.560063697777807,2.25915430941763,62.7471655793136,25.2739018875804,9.17969254227492,2.7574749079375,-0.666755017780331,2.02112491743934,1.49639100946637,1.08377643176004,-3.43364835662653,0.0292452010788232,-0.0292452010788232,0.05220768204,0.203335754804142
1.13,3.50402042495384,0.566150884512061,2.29613154211967,62.2474435270131,26.8835356069713,10.0920889987864,-1.55206210243457,2.56659951339344,-1.83808672663333,1.52121846602427,1.24235230706226,-3.35700732326172,-0.0292452010788232,0.0292452010788232,-0.05220768204,0.15396266954507
1.14,3.51535117273624,0.570591342868057,2.33302874045705,63.9452175699738,25.6841143604053,10.3333145068916,2.77279947317691,-0.642472585120545,2.02743755921578,1.4789586095657,1.19461802723705,-3.38830884201435,0.0292452010788232,-0.0292452010788232,0.05220768204,0.21203087868375
1.15,3.52401291426241,0.576425174811406,2.3703990227043,63.4537574587489,27.2483492573668,11.2317008866935,-1.53733673797764,2.46860122569197,-1.83199817330778,1.49672065784924,1.35203061640855,-3.31478718036962,-0.0292452010788232,0.0281213900136786,-0.05220768204,0.160294837607226
1.16,3.5336046758768,0.580634259594873,2.40776949032644,65.1230943135741,26.0171103058663,11.391357461224,2.78596150870217,-0.738780147551577,2.03308152000631,1.45330791379438,1.30591960105861,-3.35338209306177,0.0292452010788232,-0.0292452010788232,0.05220768204,0.218706996828216
1.17,3.54052850943441,0.586249069958533,2.44553699211255,64.6690211550752,27.5680196051911,12.3457232494297,-1.52314137555194,2.49668664944521,-1.82599298407796,1.46870151021085,1.46220664372513,-3.28075680020946,-0.0292452010788232,0.0292452010788232,-0.05220768204,0.163128153893473
1.18,3.54839028259631,0.59025770096207,2.48338375154887,66.3419458049271,26.3376760894183,12.4939073491002,2.80011000292714,-0.711516256061956,2.03897985639854,1.42830298049525,1.41753376398477,-3.32461826679269,0.0292452010788232,-0.0292452010788232,0.05220768204,0.224094986866406
1.19,3.55357325937792,0.595644382902431,2.52156140502841,65.9254934346944,27.8732366491959,13.5047923373119,-1.50960894008127,2.52373994900022,-1.82032548475661,1.44145256372379,1.57283262725092,-3.25308164540692,-0.0292452010788232,0.0292452010788232,-0.05220768204,0.166687388535475
1.2,3.55959114599568,0.599496043005109,2.55990784065758,67.4021916063792,26.643535789099,13.6398520547673,2.46711970183387,-0.685249900444916,2.04454608885603,1.40401324771989,1.54070688388124,-3.29696266307565,0.0268683464816443,-0.0292452010788232,0.05220768204,0.230027696468964
1.21,3.56292127975292,0.604691475351952,2.59852329531156,66.8248674202258,28.1640426718956,14.6985859722106,-1.83626283267682,2.5445640752322,-1.81538745015362,1.41454095794705,1.70614660677559,-3.22187741804893,-0.0292452010788232,0.0292452010788232,-0.05220768204,0.176271518845728
1.22,3.5672203738168,0.608305752813349,2.63738969775501,68.3149366138016,26.9348694722353,14.8284944310071,2.49364390603515,-0.660514286784689,2.05086307113489,1.38053322356468,1.6745941602077,-3.27281024802494,0.0292452010788232,-0.0292452010788232,0.05220768204,0.246852114438326
1.23,3.56880222464748,0.613173914863202,2.67648040552637,67.7334267918119,28.4072319006258,15.8348820804641,-1.81057078439227,2.40465240723139,-1.80927133481413,1.38311736943062,1.83842249598077,-3.20156773272836,-0.0292452010788232,0.0277302386466171,-0.05220768204,0.189470265773835
1.24,3.57136877970052,0.616470952367249,2.71590460296086,69.1881941272822,27.1436482225227,15.861345326829,2.51707516504655,-0.798054308203798,2.05631092976258,1.34731805901217,1.80741026061489,-3.26117344565714,0.0292452010788232,-0.0292452010788232,0.05220768204,0.259695876072088
1.25,3.57122278011268,0.621050364867063,2.75548782959658,68.6454319331639,28.6051500834378,16.9143280675106,-1.78574598068865,2.43498955432785,-1.80331287252951,1.34803124103534,1.96973545625872,-3.19079859309992,-0.0292452010788232,0.0292452010788232,-0.05220768204,0.197099999867671
1.26,3.57207761943131,0.624065447893195,2.7954841812529,70.1126188114171,27.3443622197011,16.937135500853,2.5416659972299,-0.768734528744379,2.06214076586881,1.31580574413014,1.93908089729662,-3.25636557142461,0.0292452010788232,-0.0292452010788232,0.05220768204,0.269910017430414
1.27,3.57020490701585,0.628339985120641,2.83558198456594,69.6084460238258,28.7932234061363,18.0373821106206,-1.76200980491639,2.4642062104521,-1.79769367213854,1.3148137632112,2.1001152691271,-3.18699013691012,-0.0292452010788232,0.0292452010788232,-0.05220768204,0.204775244039308
1.28,3.56934855584376,0.631050814656974,2.87617186426578,71.0864825167852,27.534963778864,18.0546075551719,2.56517996547792,-0.740491763237173,2.0676367605134,1.28607243770249,2.06966129232959,-3.25863813602244,0.0292452010788232,-0.0292452010788232,0.05220768204,0.280040796024187
1.29,3.56574896402856,0.635003855452633,2.91680578479158,70.6206676914602,28.9693623983517,19.2026777565872,-1.73931830532518,2.49234672263758,-1.79240073791251,1.28355567135837,2.22961281461611,-3.19034519073909,-0.0292452010788232,0.0292452010788232,-0.05220768204,0.212251476422275
1.3,3.56318049973112,0.637387639847068,2.95800965459102,72.1080243192656,27.7134081058425,19.2124564309965,2.58766076484791,-0.713283615149515,2.07281189412999,1.25821764852226,2.19918513687376,-3.26815793927694,0.0292452010788232,-0.0292452010788232,0.05220768204,0.28989498189
1.31,3.55785239625647,0.641002302288715,2.9992002405933,71.680248684403,29.1314854002712,20.4087883077658,-1.7176288725578,2.51945325189206,-1.78742119712098,1.2543691116954,2.35825674981597,-3.20099542294553,-0.0292452010788232,0.0292452010788232,-0.05220768204,0.219374391197428
1.32,3.55356932710705,0.643035979320232,3.04103727408107,73.1754400497113,27.8776612566588,20.4093185304365,2.60915072177463,-0.687069779824323,2.07767899872299,1.23236207842188,2.32766570627422,-3.28503196546771,0.0292452010788232,-0.0292452010788232,0.05220768204,0.29935633588375
1.33,3.54650262835888,0.646276660984759,3.08280398391394,72.7688528584292,29.2681346670297,21.6190766957246,-1.69690023911205,2.48892913443403,-1.78274234073029,1.22552544260643,2.48605509169287,-3.21972055646203,-0.0292452010788232,0.028724142690868,-0.05220768204,0.226055577669753
1.34,3.54049274988746,0.6479203588758,3.12529077956195,74.2532306415984,28.0069827283432,21.5741839524917,2.62903435486542,-0.717315952312639,2.08208608646312,1.20500532311996,2.45514076664751,-3.31054796847042,0.0292452010788232,-0.0292452010788232,0.05220768204,0.30768063022923
1.35,3.53168941298857,0.650790380119642,3.16764880050717,73.8833596455765,29.3788842128424,22.8326953354017,-1.67698516224251,2.51631565333121,-1.77826377510531,1.19737955951835,2.61299225813759,-3.24621790061479,-0.0292452010788232,0.0292452010788232,-0.05220768204,0.231062236038859
1.36,3.52395446630395,0.652042362643917,3.21079887376351,75.3737650608906,28.1205382636347,22.7771644468865,2.64879528348356,-0.690795092906678,2.08646884460846,1.18015057808256,2.58153482890512,-3.3430793237713,0.0292452010788232,-0.0292452010788232,0.05220768204,0.315201443572792
1.37,3.51339987341374,0.654506084854279,3.25376166865656,75.0213406059798,29.4628311837615,24.0448928072327,-1.65795877058667,2.47975645067781,-1.77406472774899,1.16983527132054,2.73903308306252,-3.28053261531752,-0.0292452010788232,0.0286661571431205,-0.05220768204,0.236023982086057
1.38,3.50375034708611,0.65545334025245,3.29754147047692,76.2035956953608,28.1981693711483,23.9383245995411,2.15490846793367,-0.726924645610305,2.09039806421286,1.15382377821259,2.72365841777322,-3.37004339701947,0.025732590831941,-0.0292452010788232,0.05220768204,0.32190977651014
1.39,3.49127638246452,0.657620378041902,3.34108752411972,75.5926641911206,29.5249667278123,25.2420383627748,-2.14145917946166,2.49973504296908,-1.77066516558235,1.14233077165829,2.8974962088933,-3.2962315555498,-0.0292452010788232,0.0292452010788232,-0.05220768204,0.253942421942817
1.4,3.47991790942902,0.658108942832672,3.38560146612232,76.7982112820232,28.2619510682355,25.1383078224372,2.19329556107909,-0.701059461269335,2.0958567852376,1.13046331664131,2.88103734496779,-3.39545621165554,0.0292452010788232,-0.0292452010788232,0.05220768204,0.354965278081965
1.41,3.4657122150375,0.659799348673304,3.42985042153318,76.2258420004968,29.5772025171524,26.4756357142884,-2.10416647209886,2.52576452675128,-1.76536499789437,1.11778257364044,3.05368130760779,-3.3244376050187,-0.0292452010788232,0.0292452010788232,-0.05220768204,0.280737691183096
1.42,3.45265542775888,0.65977044534477,3.4751572282998,77.4526969728973,28.3158096932548,26.3725707506723,2.23005502837636,-0.676121067450196,2.10098508093514,1.10992320256044,3.0358695608046,-3.43270144092071,0.0292452010788232,-0.0292452010788232,0.05220768204,0.382469118280404
1.43,3.43668837936247,0.660851322491966,3.52015269398642,76.8396427644938,29.5854276517106,27.5786601576469,-2.06845946497988,2.29028568149925,-1.76039039080373,1.08745690787532,3.20767611767238,-3.36679670015749,-0.0292452010788232,0.0268479345745129,-0.05220768204,0.302639873794003
1.44,3.42189731185175,0.660176245085032,3.56628238188214,78.004290427426,28.2927248421719,27.3122378425042,2.26227112677258,-0.907432308167771,2.1048713215828,1.07490150327173,3.18848205798457,-3.48567985533103,0.0292452010788232,-0.0292452010788232,0.05220768204,0.402823678780999
1.45,3.40420976609264,0.660697630334734,3.61207011224513,77.4278473629394,29.5535072201956,28.554460366206,-2.03370517320334,2.32473837851054,-1.75564815205967,1.05238392733832,3.35954796725359,-3.42086235015781,-0.0292452010788232,0.0292452010788232,-0.05220768204,0.315889812661124
1.46,3.38772753888152,0.659426547508141,3.65906319299074,78.6157146070591,28.2648067692386,28.2949133339563,2.29665297231457,-0.874192157455291,2.10950238929201,1.04390991129644,3.33871361509046,-3.54676395141537,0.0292452010788232,-0.0292452010788232,0.05220768204,0.418476094703413
1.47,3.36831970016507,0.659358988881609,3.70567154534741,78.0751382378895,29.5150927519474,29.5737529655919,-2.00043952634204,2.35792724376243,-1.75118703515613,1.02157400504201,3.50931000729529,-3.48298759645562,-0.0292452010788232,0.0292452010788232,-0.05220768204,0.327957356559784
1.48,3.35014574400454,0.657455539027589,3.75355298490052,79.2842842623697,28.2303765578421,29.3188154531446,2.32956374421918,-0.842164703605139,2.11385554054646,1.01707244217691,3.48659453187469,-3.61589584932549,0.0292452010788232,-0.0292452010788232,0.05220768204,0.432996909402174
1.49,3.32901560684659,0.656770403697558,3.80100706443212,78.7787720845086,29.4684834518515,30.6346511804284,-1.9686023864988,2.38990224723999,-1.74699947166797,0.995157897938133,3.65698287566269,-3.55310493998385,-0.0292452010788232,0.0292452010788232,-0.05220768204,0.338911350237365
1.5,3.30914710830964,0.654199025841147,3.84979854523013,80.0073568121176,28.1877349489949,30.3821740551658,2.361063119538,-0.811302217318055,2.11793858468029,0.994529194104712,3.63213371944457,-3.69300615931024,0.0292452010788232,-0.0292452010788232,0.05220768204,0.446469010484627
1.51,3.2862905314897,0.652868461383886,3.89812041169178,79.5360392929106,29.4119629783567,31.7352724301534,-1.93813560961455,2.42071088933061,-1.74307747131697,0.973282040810012,3.80256657518849,-3.63113926346582,-0.0292452010788232,0.0292452010788232,-0.05220768204,0.34884106756968
1.52,3.26472251648427,0.64959434129892,3.94784054425867,80.7823218725607,28.1351735636926,31.4832204285513,2.39120876174483,-0.781559337546743,2.12175970210787,0.97643507410563,3.77532001029085,-3.77802071549339,0.0292452010788232,-0.0292452010788232,0.05220768204,0.458991681256756
1.53,3.24013331203226,0.64759120875489,3.99704944734647,80.3442539813685,29.3438110657241,32.8737287178389,-1.90898301428328,2.45039835630669,-1.7394127134616,0.956107419104132,3.94604187242625,-3.71701341549277,-0.0292452010788232,0.0292452010788232,-0.05220768204,0.357849175465301
1.54,3.21685874109512,0.64358019913054,4.04771400196203,81.6065920281296,28.0709854789759,32.6201784137024,2.42005635586125,-0.752892920029764,2.12532735858697,0.962958668286847,3.9161234200499,-3.8708652018872,0.0292452010788232,-0.0292452010788232,0.05220768204,0.470674684401899
1.55,3.19052877025614,0.640877983636912,4.09782663162324,81.2007454272972,29.2623145000118,34.0481184787073,-1.8810903485075,2.47900766593917,-1.73599662832592,0.943808546617523,4.08737159867484,-3.81065200285282,-0.0292452010788232,0.0292452010788232,-0.05220768204,0.366046751770104
1.56,3.16553863837065,0.636096503769113,4.1494487789991,82.4775949152257,27.9934752379075,33.7912569054794,2.44765964533994,-0.725261895710851,2.1286502292059,0.954281237200396,4.05449634389619,-3.97146825851856,0.0292452010788232,-0.0292452010788232,0.05220768204,0.481634099327052
1.57,3.13745790822977,0.632669206838231,4.20047952104159,82.1028509730092,29.1657775163517,35.2565199654067,-1.8544052545434,2.50657980359989,-1.73282046893446,0.93657253850686,4.2265018526734,-3.91198389548197,-0.0292452010788232,0.0292452010788232,-0.05220768204,0.37354979947474
1.58,3.11074134336088,0.627084125690962,4.25307007426216,83.3927666811713,27.9009683507553,34.9946438004559,2.47407047056032,-0.698627138645441,2.13173713117294,0.950595818686763,4.19037467958744,-4.07976349961299,0.0292452010788232,-0.0292452010788232,0.05220768204,0.491989435930758
1.59,3.08089809903616,0.622906141993956,4.30503126449733,83.0479104687543,29.0525316619081,36.4969862309277,-1.82887723200465,2.533153849253,-1.72987537463474,0.934598269274415,4.36336310855042,-4.02094381464552,-0.0292452010788232,0.0292452010788232,-0.05220768204,0.380476849522466
1.6,3.0524102494942,0.616517668940662,4.35858436450139,84.302842394605,27.7918203239112,36.2285014358963,2.41782412448131,-0.67295134296202,2.13459696456817,0.952106422380713,4.32695653460479,-4.19213397964948,0.0286860103445689,-0.0292452010788232,0.05220768204,0.501861675990833
1.61,3.02072231279268,0.611519195768018,4.41144513595916,83.8801567157286,28.910724200814,37.6375055510417,-1.88434199001287,2.35861893094067,-1.72724639602599,0.929553440398555,4.5044241977623,-4.13277210885596,-0.0292452010788232,0.0274156700302853,-0.05220768204,0.390568594696537
1.62,2.99044635705464,0.604191079391555,4.46596226242474,85.0866342469911,27.641864319842,37.2377776424479,2.44298008806245,-0.843323004294048,2.13685065823027,0.942598011243027,4.46447860979641,-4.31328857918159,0.0292452010788232,-0.0292452010788232,0.05220768204,0.516275255423916
1.63,2.95697430709772,0.598377273428933,4.51978536053897,84.6929704853641,28.7435150631918,38.6829922766991,-1.85731237254614,2.39095436494945,-1.72429578841964,0.922290507274016,4.6429625509437,-4.25479994333042,-0.0292452010788232,0.0292452010788232,-0.05220768204,0.399325027038784
1.64,2.92490433234949,0.590186486050442,4.57529293815346,85.8650613415511,27.4797594773496,38.283959282271,2.38059706815001,-0.812019861208603,2.13973592306666,0.938990270401792,4.60293889546864,-4.43822997435579,0.0286333625262986,-0.0292452010788232,0.05220768204,0.527822301343155
1.65,2.88960021071069,0.583562717060708,4.63007802340122,85.448139722715,28.5636526247304,39.7630583052989,-1.91886738327463,2.42069692897728,-1.72168600511939,0.9209724254173,4.78647138352449,-4.37699786903435,-0.0292452010788232,0.0292452010788232,-0.05220768204,0.411644863315715
1.66,2.85576601852424,0.574424154586653,4.6866173188097,86.6386793657351,27.30431670795,39.3653709529127,2.40975480519984,-0.782124656852221,2.14264339253309,0.941469863794472,4.7423649876131,-4.56871830196605,0.0292452010788232,-0.0292452010788232,0.05220768204,0.546650811598696
1.67,2.81865574573288,0.566910043852075,4.74241053639289,86.2491461490967,28.369812884941,40.877752976677,-1.89069390085285,2.45050715728159,-1.71891953312045,0.925967635938181,4.92720620676198,-4.50892407164992,-0.0292452010788232,0.0292452010788232,-0.05220768204,0.4258151140121
1.68,2.78304488254081,0.556777558275333,4.80000161797536,87.4553975876993,27.1150245814338,40.4796639439165,2.4354458721494,-0.753307815512401,2.14533425718389,0.950167370113923,4.87873469251272,-4.70855232101086,0.0292300504216043,-0.0292452010788232,0.05220768204,0.563101906292357
1.69,2.74411427497277,0.548336548581516,4.85682401593776,87.0906047698867,28.1605266184785,42.0249149891127,-1.86590490386812,2.47920296799066,-1.71636828845847,0.937502862257559,5.06525349338959,-4.64979279491244,-0.0292452010788232,0.0292452010788232,-0.05220768204,0.438020815991732
1.7,2.70646346878701,0.537451147642995,4.91536487011043,87.980506975981,26.9104017393164,41.6248555400323,1.88270002909289,-0.725536052064401,2.14782213977266,0.965324416198821,5.03888700242154,-4.82792235037774,0.0252696446364728,-0.0292452010788232,0.05220768204,0.57802538581379
1.71,2.66545059169051,0.528281343515465,4.97313069506159,87.309167488395,27.9426913855551,43.1898839127999,-2.4079714496186,2.49768912610359,-1.71473301591707,0.954142397536925,5.25407878975815,-4.74495391271761,-0.0292452010788232,0.0292452010788232,-0.05220768204,0.478637747516827
1.72,2.626032298045,0.516224038134491,5.03284901535778,88.2336765921917,26.6923141299002,42.801533278026,1.93118172298619,-0.700571956950223,2.15180309096591,0.987035367732757,5.2232273887601,-4.93945740824556,0.0292452010788232,-0.0292452010788232,0.05220768204,0.647133763482413
1.73,2.58318946218901,0.505893192029832,5.09180521089068,87.5923057494952,27.71665244385,44.3849336488077,-2.36078985540586,2.52298042015328,-1.71085401308194,0.977241643197708,5.43910510536284,-4.86228485333505,-0.0292452010788232,0.0292452010788232,-0.05220768204,0.535027806798411
1.74,2.54200593508571,0.492522534133421,5.15279086889671,88.549219890562,26.4664472621007,44.0061135726763,1.9776380118635,-0.676452159613698,2.1555049223775,1.01498730202818,5.40321030660845,-5.07111407444826,0.0292452010788232,-0.0292452010788232,0.05220768204,0.701511249227635
1.75,2.49733046757142,0.480912701324766,5.21302000679224,87.9365677892317,27.4812705227575,45.6083615402742,-2.31558384444026,2.54741080257122,-1.70725217800306,1.00718741098534,5.62035191546238,-4.99795603587638,-0.0292452010788232,0.0292452010788232,-0.05220768204,0.578736073418379
1.76,2.45437954699505,0.46610882988812,5.27533432896401,88.923815449373,26.2316189905511,45.2370171268142,2.02215198968031,-0.653143680939208,2.15893625012584,1.04960711257242,5.57889489485252,-5.21961358889757,0.0292452010788232,-0.0292452010788232,0.05220768204,0.744999051317495
1.77,2.40783752683186,0.453070704392725,5.33686240912199,88.3044594423879,27.234086198469,46.7812673936074,-2.27227221868931,2.45009122600637,-1.70391863552246,1.03802267780441,5.79778588927675,-5.15041335766155,-0.0292452010788232,0.0281327152947091,-0.05220768204,0.613061770128547
1.78,2.3630836969386,0.436689464729503,5.40051303447559,89.2847862530552,25.9834028994554,46.3399668908108,2.06346407128596,-0.74911939463242,2.16163530504238,1.07883569025372,5.75045977341653,-5.38468662569924,0.0292452010788232,-0.0292452010788232,0.05220768204,0.779234285400699
1.79,2.31469635494128,0.422188362815901,5.46340814823486,88.6927365544484,26.975584150522,47.9055305901005,-2.23042609586787,2.4776577911245,-1.70088808668302,1.07038341041343,5.97133783611072,-5.31709745748692,-0.0292452010788232,0.0292452010788232,-0.05220768204,0.638424051604113
1.8,2.26816311640027,0.404195171757808,5.52845193084596,89.7023591111341,25.7262732481099,47.4727833468348,2.10472983556353,-0.722681139365855,2.16453493732726,1.11563984389156,5.91769109457007,-5.56185117988904,0.0292452010788232,-0.0292452010788232,0.05220768204,0.806815859278679
1.81,2.21792026648234,0.388160860341375,5.59273847235622,89.1362934298993,26.7066470463873,49.05986654705,-2.19034358044677,2.50427170567011,-1.698088814406,1.11073793294313,6.14091655537145,-5.49521886757389,-0.0292452010788232,0.0292452010788232,-0.05220768204,0.659226369283975
1.82,2.16959719254596,0.368479994079603,5.65918862688929,90.1733492671879,25.4590483425713,48.6337324352557,2.14425942793155,-0.697148730544821,2.16720796053721,1.16031541806984,6.08049655131584,-5.74995825284459,0.0292452010788232,-0.0292452010788232,0.05220768204,0.830517501035263
1.83,2.11748586843766,0.350848776702424,5.72488159654164,89.6319036062184,26.4261162420649,50.242447913858,-2.15195177269726,2.52996825425485,-1.69551410020556,1.15936170265241,6.30639906898787,-5.68378158515538,-0.0292452010788232,0.0292452010788232,-0.05220768204,0.676669867848499
1.84,2.06735961704632,0.329410455119226,5.79274313384842,90.694654559479,25.1805422026838,49.8211082825567,2.18212474063587,-0.672488924723763,2.16966121036875,1.21314827500546,6.23875886416211,-5.94814833898923,0.0292452010788232,-0.0292452010788232,0.05220768204,0.851392954951651
1.85,2.01336418542635,0.310123394062795,5.85985035786881,90.176420688816,26.1328318667108,51.4514748099765,-2.11518049718414,2.55478097707803,-1.69315687471283,1.21652651261291,6.46764587119019,-5.88203951758463,-0.0292452010788232,0.0292452010788232,-0.05220768204,0.691677664474905
1.86,1.96141864811554,0.286862125881752,5.92912192237006,91.263249583267,24.8895740665652,51.0332292762716,2.21839495600967,-0.648670128943822,2.17190183348396,1.27441736513511,6.39234093833866,-6.15577685032366,0.0292452010788232,-0.0292452010788232,0.05220768204,0.870257302841314
1.87,1.90552089674552,0.265863632069346,5.99764571295857,90.76677328016,25.8256425253821,52.6851717294369,-2.0799622237305,2.57874178795494,-1.69100979666401,1.28250200526838,6.62450385701967,-6.08943261126493,-0.0292452010788232,0.0292452010788232,-0.05220768204,0.704968916751735
1.88,1.85173731128599,0.240716900238865,6.06832095751862,91.8761808056524,24.5849770586251,52.2684350361055,2.25313662729878,-0.625662286611322,2.1739372133825,1.34439708004879,6.54108957514282,-6.37235964644964,0.0292452010788232,-0.0292452010788232,0.05220768204,0.887750377205379
1.89,1.79388713478152,0.217903410952073,6.13821846784329,91.3713624887707,25.5054617031411,53.8730462245337,-2.0462319893988,2.49272622588364,-1.6890653228929,1.35060113020188,6.77680843614467,-6.30700766236535,-0.0292452010788232,0.0282409763800746,-0.05220768204,0.717112906972794
1.9,1.73821318896375,0.190769663552881,6.21024581404144,92.4723254567199,24.2691520802155,53.3891395442067,2.28521508655454,-0.710408532666947,2.17539228881933,1.40962559783133,6.68503629457702,-6.60006941827479,0.0292452010788232,-0.0292452010788232,0.05220768204,0.902974413363852
1.91,1.67842031979252,0.166143625792925,6.2815508820318,91.9876458421751,25.1727208653867,55.0168388076429,-2.01359059560604,2.5193697846928,-1.68727321659561,1.42137988470141,6.92438100976672,-6.53399138818514,-0.0292452010788232,0.0292452010788232,-0.05220768204,0.72615322930651
1.92,1.6208674086029,0.137022047643126,6.35495957344678,93.1108490977543,23.9396916694393,54.5358038786098,2.3174668817547,-0.684732025142869,2.17710107319342,1.48424226403702,6.82381865756734,-6.83556307748148,0.0292452010788232,-0.0292452010788232,0.05220768204,0.916799367258938
1.93,1.55910876750028,0.110539742253096,6.42766420874126,92.6447725777959,24.8249465134085,56.1862765406865,-1.98233937773876,2.54508060818907,-1.68566129199572,1.5018956306432,7.06704683038456,-6.76869419023833,-0.0292452010788232,0.0292452010788232,-0.05220768204,0.735402199228928
1.94,1.49946711668724,0.0796213197089798,6.50238002836313,93.6064081640966,23.5954592184492,55.706635763067,2.02983793192529,-0.659948774775883,2.17863319563876,1.56850182989119,6.97880567228544,-7.05629960099504,0.0270602189652356,-0.0292452010788232,0.05220768204,0.930949705526072
1.95,1.43553178202213,0.0514391178784103,6.57641830406444,92.9760292799221,24.4663082643946,57.3732800790626,-2.26455996512135,2.56476276541972,-1.68458336696257,1.59107975764175,7.24776399372361,-6.96955380005894,-0.0292452010788232,0.0292452010788232,-0.05220768204,0.767878395720402
1.96,1.37398327797342,0.0183443787796048,6.65254555642722,93.9677727485066,23.237328321287,56.9014605030699,2.07196999619458,-0.637162050255341,2.18099634008673,1.66252588531035,7.15057845896524,-7.27280014660452,0.0292452010788232,-0.0292452010788232,0.05220768204,0.987841568313698
1.97,1.30803494737609,-0.011928677763123,6.72803580912463,93.3574968639802,24.0963090181359,58.5837805129109,-2.223583510665,2.58780839611489,-1.68230073259862,1.6900708212203,7.42303927162575,-7.18932081106912,-0.0292452010788232,0.0292452010788232,-0.05220768204,0.813131254948579
1.98,1.24455989260924,-0.0473412633175476,6.80560202360514,94.3776587688414,22.8682493290726,58.1181094622354,2.1123409187708,-0.615125056517423,2.18314107334425,1.76616140657534,7.3162545388365,-7.50663757152916,0.0292452010788232,-0.0292452010788232,0.05220768204,1.03404519925756
1.99,1.17657484344511,-0.0798264075387076,6.88257280819008,93.7860211038004,23.7139945744345,59.8161665123804,-2.18432390628216,2.61008893133347,-1.68023457099579,1.79927194775049,7.59270894311537,-7.42502008135813,-0.0292452010788232,0.0292452010788232,-0.05220768204,0.849311708492307
2,1.11115100070803,-0.11767916394464,6.96158743751703,94.8330315260917,22.4872364168468,59.3550807266337,2.1510239608627,-0.593811659683981,2.18507524369027,1.8798354283051,7.47570767824243,-7.75527134334014,0.0292452010788232,-0.0292452010788232,0.05220768204,1.07263443472643
2.01,1.04108497663439,-0.152513082666637,7.04002079968182,94.2445664507782,23.3212738292881,61.0323263618803,-2.14670957171044,2.57250394184786,-1.67837685761601,1.91446865239456,7.75658451025222,-7.67558634563094,-0.0292452010788232,0.0287012320427394,-0.05220768204,0.879064131717515
2.02,0.973668248736355,-0.192939380314691,7.1204496343112,95.3024359467438,22.0986513423539,60.5386398998037,2.18744436098993,-0.631141562814183,2.18658940872696,1.9948785585489,7.62890526771913,-8.0188057571739,0.0292452010788232,-0.0292452010788232,0.05220768204,1.10481955010905
2.03,0.901514023664393,-0.230182200308334,7.20037575503368,94.7305328108548,22.9177910166412,62.2327102794666,-2.11048105134011,2.59566039675881,-1.67671604730775,2.03620410573446,7.91446456138697,-7.93911642765955,-0.0292452010788232,0.0292452010788232,-0.05220768204,0.902473091989059
2.04,0.832099070592371,-0.273243723673141,7.28223686356949,95.8136031916313,21.6971218189397,61.7429593388736,2.22317296465378,-0.608923573401729,2.18814106973971,2.12080328160912,7.77554342730207,-8.29354169235638,0.0292452010788232,-0.0292452010788232,0.05220768204,1.13261860061183
2.05,0.757827761586412,-0.312976821404724,7.36364793257461,95.2567308252289,22.5000864212295,63.4536976374743,-2.07577672824377,2.61803696018821,-1.67524140518607,2.16928376402664,8.06613278271632,-8.21333034866818,-0.0292452010788232,0.0292452010788232,-0.05220768204,0.923275093453165
2.06,0.686385943906614,-0.358760477835377,7.44692077260772,96.3636876843974,21.2817021717453,62.9665102229038,2.25740203044318,-0.587447261021423,2.18951147625425,2.25793301763893,7.91541338756962,-8.57860089752798,0.0292452010788232,-0.0292452010788232,0.05220768204,1.15839231351091
2.07,0.609965885450154,-0.401061103074262,7.52980295979471,95.8202898501391,22.0672582333324,64.6936923831611,-2.04253253413719,2.63966020584804,-1.67394575117921,2.31401551766308,8.21136231055284,-8.49747686191191,-0.0292452010788232,0.0292452010788232,-0.05220768204,0.94247582109484
2.08,0.536279730449123,-0.449403257341123,7.61442810709599,96.799141490602,20.8514719460566,64.2077966776749,2.02702556603211,-0.566687677631535,2.190707782386,2.40657864748977,8.07065646450059,-8.85173272207632,0.0274398614032961,-0.0292452010788232,0.05220768204,1.18302502479565
2.09,0.457474872416701,-0.49416550409528,7.69869768297274,96.1085011270453,21.6261814780518,65.9191977546643,-2.26859257472217,2.61162408629461,-1.67307728719979,2.46539936859123,8.39468982194071,-8.75232807721007,-0.0292452010788232,0.0288342354890194,-0.05220768204,0.982837055037633
2.1,0.381691505167055,-0.545505053315331,7.78469248988218,97.1072804350229,20.4197062109937,65.4137298707488,2.06833590966051,-0.591380677007057,2.18100975128454,2.55810870177265,8.2421737611835,-9.12482330636727,0.0292452010788232,-0.0292452010788232,0.0520511059931958,1.2466652036601
2.11,0.300662934775958,-0.593129601305367,7.87043442082039,96.4324878321501,21.1896463340872,67.1381466628836,-2.22779402800576,2.63261576396792,-1.68245376518782,2.62287482705449,8.57148203654884,-9.02797200137695,-0.0292452010788232,0.0292452010788232,-0.05220768204,1.03266417174444
