Time_s,Height_m,X_m,Y_m,Roll_deg,Pitch_deg,Yaw_deg,p,q,r,u,v,w,tx,ty,tz,Thrust
0.01,0.000981,0,0,-0.728892128279883,0.5435,0.732093704245974,-1.27215675303528,0.948586448458918,1.27774455722138,0,0,-0.0981,-0.00872699532582205,0.00872699532582205,0.0174539906516441,1.33416
0.02,0.00294106273082219,-4.92236274573733e-05,-6.75720725099492e-05,0.981084690006751,-0.770697344559116,-0.722544538846234,3.00855512788126,-2.26122598613934,-2.56768178887501,-0.00314881204280394,-0.00419928854751436,-0.196114251269072,0.0292452010788232,-0.0292452010788232,-0.05220768204,1.33416
0.03,0.00588161617920524,-1.00647948474875e-05,-1.5916643014965e-05,0.195881055957866,-0.264753024588442,0.0410362530832646,-1.35251299080471,0.90572682144871,1.31726429046325,-0.000105196048868758,0.000178407409931951,-0.294126707233869,-0.0292452010788232,0.0292452010788232,0.05220768204,1.33416
0.04,0.00980149592874545,-5.62449153261036e-05,-8.36174553700474e-05,1.88132317479276,-1.58010549596131,-1.41244973740422,2.92992934474262,-2.30438239316016,-2.52892117611938,-0.00643410664820973,-0.00810675898735282,-0.391937004216398,0.0292452010788232,-0.0292452010788232,-0.05220768204,1.33416
0.05,0.014695916501235,7.84986983644747e-05,8.20548055552108e-05,1.04030589201086,-1.10981638308182,-0.619831480753268,-1.42970599181516,0.865765143185689,1.3551617346452,-0.000439215129748511,0.000811425083169993,-0.489906835508749,-0.0292452010788232,0.0292452010788232,0.05220768204,1.33416
0.06,0.0205735053399465,9.18049915691221e-05,7.45707304831805e-05,2.70388721542883,-2.42708680945757,-2.07193243178278,2.85440912639503,-2.34469688932503,-2.49175978431289,-0.010045751740028,-0.0114035294773536,-0.587564361278906,0.0292452010788232,-0.0292452010788232,-0.05220768204,1.33416
0.07,0.0274144728110819,0.000382339444737468,0.000409725652238331,1.80756221109673,-1.99055695809118,-1.25243408610671,-1.50381215729061,0.828452586692185,1.39147890963609,-0.00117235388875971,0.0022071623555514,-0.685528631300371,-0.0292452010788232,0.0292452010788232,0.05220768204,1.33416
0.08,0.0352459646653096,0.000515295759463677,0.000515897311581718,3.45186690636466,-3.31050845325666,-2.7029387536393,2.78191821777259,-2.3824091428771,-2.45615516727731,-0.0141500073011563,-0.0138022159242418,-0.783084555323393,0.0292452010788232,-0.0292452010788232,-0.05220768204,1.33416
0.09,0.0440246544514409,0.00102517650475557,0.00106930822274214,2.50074154824018,-2.90585877645825,-1.85844919353017,-1.57491270429723,0.793561771289954,1.42625999002755,-0.00245345975681581,0.00464304504143057,-0.881072520505169,-0.0292452010788232,0.0292452010788232,0.05220768204,1.33416
0.1,0.0538046725210581,0.00134125830875132,0.00133587516380832,4.12826156840328,-4.22925121763181,-3.30717241906243,2.71237588008092,-2.41773827471433,-2.42206293612316,-0.0188923055676459,-0.0150441942687455,-0.978577510388633,0.0292452010788232,-0.0292452010788232,-0.05220768204,1.33416
0.11,0.0645108527275356,0.00213700277753412,0.00214983850412752,3.1228381465185,-3.85462919984192,-2.43933390410193,-1.64309246186718,0.76088518782785,1.45955071722214,-0.00441252488007907,0.00836845858936805,-1.07661083983515,-0.0292452010788232,0.0292452010788232,0.05220768204,1.33416
0.12,0.0762325438935179,0.00270263011790966,0.0026170582820329,4.73597197880662,-5.18221591932459,-3.88611979870513,2.64569803541084,-2.45088437461821,-2.38943731393304,-0.0243997628870394,-0.0148971290303497,-1.17411475210681,0.0292452010788232,-0.0292452010788232,-0.05220768204,1.33416
0.13,0.0888546432638826,0.00385336921756398,0.00372761724552055,3.67674136305422,-4.8358031171038,-2.99634800374578,-1.70843883214149,0.73023368956251,1.49139789350329,-0.00716302544555412,0.0136071400315966,-1.27220787563542,-0.0292452010788232,0.0292452010788232,0.05220768204,1.33416
0.14,0.102509742927358,0.00473757652170426,0.00442948913282676,5.27779377896913,-6.16832788552823,-4.44107200160421,2.58179825383526,-2.48202995161491,-2.35823161235742,-0.030783450033493,-0.0131527424915539,-1.36975958466887,0.0292452010788232,-0.0292452010788232,-0.05220768204,1.33416
0.15,0.117034892879191,0.00631474085187131,0.00586666175044762,4.16522929579015,-5.84834556663835,-3.53057422403935,-1.7710408986303,0.701435055810474,1.52184894916675,-0.0108040331702234,0.0205593434616062,-1.46792013477164,-0.0292452010788232,0.0292452010788232,0.05220768204,1.33416
0.16,0.132613763458451,0.0075888795731407,0.00683115341087282,5.75641190503834,-7.18653991586377,-4.9731442044991,2.52058860024428,-2.51134131231639,-2.32839863874669,-0.0381404461930738,-0.00962479855623376,-1.56556746622785,0.0292452010788232,-0.0292452010788232,-0.05220768204,1.33416
0.17,0.149027817175012,0.0096659164052919,0.00861916225548906,4.59096345683996,-6.89125313697113,-4.04293580170726,-1.83098866498687,0.674332632882011,1.55095157442544,-0.0154221237247547,0.0294038037985913,-1.66379678591731,-0.0292452010788232,0.0292452010788232,0.05220768204,1.33416
0.18,0.166519463269166,0.0114033865527204,0.00986843683738341,6.17439589177182,-8.23583404787749,-5.48329245020992,2.46198035686785,-2.53896986347214,-2.29989104179738,-0.0465556999141777,-0.00414727605813452,-1.76158652716229,0.0292452010788232,-0.0292452010788232,-0.05220768204,1.33416
0.19,0.184806994603505,0.0140555038835093,0.0120259381816303,4.95648432544952,-7.96355442683582,-4.53421157399524,-1.88837240904547,0.648784054689689,1.57875340846571,-0.0210931046807903,0.040299522676125,-1.85988022096005,-0.0292452010788232,0.0292452010788232,0.05220768204,1.33416
0.2,0.204199057616718,0.0163315107690363,0.0135765799053726,6.53419590485619,-9.3152223901936,-5.97232812496118,2.40588463609488,-2.56505333689052,-2.2726616030232,-0.0561037182400973,0.00342729224408356,-1.95785818601239,0.0292452010788232,-0.0292452010788232,-0.05220768204,1.33416
0.21,0.224343342359375,0.0196354450388439,0.0161168907015804,5.26420762101527,-9.06430978992403,-5.00504882793181,-1.94328213823232,0.62466004373074,1.60530177870691,-0.0278835833410985,0.0533873987550827,-2.05620669568307,-0.0292452010788232,0.0292452010788232,0.05220768204,1.33416
0.22,0.245622077172011,0.0225267778774309,0.0179801275254717,6.83813936173172,-10.4237472360769,-6.44093030712625,2.3522128968657,-2.58971693642534,-2.24666348069537,-0.0668501031264077,0.0132293368461113,-2.15441782648527,0.0292452010788232,-0.0292452010788232,-0.05220768204,1.33416
0.23,0.267605059037114,0.0265605822314727,0.0209114490204332,5.51642114380575,-10.1926105430378,-5.45597409961382,-1.99580713378661,0.601843291809361,1.63064348397739,-0.0358523926250852,0.0687917228545849,-2.25280701667034,-0.0292452010788232,0.0292452010788232,0.05220768204,1.33416
0.24,0.290755295112049,0.030145411530184,0.0230933713873922,7.08842800541912,-11.5604806273939,-6.88965615996849,2.3008773766242,-2.61307440792749,-2.22185041224945,-0.0788529521766805,0.0253736445719267,-2.35129550599444,0.0292452010788232,-0.0292452010788232,-0.05220768204,1.33416
0.25,0.314557538611155,0.0349882617831989,0.026419008547138,5.71528203762847,-11.3475777780319,-5.88740209618501,-2.04603557249941,0.580227418836882,1.65482461595558,-0.0450518910957248,0.0866215562013106,-2.4497072478016,-0.0292452010788232,0.0292452010788232,0.05220768204,1.33416
0.26,0.339562627736704,0.0393459527491751,0.0289207835531951,7.28713529962935,-12.7245235035213,-7.31894951945009,2.2517914495876,-2.63522903398515,-2.19817688053817,-0.0921641387579461,0.0399606450326114,-2.54851667200761,0.0292452010788232,-0.0292452010788232,-0.05220768204,1.33416
0.27,0.365163259935713,0.0450779684907715,0.0326393597659083,5.86281433429619,-12.5283608864211,-6.29964288884474,-2.09405421587537,0.559716007274159,1.67789041382446,-0.0555291512617873,0.106972007947863,-2.64692941497911,-0.0292452010788232,0.0292452010788232,0.05220768204,1.33416
0.28,0.391983029546141,0.0503979593991248,0.0354456427897034,7.43070872155456,-13.6741712542643,-7.7038148598526,2.20486992093985,-2.23373098702333,-2.17559824873061,-0.0956460546955646,0.0570776057450844,-2.7463375021024,0.0292452010788232,-0.0253578002445489,-0.05220768204,1.33416
0.29,0.419338146379167,0.0571979508051533,0.039535214502802,5.95607801759444,-13.2578227189597,-6.63801554626368,-2.13397146485379,0.954314406781621,1.69828919637543,-0.0451815165820542,0.129578317501902,-2.84496696973165,-0.0292452010788232,0.0292452010788232,0.05220768204,1.33416
0.3,0.447978515367514,0.0634237606073471,0.0426573025551994,7.51545584934492,-14.4235646869951,-8.03786796537485,2.16131988520826,-2.27038491671753,-2.15412669111912,-0.0900217217592691,0.0768947814920431,-2.94512683174733,0.0292452010788232,-0.0292452010788232,-0.05220768204,1.33416
0.31,0.477095703029253,0.0712310343170044,0.0471257534587797,5.99930761961768,-14.0301346193351,-6.9583151406957,-2.17685201596435,0.919436869968407,1.71930038858769,-0.0370955107986373,0.15490312060501,-3.04334370095567,-0.0292452010788232,0.0292452010788232,0.05220768204,1.33416
0.32,0.50754291029218,0.0784137110910152,0.0505556826005234,7.55202638746817,-15.2160534679869,-8.35376673278996,2.11955644221768,-2.30544122938482,-2.13359568175417,-0.0867433244171014,0.0993985593065723,-3.14427613589616,0.0292452010788232,-0.0292452010788232,-0.05220768204,1.33416
0.33,0.538405682220193,0.0872806193582259,0.0553937114651995,5.9943614263178,-14.8437562271168,-7.26077724731997,-2.21796341874948,0.88606827767064,1.73938563449816,-0.0313199413446424,0.182987798644034,-3.24205602862954,-0.0292452010788232,0.0292452010788232,0.05220768204,1.33416
0.34,0.570645003185642,0.0954733356058253,0.0591195219527162,7.54218469104733,-16.0500852797522,-8.65174393413318,2.07952455444987,-2.33899415864314,-2.11397417127984,-0.0858567833079615,0.124626121191376,-3.3437789608218,0.0292452010788232,-0.0292452010788232,-0.05220768204,1.33416
0.35,0.603235880709585,0.105454149768121,0.0643140478969123,5.94296494702187,-15.6971971352947,-7.54551753954844,-2.25736171582928,0.854119302513527,1.75857614240808,-0.0278969730559437,0.21386685306714,-3.44109477014684,-0.0292452010788232,0.0292452010788232,0.05220768204,1.33416
0.36,0.63725152587874,0.11471203929103,0.0683199392182059,7.48756258981061,-16.9241577167781,-8.93191315096771,2.04116895436001,-2.37113086244801,-2.09523121679342,-0.0874016574671507,0.152608230623466,-3.54362380592535,0.0292452010788232,-0.0292452010788232,-0.05220768204,1.33416
0.37,0.671551937727761,0.125862788837525,0.0738542529663433,5.84670954883911,-16.5890143286939,-7.81253954414372,-2.29510295023113,0.823507413150109,1.776902924501,-0.0268630925148118,0.247568344139338,-3.64044629962864,-0.0292452010788232,0.0292452010788232,0.05220768204,1.33416
0.38,0.707326943108935,0.136242790423075,0.0781207368364712,7.38965796332377,-17.8368158148267,-9.19427583177732,2.00443441825318,-2.40193197300804,-2.07733610306173,-0.0914120967094516,0.183369622110227,-3.74379522487456,0.0292452010788232,-0.0292452010788232,-0.05220768204,1.33416
0.39,0.743317118386916,0.148621108900612,0.0839746504836251,5.70705066667963,-17.5178094186074,-8.06174066519397,-2.33124291895002,0.794156336882742,1.79439668735513,-0.0282499986049613,0.284114319108187,-3.84009360430851,-0.0292452010788232,0.0292452010788232,0.05220768204,1.33416
0.4,0.780833229523725,0.160181815628292,0.0884787018678545,7.24983282331894,-18.7866493811781,-9.43872663443892,1.96926600268215,-2.43147211047053,-2.06025844629802,-0.0979177239411464,0.216929387243787,-3.94427482533031,0.0292452010788232,-0.0292452010788232,-0.05220768204,1.33416
0.41,0.81849208567678,0.173846792279212,0.0946286971712183,5.52530556854135,-18.4822257295119,-8.29291656195497,-2.36583696129368,0.765995558760717,1.81108773869739,-0.0320854298360565,0.323521236301267,-4.04001723924969,-0.0292452010788232,0.0292452010788232,0.05220768204,1.33416
0.42,0.857729636818618,0.186648305383136,0.0993439034720038,7.06931087614528,-19.7722901763539,-9.66505712514486,1.93560924739172,-2.45982036155182,-2.04396828238992,-0.106944457123085,0.253301362591653,-4.14504216878097,0.0292452010788232,-0.0292452010788232,-0.05220768204,1.33416
0.43,0.897034663980672,0.20166034152438,0.105763278751496,5.30265063484267,-19.4809452770212,-8.50576394345008,-2.39893977820858,0.73895985579083,1.82700590860975,-0.0383939371082514,0.365800389835501,-4.24019618217571,-0.0292452010788232,0.0292452010788232,0.05220768204,1.33416
0.44,0.937972453804232,0.21576412786641,0.110659987344469,6.84917451621842,-20.792408982202,-9.87295788195948,1.90341034846467,-2.48704072447366,-2.02843614129702,-0.118515278823356,0.292494523093103,-4.34607557243162,0.0292452010788232,-0.0292452010788232,-0.05220768204,1.33416
0.45,0.978899596780938,0.232184797131592,0.117319003119751,5.04011809090364,-20.5126856620283,-8.69988182042871,-2.43060527914238,0.712988864747348,1.84218048356532,-0.0471976089538175,0.41095833806436,-4.4406085905607,-0.0292452010788232,0.0292452010788232,0.05220768204,1.33416
0.46,1.0214732982426,0.247766753396654,0.122347260089704,6.58519676009427,-21.689199546704,-10.0472810070116,1.8726163049781,-2.23896543144185,-2.01363310917569,-0.120473608028549,0.334513383232105,-4.54748224402187,0.0292452010788232,-0.02672231184845,-0.05220768204,1.33416
0.47,1.06395616423937,0.265763462289093,0.129191286700771,4.7321604832466,-21.2665644772279,-8.84288882733528,-2.45729639552252,0.956769230418955,1.85576047264566,-0.0343814818614892,0.458613359419311,-4.64151408975395,-0.0292452010788232,0.0292452010788232,0.05220768204,1.33416
0.48,1.10818733752361,0.282754069532124,0.134340469582172,6.2745541812233,-22.4710409279206,-10.1832855123604,1.84345481507953,-2.27489784095131,-1.99926594510876,-0.113524102008539,0.379445087512681,-4.74963670117626,0.0292452010788232,-0.0292452010788232,-0.05220768204,1.33416
0.49,1.1522497359961,0.302256183226136,0.141356959255644,4.38574458560659,-22.0629227483561,-8.96837028109058,-2.48613257403562,0.922185250799233,1.86984191773646,-0.0250196740895933,0.509178196286942,-4.84259195375186,-0.0292452010788232,0.0292452010788232,0.05220768204,1.33416
0.5,1.19811954833593,0.320701074175806,0.146591967177581,5.92671977996336,-23.2952654671583,-10.301494231544,1.81552819499239,-2.30944442943653,-1.98556615413829,-0.110092920309874,0.427206071700865,-4.95196571706553,0.0292452010788232,-0.0292452010788232,-0.05220768204,1.33416
0.51,1.24374049313445,0.341754729727657,0.153746680134472,4.00169120334694,-22.9000877154805,-9.07571266505848,-2.51374400420971,0.888926110020099,1.88326632549997,-0.0191225146297701,0.562635640490631,-5.04383235293307,-0.0292452010788232,0.0292452010788232,0.05220768204,1.33416
0.52,1.29122843492917,0.36170139823089,0.159029662412168,5.5424021373763,-24.1601964045777,-10.4012661463184,1.78879573086984,-2.34266941656497,-1.97250983375568,-0.110188555551319,0.477778383524312,-5.15445703432389,0.0292452010788232,-0.0292452010788232,-0.05220768204,1.33416
0.53,1.33838524648354,0.384354408632198,0.166285794776709,3.58067394113792,-23.7764300352788,-9.16420241701371,-2.54017186511814,0.856930570818735,1.89605757192367,-0.0166980171592891,0.618966699880893,-5.24522197163656,-0.0292452010788232,0.0292452010788232,0.05220768204,1.33416
0.54,1.38746900707736,0.405852058837568,0.171576282578966,5.12216016625655,-25.0642003791628,-10.4818570908193,1.76321691596243,-2.37463307337423,-1.96007339417976,-0.113817430105971,0.531142521999436,-5.35709538925942,0.0292452010788232,-0.0292452010788232,-0.05220768204,1.33416
0.55,1.43613719770992,0.430153765460602,0.178894594139816,3.12321436737269,-24.6903595162541,-9.23302483410896,-2.56545701078869,0.826141189005568,1.90823917772856,-0.0177525229925573,0.67815085010374,-5.44674493214462,-0.0292452010788232,0.0292452010788232,0.05220768204,1.33416
0.56,1.48679254022315,0.453253162543291,0.184149632534366,4.66639755718099,-26.0056831820949,-10.542417494836,1.73875158927732,-2.40539201064881,-1.94823361350519,-0.120984537312124,0.587277662827408,-5.5598633689079,0.0292452010788232,-0.0292452010788232,-0.05220768204,1.33416
0.57,1.53694569907691,0.479254289583828,0.19148857528712,2.6296763090779,-25.6403207999071,-9.2812613151105,-2.58963984530586,0.796504032497116,1.91983425882667,-0.0222913040146506,0.740166297415811,-5.64838359719846,-0.0292452010788232,0.0292452010788232,0.05220768204,1.33416
0.58,1.58906347530124,0.504179723693299,0.19663476463022,4.1710432763401,-26.7874440187564,-10.5720213422014,1.71536005558204,-2.09318080288102,-1.93696768471294,-0.112386815482848,0.64616189846685,-5.76281834637985,0.0292452010788232,-0.0261004695515726,-0.05220768204,1.33416
0.59,1.64059169445577,0.5320930708554,0.203914649249084,2.09654167149598,-26.2375978724862,-9.28515676802357,-2.60845565430492,1.102950691779,1.92986106242773,0.00796853994384647,0.80437470853031,-5.85029984031452,-0.0292452010788232,0.0292452010788232,0.05220768204,1.33416
0.6,1.6942350250376,0.558699745703247,0.208944585596128,3.63209270462825,-27.4197601742599,-10.5643399760206,1.6930236809004,-2.13514203453967,-1.92574642877249,-0.0890723820299446,0.707895893801793,-5.96650423066577,0.0292452010788232,-0.0292452010788232,-0.05220768204,1.33416
0.61,1.74720607188161,0.588380964700013,0.216155533602351,1.52903753087782,-26.8827840663802,-9.27062201705137,-2.63071795578192,1.06228888722997,1.94089949812079,0.033313383027699,0.871395122217965,-6.05215698076478,-0.0292452010788232,0.0292452010788232,0.05220768204,1.33416
0.62,1.8023558584425,0.616700541121864,0.221023821989606,3.0597348285189,-28.0995443114849,-10.5376719114897,1.67164056931719,-2.17552279287423,-1.91506994211053,-0.0707162551475406,0.772326167311014,-6.17012864412066,0.0292452010788232,-0.0292452010788232,-0.05220768204,1.33416
0.63,1.85674915813632,0.648181961372684,0.228122804310573,0.927396094739348,-27.5738363748573,-9.23654175202561,-2.65202796967921,1.02315202096782,1.95139987814786,0.0537610062113457,0.941186427518441,-6.25398609598017,-0.0292452010788232,0.0292452010788232,0.05220768204,1.33416
0.64,1.91338415106365,0.678248347431745,0.232781870207299,2.45405747383499,-28.8247559377036,-10.4908415797511,1.65118076282047,-2.21438845843966,-1.90491859013412,-0.0572994988520404,0.839412168855127,-6.37371735126493,0.0292452010788232,-0.0292452010788232,-0.05220768204,1.33416
0.65,1.96917698596047,0.71156436695831,0.239723845237194,0.291697268586424,-28.3087556786333,-9.18170197774806,-2.67241634008008,0.985477165460749,1.96138188720306,0.0693305824093362,1.01370891145524,-6.45580928432067,-0.0292452010788232,0.0292452010788232,0.05220768204,1.33416
0.66,2.02727368203862,0.743413554275024,0.24412406461181,1.81499090227007,-29.5933974917457,-10.4225694047302,1.63161418349001,-2.25180105731902,-1.89527295965182,-0.0488020286141568,0.909115009262717,-6.57728787926287,0.0292452010788232,-0.0292452010788232,-0.05220768204,1.33416
0.67,2.08444110033187,0.778600480999245,0.250862100715293,-0.378138414074362,-29.0855811807228,-9.10478597374555,-2.69191372149345,0.949204636689273,1.97086495127756,0.080041991512119,1.08892437199494,-6.65764099085412,-0.0292452010788232,0.0292452010788232,0.05220768204,1.33416
0.68,2.14397363911376,0.812270382231586,0.254951931562942,1.14229954840021,-30.4035087043978,-10.3314660424158,1.61291076922378,-2.28781947456635,-1.88611390693741,-0.0452032835221832,0.981397535102786,-6.78085075289269,0.0292452010788232,-0.0292452010788232,-0.05220768204,1.33416
0.69,2.20248836243823,0.849366276870762,0.26143733160995,-1.08235779750739,-29.9023847526541,-9.00436857931038,-2.71055065451515,0.914277785078718,1.97986819395716,0.0859152031987914,1.1667962368709,-6.85948917233535,-0.0292452010788232,0.0292452010788232,0.05220768204,1.33416
0.7,2.26342842254391,0.884896564124391,0.265163447080604,0.435572647940904,-31.2531608268572,-10.2160248298968,1.59504059338648,-2.32249965375265,-1.87742259948122,-0.0464828336708504,1.05622441496045,-6.98441057473837,0.0292452010788232,-0.0292452010788232,-0.05220768204,1.33416
0.71,2.32326075361754,0.923941084454804,0.271345875045375,-1.82138413817331,-30.7572651383732,-8.87890877491941,-2.72835745662472,0.880642800337559,1.98841039867862,0.0869697173528158,1.24728968993454,-7.06135631082339,-0.0292452010788232,0.0292452010788232,0.05220768204,1.33416
0.72,2.38542943353963,0.961612042665829,0.274616072159277,-0.301434332345275,-31.9104808608751,-10.0831223932936,1.57797396976241,-1.95431886573822,-1.86918055194417,-0.0242642256192703,1.13356223799985,-7.18761771030534,0.0292452010788232,-0.0255507026376466,-0.05220768204,1.33416
0.73,2.4464009540501,1.00287102377304,0.280394061340381,-2.58120332998839,-31.1929809022444,-8.74071627028268,-2.7404840162834,1.24179292868871,1.99542446938686,0.139489779908047,1.32945025691145,-7.2625928261955,-0.0292452010788232,0.0292452010788232,0.05220768204,1.33416
0.74,2.50992749237801,1.04245430174051,0.283205948038964,-1.07310432869476,-32.387052862528,-9.92526291949639,1.56136452127401,-2.00228795614365,-1.86059303757489,0.0200047793251867,1.21354135152665,-7.39124846901895,0.0292452010788232,-0.0292452010788232,-0.05220768204,1.33416
0.75,2.5721739042782,1.08570269951767,0.288573271113771,-3.37289912539841,-31.6809215197363,-8.58103474674021,-2.75723242483368,1.1951117953401,2.00391292948705,0.185182659328916,1.41416938632957,-7.46353206911695,-0.0292452010788232,0.0292452010788232,0.05220768204,1.33416
0.76,2.63703796646694,1.12721655938665,0.290873416750635,-1.87611463535016,-32.9150124682487,-9.74496682682755,1.54549072800204,-2.04845547652458,-1.85245920441412,0.0574344081832638,1.29592587324778,-7.59458065779638,0.0292452010788232,-0.0292452010788232,-0.05220768204,1.33416
0.77,2.70053820377864,1.1724735538451,0.295780613392862,-4.19688276775737,-32.2186220164337,-8.39821157756623,-2.77323888478638,1.1501788394366,2.0119518664479,0.224108631428303,1.50139415117084,-7.66427775942,-0.0292452010788232,0.0292452010788232,0.05220768204,1.33416
0.78,2.76671668250884,1.21593881548639,0.297513956875032,-2.7110686113032,-33.4918983263461,-9.54047619122835,1.53032968588083,-2.09289163442247,-1.84476173720914,0.088084489866903,1.38066444124525,-7.79770811107286,0.0292452010788232,-0.0292452010788232,-0.05220768204,1.33416
0.79,2.83144696734193,1.26322597831091,0.301910079156075,-5.05371766019235,-32.803655068776,-8.19050347524623,-2.78852714290808,1.1069260581176,2.01955867266105,0.256328047390063,1.59107641286069,-7.86491488303062,-0.0292452010788232,0.0292452010788232,0.05220768204,1.33416
0.8,2.89874113639242,1.30855820448375,0.30305392920822,-3.57873009349355,-34.1152841217548,-9.30993409307139,1.5158582227258,-2.13566349377857,-1.83748355609356,0.112014671581388,1.46771082294644,-7.98007022292368,0.0292452010788232,-0.0292452010788232,-0.05220768204,1.19382932916103
0.81,2.96403899090264,1.35747842724217,0.306998572143306,-5.94412847020973,-33.4336242244524,-7.95606955168655,-2.80312111009682,1.06528850315183,2.0267504734318,0.281680616498023,1.68259425546371,-7.98843630908689,-0.0292452010788232,0.0292452010788232,0.05220768204,0.950237539462385
0.82,3.031487894636,1.4041230406431,0.307704243371572,-4.4800341537175,-34.7827715459921,-9.05137545031115,1.50205302921878,-2.1768351492305,-1.83060785485222,0.130752357585587,1.55759955958976,-8.05062189481804,0.0292452010788232,-0.0292452010788232,-0.05220768204,0.81732968579238
0.83,3.09648953502569,1.45412383062673,0.311311573452718,-6.86901081076547,-34.1061569240985,-7.69296309823421,-2.81704474051203,1.02520410960325,2.03354409220253,0.300794161760049,1.77387909201982,-8.00911522364749,-0.0292452010788232,0.0292452010788232,0.05220768204,0.626199060752549
0.84,3.16334533422551,1.50163942103615,0.311714491517784,-5.41609859544479,-35.4919829899012,-8.76271646875659,1.48889077510142,-2.2164678897314,-1.82411813424102,0.145623664420623,1.64863035991497,-8.03347541854812,0.0292452010788232,-0.0292452010788232,-0.05220768204,0.543557716841178
0.85,3.22743009867357,1.55231416819419,0.315080176751208,-7.82944154461577,-34.8188972532811,-7.39912210148373,-2.83032192470637,0.986613535210517,2.03995602047215,0.315324515332735,1.86384525939699,-7.955362971537,-0.0292452010788232,0.0292452010788232,0.05220768204,0.391240905539588
0.86,3.29314715170151,1.60039322017236,0.315286873032127,-6.38691640512462,-36.226753098111,-8.44405425235088,1.47634821177101,-2.23030679444643,-1.81799823070405,0.159709082551893,1.73929412425977,-7.95317792896414,0.0292452010788232,-0.029021516349353,-0.05220768204,0.346842678506582
0.87,3.35586400349764,1.65146065570253,0.318486467758985,-8.82366943058403,-35.5421596336258,-7.07681861623988,-2.84268901814678,0.973287296346172,2.0459409023636,0.330516946945966,1.9515681736974,-7.84839977217042,-0.0292452010788232,0.0292452010788232,0.05220768204,0.223153894296005
0.88,3.41993170085746,1.7000430203192,0.318562997123165,-7.37478794448943,-36.8117005584321,-8.12594793634521,1.4643673308923,-1.96099792138499,-1.81217703846943,0.197939314219084,1.82843241239801,-7.82731585385349,0.0292452010788232,-0.026420852926624,-0.05220768204,0.207964551492219
0.89,3.48083948706984,1.75145887082717,0.321627035765057,-9.81246043372674,-35.957734092096,-6.78401196200793,-2.85117293145642,1.23743398974098,2.05092433379581,0.390879262135794,2.03563340518474,-7.70264723440086,-0.0292452010788232,0.0292452010788232,0.05220768204,0.106283177538221
0.9,3.54315924740554,1.80018243236681,0.321670910777276,-8.38292294060128,-37.2685183490447,-7.80126081519858,1.45249943031694,-2.00936184169319,-1.80598899943012,0.256554185150591,1.91524324470793,-7.67094663571094,0.0292452010788232,-0.0292452010788232,-0.05220768204,0.114414965335484
0.91,3.60225799841871,1.85164391624417,0.324660881427505,-10.8350728743446,-36.4220063762154,-6.46098741382337,-2.86329244850211,1.19026274463096,2.05706908276715,0.446404503159679,2.11631066208543,-7.53795850265458,-0.0292452010788232,0.0292452010788232,0.05220768204,0.066708
0.92,3.66272693069042,1.90044203820291,0.324698075088309,-9.42523525507581,-37.772841839406,-7.44475222841881,1.44120373410414,-2.05590342591743,-1.80017282555837,0.31113241787608,1.99875414943747,-7.5023780943216,0.0292452010788232,-0.0292452010788232,-0.05220768204,0.066708
0.93,3.71996271691557,1.9519092260561,0.327626745197561,-11.8926820185179,-36.932185748336,-6.10557427561322,-2.87483096051968,1.14486473005132,2.06284495534875,0.498033998845618,2.19331947545766,-7.36716698629264,-0.0292452010788232,0.0292452010788232,0.05220768204,0.066708
0.94,3.77858071452239,2.00078546852219,0.327652106154962,-10.5031617900333,-38.3218684612492,-7.05407819392633,1.43046015150615,-2.1006916467064,-1.79471251431646,0.362356007619483,2.0785201466629,-7.33471374804815,0.0292452010788232,-0.0292452010788232,-0.05220768204,0.066708
0.95,3.83395447064003,2.05225983690024,0.330518112180524,-12.9866289691986,-37.4854951757292,-5.71550536877903,-2.88580928697678,1.10117295544878,2.06826797339113,0.546580604841796,2.26658335121511,-7.19754292274474,-0.0292452010788232,0.0292452010788232,0.05220768204,0.066708
0.96,3.89072120570433,2.10121779618265,0.330526595538368,-11.6183184508246,-38.912803874325,-6.62678368236335,1.42024853915118,-2.14379264602561,-1.78959241548308,0.410870816204016,2.15438215309813,-7.16821200161209,0.0292452010788232,-0.0292452010788232,-0.05220768204,0.066708
0.97,3.94423374834037,2.15270086421669,0.333328472856895,-14.1184294399013,-38.0791630532713,-5.28840836701679,-2.89624821741692,1.05912318405654,2.07335378494562,0.592668339854756,2.33594561560819,-7.02933799305823,-0.0292452010788232,0.0292452010788232,0.05220768204,0.066708
0.98,3.9991486634013,2.20174415246079,0.333315149333062,-12.7725108524478,-39.5428530257621,-6.16029156871749,1.41054880026097,-2.18526987621985,-1.78479725290322,0.457276913055394,2.22619923394206,-7.00313192437288,0.0292452010788232,-0.0292452010788232,-0.05220768204,0.066708
0.99,4.05080068088602,2.2532374805173,0.336051352239494,-15.2897822878319,-38.7104145129973,-4.82179682694015,-2.90616842043685,1.01865379439209,2.07811764511021,0.636876215577462,2.40126841276752,-6.86280585512298,-0.0292452010788232,0.0292452010788232,0.05220768204,0.066708
1,4.10366315389532,2.30257775205156,0.336000925256266,-13.9170301538563,-39.9777405207563,-5.73298490075286,1.40134097168845,-1.80636838481468,-1.78031214263579,0.530871930690679,2.293848149093,-6.83706776098085,0.0292452010788232,-0.0253920952790904,-0.05220768204,0.066708
1.01,4.15325191777252,2.35428420532082,0.338643230389161,-16.3947532043311,-38.9177747089094,-4.47227986989848,-2.9107427281572,1.39014518105205,2.08156901601824,0.736162523401524,2.46143282788127,-6.69292604640626,-0.0292452010788232,0.0292452010788232,0.05220768204,0.066708
1.02,4.20427028608524,2.40370380198631,0.338575853550226,-15.0525591555238,-40.2279043045654,-5.3394289399377,1.39180781313026,-1.86126718848501,-1.77506948974446,0.628787838776837,2.35734268299492,-6.67078039841287,0.0292452010788232,-0.0292452010788232,-0.05220768204,0.066708
1.03,4.25200493041868,2.45541500426005,0.341139632887557,-17.5344446215122,-39.177890693768,-4.08759385572905,-2.92065721548193,1.33652373127005,2.08680820703704,0.829864718029198,2.51724310588272,-6.52433816129456,-0.0292452010788232,0.0292452010788232,0.05220768204,0.066708
1.04,4.30117871323552,2.50491641282694,0.341050425615742,-16.2233010308888,-40.52919108729,-4.90894720307961,1.38277176194587,-1.91408184957638,-1.770179750098,0.721566687611053,2.41628819212282,-6.50580326581987,0.0292452010788232,-0.0292452010788232,-0.05220768204,0.066708
1.05,4.34706004696738,2.55663293283329,0.343535413560451,-18.7100820500727,-39.4874681335454,-3.6655867446988,-2.93006120581606,1.28493389262459,2.09169644497428,0.918730656683933,2.56857130595508,-6.35744283052184,-0.0292452010788232,0.0292452010788232,0.05220768204,0.066708
1.06,4.39438855275486,2.6062186836108,0.343419575205254,-17.4307762756334,-40.8782836563202,-4.4391852805059,1.3742149499329,-1.96489080524431,-1.76562669052483,0.809926451288508,2.47057292460594,-6.34253609807624,0.0292452010788232,-0.0292452010788232,-0.05220768204,0.066708
1.07,4.43841727241359,2.65794119228085,0.345825365723259,-19.923028411535,-39.8432282534609,-3.20404265603333,-2.93897346533399,1.23529931938482,2.09624999455049,1.00345717993335,2.61531078415409,-6.19262158133335,-0.0292452010788232,0.0292452010788232,0.05220768204,0.066708
1.08,4.48389959387913,2.70761383778295,0.345678188750116,-18.676649338551,-41.2718733528191,-3.92771704564242,1.36611934926147,-2.01376938986702,-1.76139448272257,0.894534272463122,2.52010544632017,-6.1813612057665,0.0292452010788232,-0.0292452010788232,-0.05220768204,0.066708
1.09,4.52607627669892,2.75934310406593,0.348004253610609,-21.174787318038,-40.2418996240216,-2.70067855540247,-2.94741282855197,1.18754669065588,2.10048469494694,1.08469069461426,2.65737543491583,-6.03024073407071,-0.0292452010788232,0.0292452010788232,0.05220768204,0.066708
1.1,4.56971128724134,2.80910519825908,0.347821134494727,-19.96273307115,-41.7066511692114,-3.37203965243132,1.35846688342882,-2.06078997960023,-1.75746772119192,0.976007067968958,2.56481385413244,-6.02264701425167,0.0292452010788232,-0.0292452010788232,-0.05220768204,0.066708
1.11,4.61003638539806,2.86084208538817,0.350066840642724,-22.4670050389041,-40.6802096981825,-2.153141650235,-2.95539809625056,1.14160556818348,2.10441594433142,1.16302788626356,2.69469901104234,-5.87065461837654,-0.0292452010788232,0.0292452010788232,0.05220768204,0.066708
1.12,4.65182273711115,2.91069616349972,0.349843288614451,-21.2909915955314,-42.1792985115773,-2.76956957977791,1.3512395246854,-2.10602212865451,-1.75383143789377,1.05491225533786,2.60464507999868,-5.86675096065057,0.0292452010788232,-0.0292452010788232,-0.05220768204,0.066708
1.13,4.69029657316688,2.96244162558916,0.352007914525931,-23.8014709129564,-41.1548760920219,-1.55900780842039,-2.96294794620364,1.09740826244509,2.10805868749356,1.23901652786741,2.72723451357541,-5.71420817628565,-0.0292452010788232,0.0292452010788232,0.05220768204,0.066708
1.14,4.73021822892109,3.012401374149,0.3517408221594,-22.6572042719959,-42.6700402687551,-2.12726941374017,1.3444193790863,-2.11817730440332,-1.75047111383741,1.13356028290197,2.63956427509672,-5.71363331420469,0.0292452010788232,-0.0289567314599317,-0.05220768204,0.066708
1.15,4.76682623440076,3.06416722613577,0.353823660888119,-25.1669228560426,-41.6300266315961,-0.934850525093425,-2.96972401197786,1.08561799203703,2.11135519391689,1.3166752875695,2.75488471376169,-5.56047242092222,-0.0292452010788232,0.0292452010788232,0.05220768204,0.066708
1.16,4.80478195465339,3.11430748990706,0.353521131525856,-24.0088545827611,-43.0466923092807,-1.52417401034393,1.33791715857121,-1.91089834252815,-1.74728777905664,1.22613747031533,2.6695595255059,-5.56037602984907,0.0292452010788232,-0.026941826896696,-0.05220768204,0.066708
1.17,4.83942221614428,3.16616495033523,0.355523799894066,-26.4654584698252,-41.8792979199635,-0.42132155476061,-2.97369767768129,1.28886698197295,2.1139762074271,1.41997352180758,2.77714890424228,-5.40394903280343,-0.0292452010788232,0.0292452010788232,0.05220768204,0.066708
1.18,4.87553208011815,3.21639718054445,0.355176627882451,-25.3500808281141,-43.3309736208858,-0.949585705669504,1.33121102753817,-1.96220071160724,-1.74367643842155,1.3295807177724,2.69464237748917,-5.40780132183672,0.0292452010788232,-0.0292452010788232,-0.05220768204,0.066708
1.19,4.90832460529463,3.26826263105056,0.357089183042485,-27.8056762980471,-42.1701118575949,0.140047748287576,-2.98080640631239,1.23871280155966,2.11761035941551,1.51961765631134,2.79443664963208,-5.2509248041399,-0.0292452010788232,0.0292452010788232,0.05220768204,0.066708
1.2,4.94258699944966,3.31858857938171,0.3566930245733,-26.7346164559599,-43.6547089201901,-0.324617293134267,1.3249045214503,-2.01154295040106,-1.74035537226221,1.42969817383935,2.71460313758917,-5.25876312825396,0.0292452010788232,-0.0292452010788232,-0.05220768204,0.066708
1.21,4.97353207187816,3.37046250519937,0.358515240880384,-29.1890722711257,-42.4988583026832,0.751337115562323,-2.98750271476632,1.1904712085104,2.12095579338155,1.61616754933763,2.80674150736373,-5.10180616639104,-0.0292452010788232,0.0292452010788232,0.05220768204,0.066708
1.22,5.00594517595135,3.42088387901856,0.35806584810944,-28.1642706794095,-44.014223199093,0.353037480808617,1.31898041493007,-2.0589983938974,-1.73730952295209,1.52701744541117,2.72944679253044,-5.11366795964651,0.0292452010788232,-0.0292452010788232,-0.05220768204,0.066708
1.23,5.03504295330251,3.47276688966625,0.359797392258424,-30.6172512209016,-42.8619169594743,1.41466343366739,-2.99380451699855,1.14407077254717,2.12402753560421,1.71013211170935,2.81407647072672,-4.95698281571183,-0.0292452010788232,0.0292452010788232,0.05220768204,0.066708
1.24,5.06560474499808,3.52328533400286,0.359290617142247,-29.6409598755377,-44.4058213909301,1.08572332718642,1.31342163046852,-2.10463758404345,-1.73452432789185,1.62201555259086,2.73919677960914,-4.97290639950681,0.0292452010788232,-0.0292452010788232,-0.05220768204,0.066708
1.25,5.09285526058145,3.57517815917799,0.36093105906833,-32.0919159380417,-43.2556495383291,2.13217188710792,-2.99972951203562,1.09944278485557,2.12684010527917,1.80197022795814,2.81647326561072,-4.81682999294656,-0.0292452010788232,0.0292452010788232,0.05220768204,0.066708
1.26,5.12138165894754,3.62589517078519,0.360406059114097,-31.048653672673,-44.6257214940913,1.703554102812,1.30821131130325,-1.73638377066125,-1.73198572430347,1.73497218510968,2.74389428190103,-4.82942839653093,0.0292452010788232,-0.0254534705762206,-0.05220768204,0.066708
1.27,5.14659889322075,3.67789415824538,0.361983101904193,-33.3731781886781,-43.2798512635294,2.56519095816109,-3.00065419155306,1.46042286707434,2.128483892907,1.93108320224657,2.81312606958007,-4.66692040161554,-0.0292452010788232,0.0292452010788232,0.05220768204,0.066708
1.28,5.1732828976509,3.72870315892414,0.361404074319559,-32.3808839478151,-44.6834277309745,2.20616830451228,1.3022980436949,-1.79481890316244,-1.72851755643415,1.86401764102549,2.74362843535583,-4.68371651534572,0.0292452010788232,-0.0292452010788232,-0.05220768204,0.066708
1.29,5.19665704660582,3.78071003552648,0.362879013810934,-34.6982181165122,-43.3502427660301,3.05147700138083,-3.00706672880326,1.4032655201868,2.13199547009902,2.05535548513951,2.8046325778791,-4.52127912551406,-0.0292452010788232,0.0292452010788232,0.05220768204,0.066708
1.3,5.22149690442118,3.83161175125508,0.362241568680304,-33.757896673249,-44.7849269152737,2.76402179634561,1.29677267766185,-1.85101203571928,-1.72535459702303,1.98856221227201,2.73805139734271,-4.54233312741426,0.0292452010788232,-0.0292452010788232,-0.05220768204,0.066708
1.31,5.24302842362908,3.88362631209047,0.363614614086712,-36.0676992646588,-43.4628469864646,3.59224215529397,-3.01307501548278,1.34829715881856,2.1352030102113,2.17538705566803,2.7910267032182,-4.38040206143471,-0.0292452010788232,0.0292452010788232,0.05220768204,0.066708
1.32,5.26602368344395,3.93462293606296,0.362913016499102,-35.1806417570059,-44.9261730717735,3.37852198556442,1.29161836051732,-1.90504714350463,-1.72248048342669,2.10916948103859,2.72720810947796,-4.40602300550699,0.0292452010788232,-0.0292452010788232,-0.05220768204,0.0684401515019646
1.33,5.28571438239687,3.98664676099056,0.364182907424794,-37.4823960052517,-43.6136964586075,4.18873494467179,-3.01869677780448,1.29543592266953,2.13812285512295,2.29172631270282,2.77237094881081,-4.24500835252479,-0.0292452010788232,0.0292452010788232,0.05220768204,0.066708
1.34,5.30690951471541,4.03778683465722,0.363366849079043,-36.6501628560351,-45.1031228229025,4.05109851244509,1.28681825795165,-1.95700502511085,-1.71987940278863,2.22634678029694,2.71116794639905,-4.28310816800582,0.0292452010788232,-0.0292452010788232,-0.05220768204,0.123634335777528
1.35,5.32480580705921,4.08987106654717,0.364490514147945,-38.9431722798448,-43.7988279438433,4.84222085148219,-3.02394964106926,1.2446030501814,2.14077078330922,2.40495993183103,2.74898224834663,-4.12338883306474,-0.0292452010788232,0.0292452010788232,0.05220768204,0.066708
1.36,5.34423740902692,4.14119701333384,0.363513271246491,-38.1675747211491,-45.3117296209511,4.78318282778431,1.28235564907906,-2.006963437525,-1.71753609673787,2.34048310016939,2.69015770846292,-4.17302529157193,0.0292452010788232,-0.0292452010788232,-0.05220768204,0.172123432930234
1.37,5.36039378803103,4.1934039751915,0.364434409912551,-40.4509589107476,-44.0142774061431,5.55396194927817,-3.02885104300731,1.19572274589127,2.14316200712204,2.51543842087065,2.72106939662011,-4.0178091471994,-0.0292452010788232,0.0292452010788232,0.05220768204,0.0861074143740925
1.38,5.37810465555566,4.24496635661524,0.36323815271511,-39.7340383030129,-45.5479384478104,5.57618595131984,1.27821400841335,-2.05499722375529,-1.71543586359044,2.45184248423241,2.66437007242823,-4.07767714858722,0.0292452010788232,-0.0292452010788232,-0.05220768204,0.211470210056359
1.39,5.39257570790967,4.29736178345306,0.363893958769019,-42.0067290277169,-44.2560754673333,6.32519505966589,-3.03341815945502,1.14872205512521,2.14531117242109,2.62341822159822,2.68888390358341,-3.9292241092781,-0.0292452010788232,0.0292452010788232,0.05220768204,0.118613316635946
1.4,5.40857849570642,4.34922204893465,0.362429584326507,-41.3240083047636,-45.7772264502803,6.39317878257743,1.27437707599031,-2.0296458053475,-1.71356455823033,2.56343040433273,2.63405529222439,-3.9959710629105,0.0292452010788232,-0.0285871008991748,-0.05220768204,0.240535387675164
1.41,5.42137167427682,4.40186427790154,0.362780363493242,-43.5570332660746,-44.4599201839603,7.08115406110462,-3.03687091997224,1.17363272121804,2.14707620128194,2.73462191325546,2.65255616965472,-3.85171599471929,-0.0292452010788232,0.0292452010788232,0.05220768204,0.14416999070573
1.42,5.43572938330589,4.45405506059115,0.360981494202419,-42.9362180239995,-45.9980644964231,7.23421227750892,1.27063245769284,-2.07686034861616,-1.71169844402379,2.675199002777,2.59952323123373,-3.92662254822678,0.0292452010788232,-0.0292452010788232,-0.05220768204,0.265206644244719
1.43,5.44690347043559,4.50697643018253,0.360970248700103,-45.1563830092575,-44.6864128196073,7.89842155339372,-3.04104145000262,1.12742742204872,2.14899474245228,2.84322217305085,2.61242247640121,-3.78769766087153,-0.0292452010788232,0.0292452010788232,0.05220768204,0.163931078604116
1.44,5.45947674483436,4.55956747275873,0.358876577332385,-44.4445488952329,-46.0825566905139,7.91862046535648,1.26717626106049,-1.73609097735207,-1.71005059072603,2.79893381024497,2.56098164106952,-3.85878569520544,0.0292452010788232,-0.0256925302468711,-0.05220768204,0.282837436494313
1.45,5.4688935959722,4.61284049900968,0.35853010087441,-46.4910614754379,-44.6222394390083,8.34115288073951,-3.04061765928091,1.46144056653042,2.14985763035649,2.97825154690967,2.56793264353609,-3.71535519618452,-0.0292452010788232,0.0292452010788232,0.05220768204,0.188913638245621
1.46,5.47988901953643,4.66583654350023,0.356001041866082,-45.8388623780527,-46.0398060811778,8.44279848596682,1.26291667970463,-1.79493063001516,-1.70746601429506,2.93364699136613,2.5186551776517,-3.79589956806375,0.0292452010788232,-0.0292452010788232,-0.05220768204,0.315807094596892
1.47,5.48775127305714,4.71947738528893,0.355176972678421,-47.8763725996854,-44.5946875840002,8.84930906158205,-3.04541605662973,1.40385567190889,2.15250514195413,3.1088310395786,2.51973894425293,-3.65847311082995,-0.0292452010788232,0.0292452010788232,0.05220768204,0.215552042059897
1.48,5.49719535599975,4.77291697755595,0.352152061811455,-47.2846962419161,-46.0308503888224,9.03400784401632,1.2589949622563,-1.85149966890653,-1.70515985431516,3.06389475188683,2.47235750007668,-3.74717299328918,0.0292452010788232,-0.0292452010788232,-0.05220768204,0.339522365342691
1.49,5.50352582471773,4.82696067761587,0.350803642859681,-49.3118852735266,-44.5995936243958,9.42270159178437,-3.04985955337619,1.34848896767881,2.15487512263096,3.23524120502643,2.46810434043377,-3.61494414206985,-0.0292452010788232,0.0292452010788232,0.05220768204,0.234188523964257
1.5,5.51143193837504,4.88086929418969,0.347236025121217,-48.7817847060675,-46.0514369165172,9.69214254890898,1.2553943824615,-1.90588315943577,-1.70311585084067,3.18995539503873,2.42238902060899,-3.71078842221232,0.0292452010788232,-0.0292452010788232,-0.05220768204,0.356001149010534
1.51,5.51624197356743,4.93533901502851,0.345327869644174,-50.7972661259587,-44.6328064624851,10.0611725145865,-3.05396569100938,1.29525749265936,2.15698377944704,3.35770862655672,2.41327390723815,-3.58318038467774,-0.0292452010788232,0.0292452010788232,0.05220768204,0.246577493645891
1.52,5.52261332882626,4.9897321459494,0.341181842264892,-50.3299239964168,-46.0973237049547,10.4170953823376,1.25209837434136,-1.95816300306348,-1.70131836440835,3.31205013097009,2.36902399879391,-3.68537830425868,0.0292452010788232,-0.0292452010788232,-0.05220768204,0.366791097835342
1.53,5.52590542503275,5.04464199524302,0.338687925882059,-52.3322393361316,-44.6901881831578,10.7645570322848,-3.05775177621323,1.2440813719606,2.15884668937179,3.47641366860367,2.35548073336333,-3.56198668969262,-0.0292452010788232,0.0292452010788232,0.05220768204,0.254066547743497
1.54,5.53073740278106,5.09952745687597,0.333936999251705,-51.9289299053915,-46.1642804425241,11.2087185267283,1.24909061330537,-2.00841806582155,-1.69975237374348,3.430351409352,2.31251833268234,-3.6699155690641,0.0292452010788232,-0.0292452010788232,-0.05220768204,0.373085111759025
1.55,5.53250724300238,5.15488461541512,0.330839065962779,-53.9165475274372,-44.7676152821761,11.5326475651324,-3.0612348076111,1.19488369080402,2.16047880330639,3.59149608355232,2.29495035069023,-3.55046532664261,-0.0292452010788232,0.0292452010788232,0.05220768204,0.257696170786753
1.56,5.53578922961306,5.21026429298317,0.325464423483833,-53.5785959671357,-46.2480902363953,12.0667851062774,1.24635508493905,-2.05672430007301,-1.6984034713424,3.54498904853297,2.25311540203361,-3.66363107929983,0.0292452010788232,-0.0292452010788232,-0.05220768204,0.375807971901102
1.57,5.53602730195027,5.26607062461026,0.321750711577519,-55.5499133241279,-44.8609806857883,12.3651587508262,-3.0644314141117,1.14759037508429,2.16189445208733,3.7030591575091,2.23190404116614,-3.54794406231933,-0.0292452010788232,0.0292452010788232,0.05220768204,0.258274562178116
1.58,5.53766221528588,5.32194917316411,0.315805826841171,-55.1820440131713,-46.2779571157377,12.853994291283,1.2438761426832,-1.89768682752788,-1.69725785710778,3.66334472706137,2.19105043620602,-3.65834269075474,0.0292452010788232,-0.0273548951804545,-0.05220768204,0.375681393531257
1.59,5.53627479231719,5.37821264116094,0.311521391070335,-57.036881497759,-44.8342515187519,12.9905236844337,-3.0650905358261,1.30348874999935,2.16266954340791,3.8256496452983,2.16610073775521,-3.53991582093566,-0.0292452010788232,0.0292452010788232,0.05220768204,0.264206445101707
1.6,5.53634985246981,5.43459255360868,0.304913009047608,-56.7324467868698,-46.2574339732515,13.5672483354342,1.24103241061931,-1.95040254450034,-1.69567841275091,3.7852175007609,2.1265052122021,-3.65702239539384,0.0292452010788232,-0.0292452010788232,-0.05220768204,0.387603748669687
1.61,5.53342402070588,5.49132339704738,0.299962793577743,-58.5746581315202,-44.8271341786058,13.6836921521596,-3.06843906466547,1.25187750984453,2.16432022423417,3.94411081234084,2.09795556446629,-3.54360121476038,-0.0292452010788232,0.0292452010788232,0.05220768204,0.272542529127573
1.62,5.53193247275493,5.54821156261221,0.292662617422832,-58.3344372853538,-46.2533034226074,14.3494880390131,1.2384630974983,-2.00107252297064,-1.69432455429035,3.90286806870446,2.05942671821041,-3.66663184895188,0.0292452010788232,-0.0292452010788232,-0.05220768204,0.394015237257813
1.63,5.52746196356624,5.6054162215351,0.287027635044321,-60.1623055780997,-44.8355388996036,14.4436591628398,-3.07149798315068,1.20226552587979,2.16574591883922,4.05851761718588,2.02772683189923,-3.55779053053336,-0.0292452010788232,0.0292452010788232,0.05220768204,0.276169800259089
1.64,5.52439088078419,5.66281248278725,0.279017334954941,-59.9870436611658,-46.2613930052531,15.199609654087,1.23615231542837,-2.04977356788791,-1.69318185066289,4.01636712603373,1.99009326533651,-3.68613571795544,0.0292452010788232,-0.0292452010788232,-0.05220768204,0.396160944109631
1.65,5.51832647018832,5.72047632370981,0.27259125278984,-61.656698309012,-44.8554042917799,15.2693402444875,-2.82616661959008,1.15457788103439,2.16696097498902,4.16891200343953,1.94651733694402,-3.58652262542117,-0.0275431172791708,0.0292452010788232,0.05220768204,0.276171335930489
1.66,5.51356450474047,5.7783585289246,0.263829366451036,-61.3361113755233,-46.2424375224604,16.0148300572632,1.47723939711981,-1.96107790625661,-1.69272723063594,4.13065125419618,1.90095236865043,-3.71780402724607,0.0292452010788232,-0.0280351458043711,-0.05220768204,0.390135759951222
1.67,5.50587422556851,5.83648504969665,0.25676060816927,-62.9336282897569,-44.8121058296161,15.9760841125323,-2.83703627998194,1.23848743130041,2.16802858836391,4.28463327953266,1.85544109624612,-3.6162490985556,-0.0292452010788232,0.0292452010788232,0.05220768204,0.270607942264909
1.68,5.49950475190942,5.89486014016504,0.247295353828873,-62.6750788050317,-46.1991681555911,16.8005362832852,1.46539638179898,-2.01057077717196,-1.69125167664402,4.24540054187733,1.81108488560582,-3.75162231472085,0.0292452010788232,-0.0292452010788232,-0.05220768204,0.389784617960943
1.69,5.49023313032392,5.95344781697152,0.239529803460539,-64.2708219991066,-44.7817876466172,16.7496741950079,-2.84916782575677,1.19014857324777,2.1695590864297,4.39590127006533,1.76373354178988,-3.65419240690542,-0.0292452010788232,0.0292452010788232,0.05220768204,0.269401091985995
1.7,5.48224144782335,6.01230998705066,0.22935684305289,-64.07475148075,-46.1659967961038,17.6541371622873,1.45417697734372,-2.05816949159678,-1.68996197870059,4.35559195548938,1.72039306300416,-3.79343883788208,0.0292452010788232,-0.0292452010788232,-0.05220768204,0.387638893276944
1.71,5.47137620658254,6.07135490506409,0.220895154176814,-65.6663812706399,-44.7608528574034,17.5884092434621,-2.86066896102851,1.14365594391845,2.1709029196545,4.50273268540638,1.6715307247558,-3.70012746951516,-0.0292452010788232,0.0292452010788232,0.05220768204,0.266652465129697
1.72,5.46165366565532,6.1306966626921,0.210115067953797,-65.4116757576851,-46.0838549218534,18.4012890121115,1.44355166512884,-1.86933898667776,-1.68884940719948,4.46990943047479,1.62902234688487,-3.83249507124174,0.0292452010788232,-0.0270868247150272,-0.05220768204,0.38398725166837
1.73,5.44908881482474,6.19019641714084,0.201043396656587,-66.8741100282827,-44.6356980401139,18.1494996047094,-2.86899352382755,1.32885443059894,2.17148882877186,4.62240873336513,1.57841118461616,-3.73441700855426,-0.0292452010788232,0.0292452010788232,0.05220768204,0.27337225129775
1.74,5.43773614438036,6.25003175993397,0.189524327897796,-66.6785315023826,-45.9574345262552,19.0395422262407,1.43277463397316,-1.92259659509198,-1.68734871725609,4.58827997040238,1.53712571192155,-3.87341382291627,0.0292452010788232,-0.0292452010788232,-0.05220768204,0.398906382424146
1.75,5.42357164314049,6.31001048773053,0.179705408248726,-68.1437589762811,-44.5244729764289,18.7822324573342,-2.88012102385173,1.27681239429378,2.1730557091101,4.73706710501339,1.48481525765561,-3.78159219888372,-0.0292452010788232,0.0292452010788232,0.05220768204,0.28495830473432
1.76,5.41058383725301,6.37035017061447,0.167415182931419,-68.0073022712456,-45.8420817676524,19.7500229853938,1.42259139834231,-1.9738097440619,-1.68604460589527,4.70144303411269,1.4444896714981,-3.9263193569149,0.0292452010788232,-0.0292452010788232,-0.05220768204,0.407473573781897
1.77,5.39481566019395,6.43081901119163,0.15682738984288,-69.4728169176559,-44.4236648420001,19.4842056465651,-2.89064567941406,1.22676422312157,2.17442500360729,4.84669675994491,1.39094459525922,-3.84017944372836,-0.0292452010788232,0.0292452010788232,0.05220768204,0.291106151769795
1.78,5.38018222632178,6.49166589482849,0.143745983405438,-69.3953748722165,-45.7342097887588,20.5301708045948,1.41297339678798,-2.02305525169646,-1.68492750434123,4.80939062020371,1.35134333282423,-3.98994628473086,0.0292452010788232,-0.0292452010788232,-0.05220768204,0.411190195584173
1.79,5.36278504048936,6.55261981001442,0.132353685105984,-70.8171012480754,-44.3297657006344,20.2530400426055,-2.82775169809014,1.17863515252888,2.17560643989425,4.95125840450804,1.29409185942173,-3.91006772197351,-0.0287454861167618,0.0292452010788232,0.05220768204,0.293119948986535
1.8,5.34647426227666,6.61396143283125,0.118450485340844,-70.7559549339357,-45.6306903433146,21.3751664478522,1.47528084273007,-2.06923561199438,-1.68413500597806,4.91215538306538,1.25222174909623,-4.0649749787506,0.0292452010788232,-0.0292452010788232,-0.05220768204,0.410248705847979
1.81,5.3274529930249,6.67540674653944,0.106277279684396,-72.1770630129893,-44.2393264330798,21.0868399137547,-2.8400303682661,1.1326110758197,2.17671572529705,5.05066741729039,1.19472608261817,-3.9898133030784,-0.0292452010788232,0.0292452010788232,0.05220768204,0.290443294102881
1.82,5.30936449713179,6.73724212578991,0.0917113477065641,-72.0361923656969,-45.4827853765967,22.0871550508071,1.4638905703655,-1.85503469546662,-1.68324702504287,5.01993429012151,1.15323114032147,-4.13522182124929,0.0292452010788232,-0.0268575688220044,-0.05220768204,0.406156328789062
1.83,5.28860090855653,6.79917283026213,0.0788720628067399,-73.3124803379554,-44.0589929249561,21.5920946243717,-2.84364012002139,1.34267936761547,2.17700842252112,5.16549227216154,1.09495705608254,-4.05371664876133,-0.0292095520689907,0.0292452010788232,0.05220768204,0.299460755658684
1.84,5.26884431268516,6.86152283844796,0.0634694934105697,-73.2234086166987,-45.296122676439,22.6647802571307,1.45737760882189,-1.90875724324475,-1.68192988444445,5.13275336728586,1.05413604385027,-4.20648279726397,0.0292452010788232,-0.0292452010788232,-0.05220768204,0.425060203934336
1.85,5.24634325957921,6.9239085549213,0.0496621395490239,-74.2773487986796,-43.8877483463874,22.1708341583841,-2.45221080559452,1.29012648922946,2.17841264395947,5.27457775426531,0.978350587869361,-4.136525106378,-0.0264766406600757,0.0292452010788232,0.05220768204,0.31440398070541
1.86,5.22480545624196,6.986723952089,0.0332833852695133,-74.0075884893567,-45.1186035290116,23.3038519348115,1.84171037792637,-1.95398605321745,-1.68167481437002,5.24003098029014,0.921835347896465,-4.29784152497055,0.0292452010788232,-0.0292452010788232,-0.05220768204,0.431994262913923
1.87,5.20067360945972,7.04963768623674,0.0186158253504569,-75.0875050067054,-43.7219585859403,22.8228678481051,-2.47963626435074,1.24102783498652,2.18006198115495,5.37773555898447,0.846704063203993,-4.23311532586957,-0.0292452010788232,0.0292452010788232,0.05220768204,0.316416242811502
1.88,5.17745878959962,7.11298587392326,0.00138200542396678,-74.8707172350409,-44.9474961931014,24.0142369313001,1.81551549793861,-2.00257454884576,-1.68020640894999,5.34116289814264,0.790852270585323,-4.39724737958171,0.0292452010788232,-0.0292452010788232,-0.05220768204,0.432105125062779
1.89,5.15169065228369,7.17643126039326,-0.0141458556020305,-75.9730253299217,-43.5623604274711,23.542276250879,-2.50581936304033,1.19375641018665,2.18156444983102,5.47487069021148,0.716703384384174,-4.33778878177711,-0.0292452010788232,0.0292452010788232,0.05220768204,0.317136522886432
1.9,5.12678877133699,7.24031077071475,-0.0322367694402279,-75.8088006908566,-44.7802044007882,24.7926172103904,1.7905144056872,-2.04935027418561,-1.6788812412519,5.43607172774612,0.661268490708848,-4.50462150740499,0.0292452010788232,-0.0292452010788232,-0.05220768204,0.430903859344469
1.91,5.09937712709885,7.30428988251267,-0.0486221695216323,-76.9301879585336,-43.4063624943835,24.3260253271524,-2.53081374546942,1.14824422342485,2.18292081942998,5.56589524193383,0.588437875381343,-4.45046225057509,-0.0292452010788232,0.0292452010788232,0.05220768204,0.316684712452976
1.92,5.0727765876631,7.36869764673674,-0.0675692823531517,-76.8179872491406,-44.6140756602115,25.6357748604734,1.76665530048398,-2.09438061407071,-1.67769819879076,5.52465871589425,0.533180762916004,-4.61987912175415,0.0292452010788232,-0.0292452010788232,-0.05220768204,0.428518192068509
1.93,5.04371272572565,7.43321116956174,-0.0848068613734911,-77.9553952328481,-43.2513293061967,25.1711618251439,-2.55467107369787,1.1044260089247,2.18413271815329,5.65070095144263,0.462011645156108,-4.57104936333384,-0.0292452010788232,0.0292452010788232,0.05220768204,0.315193234879456
1.94,5.0152477750271,7.4981400685095,-0.104374037824038,-77.6926599997069,-44.4006373745538,26.2459418560903,1.74388829236447,-1.75478495140165,-1.67665536979937,5.62430993018665,0.406699762997623,-4.72129541787478,0.0292452010788232,-0.0257221040833798,-0.05220768204,0.425085148086077
1.95,4.98436301377201,7.56318730031394,-0.122259881090385,-78.6401968913522,-43.0024589887798,25.4929649402636,-2.57326671014477,1.43752551950486,2.18405852273698,5.76407576097398,0.336468126024703,-4.65954527260505,-0.0292452010788232,0.0292452010788232,0.05220768204,0.334746123279691
1.96,4.95421200255009,7.62868733494523,-0.14275202601832,-78.4268973700645,-44.1479360679331,26.6259415278229,1.72093523352671,-1.81159154576716,-1.67522456897653,5.73517027847662,0.282167660574363,-4.81880311589079,0.0292452010788232,-0.0292452010788232,-0.05220768204,0.461289246538947
1.97,4.92168030161775,7.69433434057041,-0.161604904665219,-79.4052818255366,-42.762288337194,25.8948399607677,-2.5963630877248,1.3821577064368,2.18555917732576,5.87053346939888,0.21269361212203,-4.76700300774063,-0.0292452010788232,0.0292452010788232,0.05220768204,0.365402107693226
1.98,4.88984443735904,7.76044272525606,-0.1830936785037,-79.240710726961,-43.9016362279141,27.0862627621012,1.69907349737014,-1.86625364667654,-1.67394330870541,5.83874399950092,0.158960503357277,-4.93354658090226,0.0292452010788232,-0.0292452010788232,-0.05220768204,0.485383097255628
1.99,4.85566855877158,7.8267264352107,-0.202966763406973,-80.2461771479175,-42.5285202498675,26.372776174421,-2.61836739005402,1.3288756321714,2.18690606620839,5.96996700865559,0.0908505662010365,-4.89038280216112,-0.0292452010788232,0.0292452010788232,0.05220768204,0.385676485955395
2,4.82214277891972,7.89346539505342,-0.225499951552118,-80.1295327556236,-43.6593739916673,27.6227441410486,1.67825474654301,-1.91885160642707,-1.67281024690752,5.93494948858939,0.0373039722224797,-5.06291372798637,0.0292452010788232,-0.0292452010788232,-0.05220768204,0.50040851903329
2.01,4.78631982381882,7.96040910617922,-0.246426559523223,-81.1586432938313,-42.2987593535091,26.9229551613239,-2.63932805790681,1.27760126925705,2.18810112424613,6.06223989673258,-0.0288897140408381,-5.02743351474731,-0.0292452010788232,0.0292452010788232,0.05220768204,0.398195938743387
2.02,4.75109433130381,8.02778987815668,-0.270033886956204,-81.0890096324595,-43.4186986071292,28.2313989735734,1.65843238842927,-1.96946260545362,-1.67182319928445,6.02366817512939,-0.0825845462022564,-5.20496860182402,0.0292452010788232,-0.0292452010788232,-0.05220768204,0.508642582448501
2.03,4.71361713020355,8.09540695152796,-0.292032323461293,-82.138629630477,-42.0705393896984,27.5417074504609,-2.65929176062795,1.22825967800399,2.18914705689749,6.14719368300262,-0.146348553940406,-5.17648492194942,-0.0292452010788232,0.0292452010788232,0.05220768204,0.404931838904858
2.04,4.67667859124309,8.16343273938028,-0.31672984184848,-82.1149573710966,-43.1771000083824,28.9083727901198,1.63956153341587,-2.01816079474581,-1.67097926640048,6.10475357031441,-0.200492782094881,-5.3582735437384,0.0292452010788232,-0.0292452010788232,-0.05220768204,0.511799495284686
2.05,4.63752709379951,8.23172202256236,-0.339812635683556,-83.1679598243955,-41.8413478649042,28.2254742242721,-2.65338860960011,1.18077886598573,2.19004722025192,6.22465277559461,-0.262675736281363,-5.33624516763913,-0.02907428534265,0.0292452010788232,0.05220768204,0.407372933529754
2.06,4.59884991058037,8.300383386672,-0.365610390937612,-83.1746068440845,-42.9322993212119,29.6492289044693,1.64601548870255,-2.06461412769648,-1.67032534307501,6.17808238448714,-0.31884156025663,-5.52158981662581,0.0292452010788232,-0.0292452010788232,-0.05220768204,0.511248013875491
2.07,4.55794031968257,8.36929109076214,-0.389814552318586,-84.1280598829402,-41.6086382240617,28.9709306067361,-2.47045225936397,1.13518284448612,2.19084136084928,6.29441834728591,-0.388782237261826,-5.50510884786847,-0.0278593288790545,0.0292452010788232,0.05220768204,0.40685945646122
2.08,4.51743614585366,8.43853140614719,-0.416738764359234,-84.0611262150836,-42.6839872796176,30.4456195087066,1.82593646982944,-2.10635148306999,-1.67011007313658,6.24380229910657,-0.456753842399653,-5.69241024866198,0.0292452010788232,-0.0292452010788232,-0.05220768204,0.508822696534628
2.09,4.47484353833872,8.50812312612804,-0.44201921243853,-85.0374451296173,-41.3701674537145,29.7757678680773,-2.49660218531295,1.09206185813746,2.19181921012662,6.3562192317353,-0.522759774437739,-5.68221672372552,-0.0292452010788232,0.0292452010788232,0.05220768204,0.406253489180162
2.1,4.43251467813079,8.57800803118832,-0.469897861253283,-84.9294902686497,-42.4212856786648,31.173656819446,1.8009168004513,-1.98277670775536,-1.66928534756759,6.31076006591362,-0.591809271296092,-5.86110769326997,0.0292452010788232,-0.0277154725814893,-0.05220768204,0.505419963838994
2.11,4.38815423021211,8.64828914789311,-0.496138349197952,-85.8417904309671,-41.1087384290291,30.3858721776931,-2.51976903636528,1.21348496607092,2.19215593271452,6.4287755569084,-0.654007281737323,-5.84821326887647,-0.0292452010788232,0.0292452010788232,0.05220768204,0.415037942693212
2.12,4.34407011039878,8.71883626075967,-0.525126733191138,-85.7759568548446,-42.1464937511845,31.8338249144486,1.77648034816476,-2.03043848221665,-1.66838790459714,6.3790135724223,-0.723708881701312,-6.03247402795917,0.0292452010788232,-0.0292452010788232,-0.05220768204,0.520571031578752
