Time_s,Height_m,X_m,Y_m,Roll_deg,Pitch_deg,Yaw_deg,p,q,r,u,v,w,tx,ty,tz,Thrust
0.01,0.000981,0,0,-0.728892128279883,0.5435,0,-1.27215675303528,0.948586448458918,0,0,0,-0.0981,-0.00872699532582205,0.00872699532582205,0,1.33416
0.02,0.00294106286547641,-4.99651180116347e-05,-6.70149189851043e-05,0.999564698213525,-0.745083906462286,0.0175789972201132,3.01643522733492,-2.24921148473017,0.00206720097775458,-0.00313702581692154,-0.0042070189250784,-0.196114251269072,0.0292452010788232,-0.0292452010788232,0,1.33416
0.03,0.00588161641621848,-1.12058415978655e-05,-1.49782588426225e-05,0.250603039558077,-0.186701117059692,0.0251837999652154,-1.3070120935243,0.974645038238027,-0.00373130302667155,5.33588687224563e-05,7.14991997235476e-05,-0.294126919617336,-0.0292452010788232,0.0292452010788232,-0.000237402463089971,1.33416
0.04,0.00980149655990117,-6.00775086371707e-05,-8.05688806408259e-05,1.9593113581642,-1.46079636180033,0.0325733169633059,2.98230063748087,-2.22363802040357,0.0226231121435858,-0.00616733321587494,-0.00827126251162848,-0.391937570693238,0.0292452010788232,-0.0292452010788232,0.000329173294505058,1.33416
0.05,0.0146959316374132,6.73499793251921e-05,9.03413526069112e-05,1.1929420688331,-0.885413146375076,-0.0258715688200453,-1.34016716076649,1.00015962755921,-0.136247300387346,0.000270962656432143,0.000334150907903239,-0.489907381989065,-0.0292452010788232,0.0292452010788232,-0.00231916763674207,1.33416
0.06,0.020573521339301,6.84225719749343e-05,9.18743345752076e-05,2.87625949762578,-2.15448383300533,0.446051085768876,2.95067097522115,-2.19732016022002,0.869497111856316,-0.00897532082878032,-0.0120819683808722,-0.587566261538505,0.0292452010788232,-0.0292452010788232,0.0136698809913145,1.33416
0.07,0.0274145977504263,0.000335223265545542,0.00044363835899081,2.16013515675123,-1.47176676980628,-1.21818681212376,-1.35906984154937,1.04441557683337,-2.95872493357344,0.00121572927158505,0.000569085933247084,-0.685529480155093,-0.0292452010788232,0.0292452010788232,-0.05220768204,1.33416
0.08,0.0352461407609608,0.000430941054775482,0.000577126256556117,3.83870951239646,-2.70874024962272,-0.734425550115445,2.95135080481929,-2.12557766281311,0.924819754620207,-0.0108320500897875,-0.015978687961517,-0.783088639056981,0.0292452010788232,-0.0292452010788232,0.05220768204,1.33416
0.09,0.0440252402623898,0.000884148184141643,0.00117038192425269,3.13714941157238,-1.95936532913228,-2.35406298027704,-1.35804464564203,1.11593441986344,-2.90486889720039,0.00301778848205507,0.000917588694734055,-0.881072880888518,-0.0292452010788232,0.0292452010788232,-0.05220768204,1.33416
0.1,0.0538055398899512,0.00111500219523912,0.00149933224352033,4.81235770578089,-3.16628963669291,-1.85886514410794,2.95334049872694,-2.05605220836839,0.977763215521987,-0.0117374671159767,-0.0197684134454222,-0.978585238297715,0.0292452010788232,-0.0292452010788232,0.05220768204,1.33416
0.11,0.0645128902798047,0.00179536792025904,0.00239489634158815,4.12250500616349,-2.35244084458348,-3.43337167875649,-1.35580506662318,1.18523867086395,-2.85332880129543,0.00585535974302383,0.00140147172972203,-1.0766088426562,-0.0292452010788232,0.0292452010788232,-0.05220768204,1.33416
0.12,0.0762354731399217,0.002197534674747,0.00298211103088056,5.79564528315889,-3.53129353169397,-2.92713660870475,2.95644700150056,-1.98869861982796,1.02842918986413,-0.0115199452787858,-0.0234431287176491,-1.17412639506876,0.0292452010788232,-0.0292452010788232,0.05220768204,1.33416
0.13,0.0888602789622291,0.00314125401962183,0.00424038535840827,5.11486545762776,-2.65517024249496,-4.45594493614711,-1.35253377032771,1.25237479100968,-2.80400631629973,0.009895725141714,0.00202514645684058,-1.2722003768147,-0.0292452010788232,0.0292452010788232,-0.05220768204,1.33416
0.14,0.102517522826376,0.00374667862261491,0.00514825481017541,6.78716108509238,-3.80785693532669,-3.93907284882611,2.96049670379457,-1.92346728946732,1.07691413310328,-0.0100182490588386,-0.0270104050936067,-1.36977400736908,0.0292452010788232,-0.0292452010788232,0.05220768204,1.33416
0.15,0.117048068322471,0.00498552306896436,0.00682950161010167,6.11304385206105,-2.87166420543252,-5.42160643128667,-1.34839489683819,1.31739322254301,-2.75680809139293,0.0152965965463661,0.00277839110694891,-1.46790295403441,-0.0292452010788232,0.0292452010788232,-0.05220768204,1.33416
0.16,0.132631296456758,0.0058220154429564,0.0081202618262745,7.78564752295071,-4.0000180307941,-4.89450086482819,2.96533384249804,-1.86030540206083,1.12330969645123,-0.00708025475723356,-0.0304908449623311,-1.56558231450548,0.0292452010788232,-0.0292452010788232,0.05220768204,1.33416
0.17,0.149055015587114,0.00738347224558708,0.0102848411658324,7.11600781793696,-3.00595776458535,-6.33019604611566,-1.3435355893256,1.38034725819785,-2.71164534508782,0.0222072424995745,0.00363878832509908,-1.66376519045375,-0.0292452010788232,0.0292452010788232,-0.05220768204,1.33416
0.18,0.166554561242645,0.00847481205274498,0.0120207960891328,8.79000519109927,-4.11173952948571,-5.7932654149601,2.97081900346887,-1.7991579501187,1.16770311149243,-0.0025618941999746,-0.0339158360565021,-1.76159863617305,0.0292452010788232,-0.0292452010788232,0.05220768204,1.33416
0.19,0.184858078837789,0.0103822257510335,0.0147293677286803,8.12288284864586,-3.06200251292471,-7.18158845966131,-1.33808742421258,1.44129210358121,-2.6684335042143,0.0307694190147112,0.00457386097384714,-1.85982949746388,-0.0292452010788232,0.0292452010788232,-0.05220768204,1.33416
0.2,0.204263323342407,0.0117482724532764,0.0169730788397484,9.79929579594371,-4.14690152973157,-6.6352469157316,2.97682772488432,-1.73996857125653,1.21017752979524,0.0036737202106756,-0.0373255888608374,-1.95786406026119,0.0292452010788232,-0.0292452010788232,0.05220768204,1.33416
0.21,0.22443247111443,0.014020985879574,0.0202867711139834,9.13295377524936,-3.0436603393706,-7.97570646414342,-1.33216774479316,1.50028410455649,-2.62709188548659,0.0411181420063123,0.00554293359283689,-2.05613268561301,-0.0292452010788232,0.0292452010788232,-0.05220768204,1.33416
0.22,0.24573185878307,0.0156777911578682,0.0231012164177957,10.8127432307521,-4.10929579620054,-7.42037423209124,2.98324919815075,-1.68268023382773,1.25081232295195,0.011757024476481,-0.0407674309365461,-2.15441407359947,0.0292452010788232,-0.0292452010788232,0.05220768204,1.33416
0.23,0.267751669604992,0.0183312839360381,0.0270817645836725,10.1456643481284,-2.95469859535865,-8.71252966008683,-1.32588090140255,1.55738011533449,-2.58754341440574,0.0533823332396315,0.00649874556629031,-2.25270651780988,-0.0292452010788232,0.0292452010788232,-0.05220768204,1.33416
0.24,0.290932702445651,0.0202912043414929,0.0305304690787291,11.829732773569,-4.00262137822952,-8.14863299053226,2.98998506256004,-1.62723579349208,1.2896833479451,0.0218126157593999,-0.0442943334329694,-2.3512791336453,0.0292452010788232,-0.0292452010788232,0.05220768204,1.33416
0.25,0.314787385993406,0.0233372274405208,0.0352403254780841,11.1606150055602,-2.79878660903294,-9.39209916545885,-1.31931940190012,1.61263698619698,-2.549714376792,0.0676853664630999,0.00738884045482169,-2.44957821023596,-0.0292452010788232,0.0292452010788232,-0.05220768204,1.33416
0.26,0.339836600947067,0.0256090356939992,0.0393874651344655,12.8498084977652,-3.83048148902316,-8.82007003000736,2.99694828937567,-1.57357844035892,1.32686318222117,0.033959773671201,-0.0479636466718376,-2.54848518163593,0.0292452010788232,-0.0292452010788232,0.05220768204,1.33416
0.27,0.365509503503925,0.0290557410694871,0.044889883390057,12.1775589928045,-2.57949346150685,-10.0145189491834,-1.31256497667186,1.66611115260351,-2.51353419875622,0.0841455357898862,0.00815675425999105,-2.6467708814997,-0.0292452010788232,0.0292452010788232,-0.05220768204,1.33416
0.28,0.392412434725885,0.031644734876963,0.0498003645705419,13.8726690648676,-3.59638156684074,-9.43479458341984,3.00406215072218,-1.52165205368228,1.36242133236531,0.0483129104957951,-0.051836023347775,-2.74605409930115,0.0292452010788232,-0.0292452010788232,0.05220768204,1.33416
0.29,0.419885985675218,0.0354967996119263,0.0561594598924687,13.1963970514732,-2.30028693638506,-10.5799543692857,-1.30568956262516,1.71785830990876,-2.47893525139911,0.102876464393659,0.00874302368040954,-2.8443039518701,-0.0292452010788232,0.0292452010788232,-0.05220768204,1.33416
0.3,0.448627114146461,0.0384049072322856,0.061898976044472,14.8981621214421,-3.30372843605489,-9.99297675426275,3.0112592684925,-1.47140147875673,1.39642441981983,0.064981966973726,-0.0559745095362505,-2.94400411211705,0.0292452010788232,-0.0292452010788232,0.05220768204,1.33416
0.31,0.477882761427565,0.0426636518913229,0.0691797635777408,14.21717093032,-1.96453354967329,-11.0886284595683,-1.29875621078003,1.7679331600852,-2.44585267696826,0.123987468135356,0.00908603373696594,-3.04219349513722,-0.0292452010788232,0.0292452010788232,-0.05220768204,1.33416
0.32,0.508445453980402,0.0458895339932356,0.0758148309104871,15.926277550223,-2.9558304819054,-10.4948438181629,3.01848073844366,-1.42277273862654,1.42893634667525,0.0840727670457007,-0.0604437852994863,-3.14235014247416,0.0292452010788232,-0.0292452010788232,0.05220768204,1.33416
0.33,0.539463590553918,0.0505530351427274,0.0840832439097244,15.2400559795995,-1.57549956349993,-11.5408164665643,-1.29181992208719,1.81638921874039,-2.41422423360398,0.14758388579037,0.0091227225257678,-3.24045254594078,-0.0292452010788232,0.0292452010788232,-0.05220768204,1.33416
0.34,0.571830030207445,0.0540921827279765,0.0916812176564621,16.9571398346915,-2.55589874902001,-10.9406748382803,3.02567532469342,-1.37571319144431,1.46001844418885,0.105687342200663,-0.0653095382070593,-3.34110411619201,0.0292452010788232,-0.0292452010788232,0.05220768204,1.33416
0.35,0.604589913371288,0.05915537975995,0.101004107134539,16.2653530861376,-1.13635288451485,-11.9368390918062,-1.284928416053,1.86327867237103,-2.38399015616648,0.173767385044221,0.00878915932250932,-3.43909136542052,-0.0292452010788232,0.0292452010788232,-0.05220768204,1.33416
0.36,0.638741022699413,0.0630002081214109,0.109633179887774,17.9909997900407,-2.10704887108319,-11.3307940380738,3.03279871993696,-1.3301716427662,1.48972960634835,0.129924233747222,-0.070637954525771,-3.54027522565376,0.0292452010788232,-0.0292452010788232,0.05220768204,1.33416
0.37,0.673220687911837,0.0684550046591967,0.120078297254216,17.2934801892603,-0.650165746849783,-12.2770548448869,-1.27812283664186,1.90865227723693,-2.3550930309603,0.20263625131546,0.00802101082402128,-3.63811766787723,-0.0292452010788232,0.0292452010788232,-0.05220768204,1.33416
0.38,0.709136047009448,0.0725949434905648,0.129807480755661,19.0282258958175,-1.61230373782863,-11.6655633266113,3.03981286685507,-1.28609842072343,1.51812641049845,0.156878779371036,-0.0764953141745975,-3.73987015254788,0.0292452010788232,-0.0292452010788232,0.05220768204,1.33416
0.39,0.745312217711323,0.0784303037581975,0.141443444839836,18.3249635923589,-0.119918080283162,-12.5618518621787,-1.27143839977646,1.95255929249116,-2.32747768245968,0.23428566469615,0.00675390897793642,-3.83753681086663,-0.0292452010788232,0.0292452010788232,-0.05220768204,1.33416
0.4,0.782969978181831,0.0828518836465708,0.152342536507839,20.0692954399647,-1.07459680597122,-11.9453743221941,3.04668533636998,-1.24344542083869,1.54526322678089,0.186643388704866,-0.0829476767821076,-3.93989325285323,0.0292452010788232,-0.0292452010788232,0.05220768204,1.33416
0.41,0.820817972963756,0.0890539242577246,0.165238786251935,19.360429254237,0.451498533296993,-12.7916394961611,-1.26490498657704,1.99504744129178,-2.30109107039252,0.268807968825798,0.0049237326211484,-4.03735195083662,-0.0292452010788232,0.0292452010788232,-0.05220768204,1.33416
0.42,0.860194769222596,0.0937408598752302,0.177378321638531,21.114785653522,-0.496775962743558,-12.170640171322,3.05338875861074,-1.20216612624022,1.57119231790351,0.219307811277075,-0.0900606473262672,-4.14034670633618,0.0292452010788232,-0.0292452010788232,0.05220768204,1.33416
0.43,0.899688407552163,0.100292937546964,0.191605055646547,20.4005942110852,1.06127640808966,-12.9668399325916,-1.25854768628283,2.03616289456482,-2.27588219576505,0.306292934292259,0.00246681402012716,-4.23756416609947,-0.0292452010788232,0.0292452010788232,-0.05220768204,1.33416
0.44,0.94075926662487,0.105226207918882,0.205056247934502,22.1653649823427,0.118392145820501,-12.3417874134211,3.05990030266808,-1.16221560814663,1.59596393054678,0.25495939907823,-0.0978992108831945,-4.34123063247409,0.0292452010788232,-0.0292452010788232,0.05220768204,1.33416
0.45,0.981870774233521,0.112109003645301,0.220684351975669,21.446258245979,1.70668689503293,-13.0878800484574,-1.25238729258992,2.07595027290585,-2.25180201460497,0.346828018145595,-0.000679919623037373,-4.4381725486321,-0.0292452010788232,0.0292452010788232,-0.05220768204,1.33416
0.46,1.0246090251223,0.117266929913862,0.235519019552922,23.2217846088223,0.768217405072398,-12.4592480984902,3.06620120144325,-1.12355051073529,1.61962637953478,0.293683365059033,-0.10652762696705,-4.54254317440063,0.0292452010788232,-0.0292452010788232,0.05220768204,1.33416
0.47,1.06730894004796,0.124458530148898,0.252619983040773,22.4982958897468,2.38507519666736,-13.1551836836406,-1.24644075692598,2.11445266281407,-2.22880335837319,0.390498620286179,-0.00457886057142874,-4.63917426593555,-0.0292452010788232,0.0292452010788232,-0.05220768204,1.33416
0.48,1.11168612364614,0.12981685127772,0.268910466125351,24.2848703042723,1.45008121813548,-12.523452325741,3.07227631811995,-1.08612902385088,1.64222612573967,0.335563038115846,-0.116009374813707,-4.74428055219651,0.0292452010788232,-0.0292452010788232,0.05220768204,1.33416
0.49,1.15594320383566,0.137292826677803,0.287556288526359,23.5576488059634,3.09385493139368,-13.1691644640884,-1.2407216019679,2.15171164406206,-2.20684086014302,0.43738833681863,-0.00929168258371799,-4.84056459396987,-0.0292452010788232,0.0292452010788232,-0.05220768204,1.33416
0.5,1.20192898428383,0.14282477355475,0.305375355758678,25.3555146622382,2.16143126021325,-12.5348213369586,3.07811375101086,-1.04991084644611,1.6638078485504,0.380680114506627,-0.126407141752602,-4.94643708663077,0.0292452010788232,-0.0292452010788232,0.05220768204,1.33416
0.51,1.24771011757639,0.15055825582384,0.325638443826266,24.6253185843719,3.83050251553591,-13.1302192842699,-1.23524029849755,2.18776732552892,-2.18587088577621,0.487579209924876,-0.0148793430679063,-5.04233692201612,-0.0292452010788232,0.0292452010788232,-0.05220768204,1.33416
0.52,1.29527219587619,0.156234624222409,0.34505918969725,26.4346697354025,2.89977606632766,-12.493761268946,3.08370447374648,-1.01485714316148,1.68441451361742,0.429114905148331,-0.137782847530811,-5.14900519429525,0.0292452010788232,-0.0292452010788232,0.05220768204,1.33416
0.53,1.34254231311457,0.16419638158579,0.367012246377262,25.702359941594,4.59255142495418,-13.0387225318516,-1.23000460848503,2.22265838727464,-2.16585146943718,0.541151973382837,-0.0214021185507531,-5.24448273020506,-0.0292452010788232,0.0292452010788232,-0.05220768204,1.33416
0.54,1.39164634374494,0.169985604438998,0.388107980319238,27.5233400740744,3.66267951186511,-12.4006576450479,3.08904200798287,-0.980930496035142,1.7040874364809,0.480946577858163,-0.150197698107587,-5.35197535496592,0.0292452010788232,-0.0292452010788232,0.05220768204,1.33416
0.55,1.44036833569358,0.178144116250127,0.411823886130813,26.7898743056519,5.37758639165385,-12.8950211176632,-1.22501989709093,2.25642212701921,-2.14674225288455,0.598186292524944,-0.028919667288482,-5.44699154038917,-0.0292452010788232,0.0292452010788232,-0.05220768204,1.33416
0.56,1.49097784690913,0.184012335677886,0.434668014063138,28.6225761427502,4.44775523951033,-12.2558706662075,3.0941221260045,-0.94809485297888,1.72286634260088,0.536253393300011,-0.16371226303256,-5.55533605196728,0.0292452010788232,-0.0292452010788232,0.05220768204,1.33416
0.57,1.54111248559629,0.192333866635846,0.460219701723605,27.8890037415466,6.18323758512971,-12.6994303588443,-1.22028941608955,2.28909450951949,-2.12850442806268,0.658760997178931,-0.0374911134187455,-5.64985084101796,-0.0292452010788232,0.0292452010788232,-0.05220768204,1.33416
0.58,1.59318880402668,0.19824500614833,0.484885600815777,29.7334680727795,5.25266108089216,-12.05973134696,3.09894258078804,-0.91631547435329,1.74078942423035,0.595112933170979,-0.178386571062735,-5.75907368630433,0.0292452010788232,-0.0292452010788232,0.05220768204,1.33416
0.59,1.64469466907065,0.206693680573089,0.512345923848933,29.0009251587299,7.00717482324211,-12.4522307521218,-1.21581456103507,2.3207102176171,-2.11110068258828,0.722954305950249,-0.0471751475755446,-5.85304598670123,-0.0292452010788232,0.0292452010788232,-0.05220768204,1.33416
0.6,1.69819684918351,0.21260951784967,0.538906811239935,30.8571396936038,6.07509351671681,-11.8125385307864,3.1035028612725,-0.885558878718222,1.75789339450593,0.657602319000337,-0.194280219167759,-5.96317246535594,0.0292452010788232,-0.0292452010788232,0.05220768204,1.33416
0.61,1.75103025960962,0.22114739442923,0.568348407283162,30.1268447275227,7.84710185338095,-12.153665666987,-1.21159510432234,2.3513027039692,-2.09449514778932,0.790844040081082,-0.0580301393635553,-6.05656007320499,-0.0292452010788232,0.0292452010788232,-0.05220768204,1.33416
0.62,1.8059150185461,0.227027635046006,0.596877203476436,31.9947427721295,6.91278221544839,-11.5145568118438,3.10780397074975,-0.855792788616832,1.77421353907356,0.72379841982534,-0.211452490525007,-6.16761426698771,0.0292452010788232,-0.0292452010788232,0.05220768204,1.33416
0.63,1.86002997055083,0.235614782434302,0.628372352982976,31.2679924201208,8.70075074162895,-11.8039399845634,-1.20762940613387,2.38090424267487,-2.07865334900641,0.862507825047217,-0.0701142575213779,-6.26037378871601,-0.0292452010788232,0.0292452010788232,-0.05220768204,1.33416
0.64,1.91625162879182,0.24141713488369,0.658941540621144,33.1474513792938,7.76348468780247,-11.1660153857056,3.11184822644778,-0.826986077068052,1.78978376551789,0.79377804694778,-0.229962477520459,-6.37237848003576,0.0292452010788232,-0.0292452010788232,0.05220768204,1.33416
0.65,1.97159973986188,0.250011708491199,0.69256202163878,32.4256165825342,9.56587640565071,-11.4032197066206,-1.20391460511443,2.40954598018004,-2.0635421579126,0.938023278023875,-0.0834855939993689,-6.46446524232583,-0.0292452010788232,0.0292452010788232,-0.05220768204,1.33416
0.66,2.02911016813367,0.255691960804989,0.72524350035048,34.3164562945585,8.62498109249972,-10.7671078498281,3.11563907852684,-0.799108715288227,1.80463665082218,0.867618133955451,-0.249869206152539,-6.57744182222979,0.0292452010788232,-0.0292452010788232,0.05220768204,1.33416
0.67,2.08564062788132,0.264250281085686,0.76106044004639,33.6009784364314,10.4402513261405,-10.9516325599027,-1.20044679047392,2.43725798498586,-2.04912974664614,1.01746817935943,-0.0982022885412954,-6.66880977082057,-0.0292452010788232,0.0292452010788232,-0.05220768204,1.33416
0.68,2.14438920066126,0.269762379338657,0.795925378048901,35.5029593527294,9.49506922790869,-10.3179929744155,3.11918094684665,-0.772131722033927,1.81880348704958,0.94539590020863,-0.271231758587871,-6.78277813675902,0.0292452010788232,-0.0292452010788232,0.05220768204,1.33416
0.69,2.20204872869056,0.278239011837506,0.834009101641955,34.7953464042855,11.3216604718646,-10.4492696230969,-1.19722115708857,2.46406929580435,-2.03538554358407,1.10092062623672,-0.11432265069399,-6.87337972501179,-0.0292452010788232,0.0292452010788232,-0.05220768204,1.33416
0.7,2.26198228462505,0.283535140772433,0.871127784777049,36.7081676330301,10.3715597443856,-9.81879646559657,3.12247907399082,-0.746027114851047,1.83231432540673,1.02718899603883,-0.294109390943839,-6.98835816883279,0.0292452010788232,-0.0292452010788232,0.05220768204,1.33416
0.71,2.32071509569775,0.291882978156951,0.911547662532769,36.009990147393,12.2078964746116,-9.89618800675697,-1.19423214504807,2.49000796790369,-2.0222801906123,1.18845916677129,-0.131905276479052,-7.07814423700335,-0.0292452010788232,0.0292452010788232,-0.05220768204,1.33416
0.72,2.38177790519691,0.296913644133606,0.950989341409013,37.9332873877235,11.2522716132671,-9.26961374474715,3.12553939315407,-0.720767863427035,1.84519801882416,1.11307562798158,-0.318561643676202,-7.19414932374447,0.0292452010788232,-0.0292452010788232,0.05220768204,1.33416
0.73,2.44152568191957,0.305083990391332,0.99381363434829,37.2461742043284,13.0967550926736,-9.2924146196632,-1.19147356498356,2.51510111746667,-2.00978550177189,1.28016291289126,-0.151009157248673,-7.28306896995358,-0.0292452010788232,0.0292452010788232,-0.05220768204,1.33416
0.74,2.50365942214351,0.309798106822041,1.03564637026014,39.1795176068143,12.1350278905311,-8.67051376976579,3.12836840960773,-0.696327845170826,1.85748226316666,1.2031346624635,-0.344648442233612,-7.4001154081092,0.0292452010788232,-0.0292452010788232,0.05220768204,1.33416
0.75,2.56436129534936,0.317740763762744,1.08094207522999,38.5051511173715,13.9860310047423,-8.63795105778746,-1.18893871040555,2.53937496385226,-1.9978744231812,1.3761116304605,-0.17169377851682,-7.48811585205916,-0.0292452010788232,0.0292452010788232,-0.05220768204,1.33416
0.76,2.62750503275043,0.322085739155042,1.12523258552196,40.4480431166518,13.0176518160342,-8.02154392550679,3.13097309456179,-0.672681803086328,1.86919363716803,1.29744570648414,-0.372430185907558,-7.60621635610781,0.0292452010788232,-0.0292452010788232,0.05220768204,1.33416
0.77,2.68909756969926,0.32974909531224,1.17306528027453,39.7881539367061,14.8735139802194,-7.93277965351317,-1.18662045818427,2.56285486970422,-1.98652099415044,1.47638580524444,-0.194019206810064,-7.69324279665222,-0.0292452010788232,0.0292452010788232,-0.05220768204,1.33416
0.78,2.75318775023183,0.333670923995231,1.21987878381678,41.7400271138197,13.8979632928404,-7.32273601071899,3.13336079033583,-0.649805305958207,1.88035764116903,1.39608916397137,-0.401967823058462,-7.81240794272942,0.0292452010788232,-0.0292452010788232,0.05220768204,1.33416
0.79,2.81560495069894,0.34100204597581,1.2703124727406,41.0963879971204,15.7569854767673,-7.17687072229505,-1.18451135821392,2.58556537889348,-1.97570030941945,1.58106668347211,-0.218046162821804,-7.89840341046233,-0.0292452010788232,0.0292452010788232,-0.05220768204,1.33416
0.8,2.88042374649387,0.344470685355869,1.31957082537142,43.0566030419215,14.773775795338,-6.57411334704572,3.13553912583887,-0.62767471083131,1.89099873472456,1.49914626664507,-0.433322911138733,-7.99773231856667,0.0292452010788232,-0.0292452010788232,0.05220768204,1.19197766037104
0.81,2.94307050322474,0.351489272352178,1.37214504826788,42.4310218700885,16.6342157212747,-6.37019104072071,-1.18260371321971,2.60753025231561,-1.96538848246114,1.68969107304745,-0.244083351974347,-8.02898645221402,-0.0292452010788232,0.0292452010788232,-0.05220768204,0.969190525057086
0.82,3.00777565795651,0.354605517436932,1.42316549112475,44.3988657281745,15.6428937594036,-5.77569903118995,3.1375159414388,-0.606267127735947,1.90114037313494,1.60660174396231,-0.464454980804579,-8.07456801464459,0.0292452010788232,-0.0292452010788232,0.05220768204,0.818728272193164
0.83,3.06989503775477,0.361374381023418,1.47719775068135,43.7931774060804,17.5029613360664,-5.51271358311787,-1.18088964958875,2.62877250159068,-1.95556260980314,1.79988811081823,-0.271127294051433,-8.05779697650616,-0.0292452010788232,0.0292452010788232,-0.05220768204,0.649724736812123
0.84,3.13383375200267,0.364235946722338,1.52941569490782,45.7678617096463,16.503110512589,-4.92752534350327,3.13929922237652,-0.58556038658901,1.91080504294746,1.71622016704605,-0.493459312803494,-8.06484349609204,0.0292452010788232,-0.0292452010788232,0.05220768204,0.548152172797405
0.85,3.19489425933845,0.370812039283317,1.58439757975692,45.1839187984452,18.3609635778339,-4.60442853256567,-1.1793611800353,2.64931442073331,-1.94620073632797,1.90990370572987,-0.297056240983437,-8.01313968022987,-0.0292452010788232,0.0292452010788232,-0.05220768204,0.419027474087718
0.86,3.25761087066128,0.373499762573305,1.63739503952219,47.1645786960636,17.3522068068862,-4.02964431428369,3.14089703994885,-0.565533006184447,1.92001429646649,1.82607158660595,-0.51906733236946,-7.99307894392387,0.0292452010788232,-0.0292452010788232,0.05220768204,0.35431793388932
0.87,3.31724543946029,0.379932438125469,1.69295280892806,46.6042406219754,19.2059472620686,-3.64535556554577,-1.17801025884446,2.66917761587538,-1.93728182151878,2.01839298002076,-0.320349066478373,-7.91623235974026,-0.0292452010788232,0.0292452010788232,-0.05220768204,0.254559031243658
0.88,3.37830008857651,0.382564751118087,1.74656064791377,48.4499719535526,18.1879500207441,-3.08213943225749,2.89803740508863,-0.546164165174917,1.92878878530484,1.93468867160817,-0.521060061191441,-7.87841815770889,0.0275694396294632,-0.0292452010788232,0.05220768204,0.217660609670056
0.89,3.43612867761805,0.388939004930522,1.80255444701581,47.7759272303108,20.0354258863336,-2.64197278633779,-1.41622332314394,2.68490051138658,-1.92901425410463,2.12371253979909,-0.301894834304217,-7.78456987624346,-0.0292452010788232,0.0292452010788232,-0.05220768204,0.138798063336129
0.9,3.49544395462043,0.391519069674568,1.85640753849166,49.6331366519358,19.0100626753625,-2.08587516565941,2.90892241232179,-0.527431288011162,1.93801834709418,2.04107062605332,-0.50094915685131,-7.73525846085941,0.0292452010788232,-0.0292452010788232,0.05220768204,0.122334973702054
0.91,3.5514288519277,0.39773585363673,1.91253624961574,48.9733360527432,20.8132888908238,-1.6387617438551,-1.40575927635373,2.60053138944371,-1.92005244688614,2.21785134050994,-0.281852217200805,-7.63122455291044,-0.0292452010788232,0.0282968562152268,-0.05220768204,0.066708
0.92,3.60886503467333,0.400220736891674,1.9665207469713,50.8232106031574,19.7423570662176,-1.13780371586726,2.91796755141065,-0.610355339890709,1.94654962066837,2.12871224735752,-0.478241004105032,-7.57852403763888,0.0292452010788232,-0.0292452010788232,0.05220768204,0.066708
0.93,3.66296864029901,0.40637115078812,2.02270186648434,50.1932545806835,21.5405228985117,-0.635162288414014,-1.39581634781219,2.62266034795982,-1.91126912492265,2.30134563913561,-0.259717870493362,-7.47327331912401,-0.0292452010788232,0.0292452010788232,-0.05220768204,0.066708
0.94,3.7185392681133,0.408837495951955,2.07680189098069,52.0515535924012,20.4639416791003,-0.142810844907324,2.92783809482825,-0.588900684208932,1.95516589456039,2.21393790497645,-0.453160769491358,-7.42314125666368,0.0292452010788232,-0.0292452010788232,0.05220768204,0.066708
0.95,3.77076089549693,0.414918147210524,2.13303792883462,51.4528014954928,22.2553053033176,0.416617517309989,-1.38638174348949,2.6440143842137,-1.90292246161334,2.38231867860292,-0.235188732887624,-7.31675408714897,-0.0292452010788232,0.0292452010788232,-0.05220768204,0.066708
0.96,3.82446444567977,0.417361916545071,2.18725761729061,53.3183686105377,21.1726420587612,0.898940099726776,2.93720587436918,-0.568192538855282,1.96335395178877,2.29659168541795,-0.425626980805024,-7.26929759841615,0.0292452010788232,-0.0292452010788232,0.05220768204,0.066708
0.97,3.87479374746906,0.423317651780149,2.24356317483234,52.739533432692,22.9310839816839,1.48141121488369,-1.37743430230998,2.59360693095949,-1.89499290879665,2.45546600624278,-0.208189035741081,-7.16349049879405,-0.0292452010788232,0.0285918670114217,-0.05220768204,0.066708
0.98,3.92661589623797,0.425684365102795,2.29791956523025,54.5970814984529,21.8179908632824,1.9178914196472,2.94521702739993,-0.617798420575878,1.97096544731412,2.36642919482142,-0.395450723360876,-7.1204752448119,0.0292452010788232,-0.0292452010788232,0.05220768204,0.066708
0.99,3.97506146556871,0.431565843005069,2.35428301923783,54.0511134391207,23.5677988549281,2.55924508841641,-1.36891959773161,2.61628968985094,-1.88727557173392,2.52135848685215,-0.178687192269088,-7.01390486431647,-0.0292452010788232,0.0292452010788232,-0.05220768204,0.066708
1,4.02501132017195,0.433904414900518,2.40876669356854,55.9132289566858,22.4496916945849,2.98383274466842,2.9537096248186,-0.5957666626095,1.97854379851312,2.4342915057133,-0.362773372756599,-6.97365735930075,0.0292452010788232,-0.0292452010788232,0.05220768204,0.066708
1.01,4.07157020096307,0.439698748062157,2.46519250588542,55.3985738370961,24.1843842999076,3.67792484307069,-1.36084981686034,2.62406843645352,-1.87995127596544,2.58420906777295,-0.14665785488672,-6.86673974291589,-0.0292452010788232,0.0291154668629257,-0.05220768204,0.066708
1.02,4.11964332768094,0.441995506898037,2.51980939059374,57.2609774309099,23.0564778191309,4.08199784887039,2.96158850115922,-0.58832973086795,1.98570357498561,2.49812453594586,-0.327529344126094,-6.82972513501691,0.0292452010788232,-0.0292452010788232,0.05220768204,0.066708
1.03,4.16428629792797,0.44756412455125,2.5763308132575,56.7382056291384,24.7137726342405,4.72686033961437,-1.35319679626333,2.43539655078351,-1.87296438383179,2.62967209229752,-0.112068564009671,-6.727482476659,-0.0292452010788232,0.0273101322132553,-0.05220768204,0.066708
1.04,4.21030389489257,0.449738953014923,2.63122744562185,58.3961703847626,23.5163431403999,5.00809308838976,2.68847976107495,-0.773404401902864,1.9920789739003,2.53176509794905,-0.270693234662606,-6.69901367392327,0.0273368036522877,-0.0292452010788232,0.05220768204,0.066708
1.05,4.25291556033848,0.455278009350475,2.68791423092906,57.747534271705,25.1657569848138,5.70644887179635,-1.61842199635519,2.46047523299184,-1.8661393873705,2.65996947479363,-0.0381462065459487,-6.59707323867009,-0.0292452010788232,0.0292452010788232,-0.05220768204,0.066708
1.06,4.29705791560929,0.457425299151727,2.74293802409876,59.4161448266633,23.9688146531326,5.98310304447541,2.70694731549651,-0.745237250862972,1.99994349418235,2.56566686427981,-0.19479639383365,-6.57169459711489,0.0292452010788232,-0.0292452010788232,0.05220768204,0.066708
1.07,4.3377826148673,0.462877963684207,2.79968301481157,58.8038670481145,25.6109911794041,6.73346707787897,-1.60065049293629,2.48850831073779,-1.85853830391288,2.69040664878844,0.035442378141249,-6.46859508808141,-0.0292452010788232,0.0292452010788232,-0.05220768204,0.066708
1.08,4.38004849669736,0.464993446758166,2.85483668189717,60.4818023147253,24.4140380059739,7.00382740702234,2.7245805262952,-0.718099888266836,2.00739451707531,2.59957215386088,-0.119172205714292,-6.4464015456101,0.0292452010788232,-0.0292452010788232,0.05220768204,0.066708
1.09,4.41888549238074,0.470357922019581,2.91164141367965,59.9064901088451,26.0472132716301,7.80724395254699,-1.58368801465427,2.51551363379096,-1.85134044861516,2.72079154270602,0.10889806259033,-6.34224789860062,-0.0292452010788232,0.0292452010788232,-0.05220768204,0.066708
1.1,4.4592734917993,0.472437281105092,2.96692758465742,61.5924066847348,24.8498050053286,8.06959865606258,2.74141234858853,-0.691951940256171,2.01444936897686,2.63330228935469,-0.0436307801999861,-6.32333493768336,0.0292452010788232,-0.0292452010788232,0.05220768204,0.066708
1.11,4.49622198584428,0.477711819549526,3.02379348456084,61.0546307750957,26.472152721468,8.9270513141749,-1.56750234779424,2.54153131076331,-1.84452878246626,2.75095766265426,0.182401506238258,-6.21823021662923,-0.0292452010788232,0.0292452010788232,-0.05220768204,0.066708
1.12,4.53473051668224,0.479750688542095,3.07921469279445,62.7471655793136,25.2739018875804,9.17969254227492,2.7574749079375,-0.666755017780331,2.02112491743934,2.66670357477116,0.0319973731974,-6.20269383202269,0.0292452010788232,-0.0292452010788232,0.05220768204,0.066708
1.13,4.56978964749342,0.484933597402932,3.13614308436937,62.2474435270131,26.8835356069713,10.0920889987864,-1.55206210243457,2.56659951339344,-1.83808672663333,2.78076363772987,0.256113692903968,-6.09673921169475,-0.0292452010788232,0.0292452010788232,-0.05220768204,0.066708
1.14,4.60641694645896,0.4869275615495,3.19170175390443,63.9452175699738,25.6841143604053,10.3333145068916,2.77279947317691,-0.642472585120545,2.02743755921578,2.69964683772368,0.107861888437547,-6.08467580031557,0.0292452010788232,-0.0292452010788232,0.05220768204,0.066708
1.15,4.6395666255676,0.491939820741941,3.24870986689619,63.4537574587489,27.2483492573668,11.2317008866935,-1.53733673797764,2.46860122569197,-1.83199817330778,2.80266009817195,0.330176459630129,-5.98126817828799,-0.0292452010788232,0.0281213900136786,-0.05220768204,0.066708
1.16,4.67428741867828,0.493809221482225,3.30442445023221,65.1230943135741,26.0171103058663,11.391357461224,2.78596150870217,-0.738780147551577,2.03308152000631,2.71746685440303,0.184249350774434,-5.97602337417224,0.0292452010788232,-0.0292452010788232,0.05220768204,0.066708
1.17,4.70554600105219,0.498729438640388,3.36149554730477,64.6690211550752,27.5680196051911,12.3457232494297,-1.52314137555194,2.49668664944521,-1.82599298407796,2.8175570466819,0.40468805173925,-5.87211854182411,-0.0292452010788232,0.0292452010788232,-0.05220768204,0.066708
1.18,4.73838008656651,0.500549230310643,3.41735114609536,66.3419458049271,26.3376760894183,12.4939073491002,2.80011000292714,-0.711516256061956,2.03897985639854,2.7358091103166,0.261008818571336,-5.87022914407409,0.0292452010788232,-0.0292452010788232,0.05220768204,0.066708
1.19,4.7677465743259,0.505376110127824,3.47448648467154,65.9254934346944,27.8732366491959,13.5047923373119,-1.50960894008127,2.52373994900022,-1.82032548475661,2.8329483043903,0.479693843461909,-5.76590500999212,-0.0292452010788232,0.0292452010788232,-0.05220768204,0.066708
1.2,4.79852488700319,0.507212590480054,3.53057016024664,67.4021916063792,26.643535789099,13.6398520547673,2.46711970183387,-0.685249900444916,2.04454608885603,2.75454864679183,0.358217106833658,-5.76582178274872,0.0268683464816443,-0.0292452010788232,0.05220768204,0.066708
1.21,4.82582708956783,0.512005638923433,3.58785103894977,66.8248674202258,28.1640426718956,14.6985859722106,-1.83626283267682,2.5445640752322,-1.81538745015362,2.84801429485908,0.594691512055399,-5.65950377810718,-0.0292452010788232,0.0292452010788232,-0.05220768204,0.066708
1.22,4.85472519632431,0.513789064838831,3.64407178834767,68.3149366138016,26.9348694722353,14.8284944310071,2.49364390603515,-0.660514286784689,2.05086307113489,2.77367779468332,0.474066224101436,-5.66325976413783,0.0292452010788232,-0.0292452010788232,0.05220768204,0.066708
1.23,4.88010689380534,0.518378407910833,3.70143462776314,67.7334267918119,28.4072319006258,15.8348820804641,-1.81057078439227,2.40465240723139,-1.80927133481413,2.85407160562541,0.707581633742764,-5.55980964855063,-0.0292452010788232,0.0277302386466171,-0.05220768204,0.066708
1.24,4.90709095614678,0.520007997774878,3.75781162621069,69.1881941272822,27.1436482225227,15.861345326829,2.51707516504655,-0.798054308203798,2.05631092976258,2.77472768551525,0.588094124913565,-5.57195144870705,0.0292452010788232,-0.0292452010788232,0.05220768204,0.066708
1.25,4.93057943687272,0.524494480844159,3.81523679730699,68.6454319331639,28.6051500834378,16.9143280675106,-1.78574598068865,2.43498955432785,-1.80331287252951,2.85226874574182,0.818643923543649,-5.46710713763095,-0.0292452010788232,0.0292452010788232,-0.05220768204,0.066708
1.26,4.95567865691607,0.526066457678114,3.87175290051994,70.1126188114171,27.3443622197011,16.937135500853,2.5416659972299,-0.768734528744379,2.06214076586881,2.77730311382077,0.700264801045842,-5.48282184879798,0.0292452010788232,-0.0292452010788232,0.05220768204,0.066708
1.27,4.9772735076288,0.530449355153924,3.92924100703046,69.6084460238258,28.7932234061363,18.0373821106206,-1.76200980491639,2.4642062104521,-1.79769367213854,2.85198422796391,0.928041612615471,-5.37672970366106,-0.0292452010788232,0.0292452010788232,-0.05220768204,0.066708
1.28,5.00048645618283,0.531958983995781,3.98589772695373,71.0864825167852,27.534963778864,18.0546075551719,2.56517996547792,-0.740491763237173,2.0676367605134,2.78125666507998,0.810805847211049,-5.396132315264,0.0292452010788232,-0.0292452010788232,0.05220768204,0.066708
1.29,5.02018719084152,0.536237595857813,4.04344933322914,70.6206676914602,28.9693623983517,19.2026777565872,-1.73931830532518,2.49234672263758,-1.79240073791251,2.85308221491894,1.03599374560216,-5.28892875149246,-0.0292452010788232,0.0292452010788232,-0.05220768204,0.066708
1.3,5.04151226678797,0.537680073982218,4.10024807064375,72.1080243192656,27.7134081058425,19.2124564309965,2.58766076484791,-0.713283615149515,2.07281189412999,2.78646433481706,0.919922130633218,-5.31212966482575,0.0292452010788232,-0.0292452010788232,0.05220768204,0.066708
1.31,5.05931832358523,0.541853726621219,4.15786370432432,71.680248684403,29.1314854002712,20.4087883077658,-1.7176288725578,2.51945325189206,-1.78742119712098,2.85545028155147,1.14269706030174,-5.20394176680317,-0.0292452010788232,0.0292452010788232,-0.05220768204,0.066708
1.32,5.07875375270117,0.543224185736238,4.21480573701615,73.1754400497113,27.8776612566588,20.4093185304365,2.60915072177463,-0.687069779824323,2.07767899872299,2.79282509968738,1.02779636024338,-5.23104713286633,0.0292452010788232,-0.0292452010788232,0.05220768204,0.066708
1.33,5.09465468467457,0.547260401554719,4.27249020240666,72.7688528584292,29.2681346670297,21.6190766957246,-1.69690023911205,2.48892913443403,-1.78274234073029,2.85603626051842,1.24832658602834,-5.12357490866148,-0.0292452010788232,0.028724142690868,-0.05220768204,0.066708
1.34,5.11218720792454,0.548523205582931,4.32958061945091,74.2532306415984,28.0069827283432,21.5741839524917,2.62903435486542,-0.717315952312639,2.08208608646312,2.79445840623229,1.1346483656247,-5.15621692138055,0.0292452010788232,-0.0292452010788232,0.05220768204,0.066708
1.35,5.12619224288919,0.552454102712641,4.38732944678904,73.8833596455765,29.3788842128424,22.8326953354017,-1.67698516224251,2.51631565333121,-1.77826377510531,2.85516788433872,1.3530366123995,-5.04802024887904,-0.0292452010788232,0.0292452010788232,-0.05220768204,0.066708
1.36,5.14183086200054,0.553637028235522,4.4445647629419,75.3737650608906,28.1205382636347,22.7771644468865,2.64879528348356,-0.690795092906678,2.08646884460846,2.79754577036821,1.24052384628732,-5.08461499090104,0.0292452010788232,-0.0292452010788232,0.05220768204,0.066708
1.37,5.15392808297252,0.557427550657989,4.50238244310205,75.0213406059798,29.4628311837615,24.0448928072327,-1.65795877058667,2.47975645067781,-1.77406472774899,2.85258931429827,1.45693069237805,-4.97755328523702,-0.0292452010788232,0.0286661571431205,-0.05220768204,0.066708
1.38,5.16742682266427,0.558614247808941,4.55981456484742,76.2035956953608,28.1981693711483,23.9383245995411,2.15490846793367,-0.726924645610305,2.09039806421286,2.79575796210051,1.37109262942089,-5.01244159413182,0.025732590831941,-0.0292452010788232,0.05220768204,0.066708
1.39,5.17739095801686,0.562406856757887,4.61773724837902,75.5926641911206,29.5249667278123,25.2420383627748,-2.14145917946166,2.49973504296908,-1.77066516558235,2.84762803589657,1.61052742992059,-4.89737352070571,-0.0292452010788232,0.0292452010788232,-0.05220768204,0.066708
1.4,5.18900824133425,0.563512490158764,4.67531021929727,76.7982112820232,28.2619510682355,25.1383078224372,2.19329556107909,-0.701059461269335,2.0958567852376,2.79585730390228,1.5244971707047,-4.9363343773698,0.0292452010788232,-0.0292452010788232,0.05220768204,0.066708
1.41,5.19707475193691,0.567184269968989,4.73329672522098,76.2258420004968,29.5772025171524,26.4756357142884,-2.10416647209886,2.52576452675128,-1.76536499789437,2.84437800644303,1.76032059778596,-4.818779870948,-0.0292452010788232,0.0292452010788232,-0.05220768204,0.066708
1.42,5.20680911855814,0.568202995896532,4.79101119222154,77.4526969728973,28.3158096932548,26.3725707506723,2.23005502837636,-0.676121067450196,2.10098508093514,2.79751516149443,1.67420204439879,-4.86194512593983,0.0292452010788232,-0.0292452010788232,0.05220768204,0.066708
1.43,5.21293217515279,0.571615344917673,4.84907174856451,76.8396427644938,29.5854276517106,27.5786601576469,-2.06845946497988,2.29028568149925,-1.76039039080373,2.83006570243561,1.90664180174443,-4.74943014132541,-0.0292452010788232,0.0268479345745129,-0.05220768204,0.066708
1.44,5.2207302791958,0.572408808958803,4.90693661257111,78.004290427426,28.2927248421719,27.3122378425042,2.26227112677258,-0.907432308167771,2.1048713215828,2.77583612828885,1.82079018647983,-4.80388195829463,0.0292452010788232,-0.0292452010788232,0.05220768204,0.066708
1.45,5.22495742570214,0.575702489938082,4.96505743847758,77.4278473629394,29.5535072201956,28.554460366206,-2.03370517320334,2.32473837851054,-1.75564815205967,2.8062742249923,2.04989455929346,-4.68937440712669,-0.0292452010788232,0.0292452010788232,-0.05220768204,0.066708
1.46,5.23086986242819,0.57640710587258,5.02306228074432,78.6157146070591,28.2648067692386,28.2949133339563,2.29665297231457,-0.874192157455291,2.10950238929201,2.757329915802,1.96423818294317,-4.74753107167655,0.0292452010788232,-0.0292452010788232,0.05220768204,0.066708
1.47,5.23320149713281,0.579582181270078,5.0812431693059,78.0751382378895,29.5150927519474,29.5737529655919,-2.00043952634204,2.35792724376243,-1.75118703515613,2.78566344017501,2.19023485964985,-4.63122927931126,-0.0292452010788232,0.0292452010788232,-0.05220768204,0.066708
1.48,5.23722715197106,0.58019277921269,5.13938842591577,79.2842842623697,28.2303765578421,29.3188154531446,2.32956374421918,-0.842164703605139,2.11385554054646,2.74184435861721,2.10479913517232,-4.69325111657389,0.0292452010788232,-0.0292452010788232,0.05220768204,0.066708
1.49,5.23766356354034,0.583249326529116,5.19762918441123,78.7787720845086,29.4684834518515,30.6346511804284,-1.9686023864988,2.38990224723999,-1.74699947166797,2.76809273848465,2.32790987212684,-4.57533464188357,-0.0292452010788232,0.0292452010788232,-0.05220768204,0.066708
1.5,5.23980114842752,0.583760655513946,5.2559151445103,80.0073568121176,28.1877349489949,30.3821740551658,2.361063119538,-0.811302217318055,2.11793858468029,2.72924877761263,2.24270462935456,-4.64137003123858,0.0292452010788232,-0.0292452010788232,0.05220768204,0.066708
1.51,5.23834251700867,0.586698764435338,5.31421559383342,79.5360392929106,29.4119629783567,31.7352724301534,-1.93813560961455,2.42071088933061,-1.74307747131697,2.75344287770195,2.46314499834978,-4.52200108863474,-0.0292452010788232,0.0292452010788232,-0.05220768204,0.066708
1.52,5.23859057013393,0.587105499585546,5.37264238973797,80.7823218725607,28.1351735636926,31.4832204285513,2.39120876174483,-0.781559337546743,2.12175970210787,2.71943382912273,2.37816475374062,-4.59218754932375,0.0292452010788232,-0.0292452010788232,0.05220768204,0.066708
1.53,5.23523696802848,0.589925269591295,5.43100236339891,80.3442539813685,29.3438110657241,32.8737287178389,-1.90898301428328,2.45039835630669,-1.7394127134616,2.74161580223922,2.59614401963856,-4.47151224743173,-0.0292452010788232,0.0292452010788232,-0.05220768204,0.066708
1.54,5.23359385373408,0.590222019100402,5.48956996021473,81.6065920281296,28.0709854789759,32.6201784137024,2.42005635586125,-0.752892920029764,2.12532735858697,2.71231122637315,2.51136827002113,-4.54597734706014,0.0292452010788232,-0.0292452010788232,0.05220768204,0.066708
1.55,5.22834524572196,0.592923557477364,5.54798930289601,81.2007454272972,29.2623145000118,34.0481184787073,-1.8810903485075,2.47900766593917,-1.73599662832592,2.732534336019,2.72708937462646,-4.4241267607366,-0.0292452010788232,0.0292452010788232,-0.05220768204,0.066708
1.56,5.22482092141665,0.593050621026909,5.60676599332483,82.4775949152257,27.9934752379075,33.7912569054794,2.44765964533994,-0.725261895710851,2.1286502292059,2.70781335147368,2.64248291237283,-4.51180610826792,0.0292452010788232,-0.0292452010788232,0.05220768204,0.1266652533087
1.57,5.21768695310945,0.595583110091752,5.66531580924758,82.1028509730092,29.1657775163517,35.2565199654067,-1.8544052545434,2.50657980359989,-1.73282046893446,2.72636277784443,2.85630605146507,-4.38888838278419,-0.0292452010788232,0.0292452010788232,-0.05220768204,0.066708
1.58,5.2122892706616,0.595477043296063,5.72437059255068,83.3927666811713,27.9009683507553,34.9946438004559,2.47407047056032,-0.698627138645441,2.13173713117294,2.70605551094716,2.77159649798513,-4.49017293581461,0.0292452010788232,-0.0292452010788232,0.05220768204,0.188556454674335
1.59,5.20328248840861,0.597755333822182,5.78316223978353,83.0479104687543,29.0525316619081,36.4969862309277,-1.82887723200465,2.533153849253,-1.72987537463474,2.72324189865762,2.98387685479445,-4.37128558470845,-0.0292452010788232,0.0292452010788232,-0.05220768204,0.100748832633636
1.6,5.19598774290625,0.597354368924584,5.84258376864672,84.302842394605,27.7918203239112,36.2285014358963,2.41782412448131,-0.67295134296202,2.13459696456817,2.70715730678863,2.90219878664811,-4.48235019731844,0.0286860103445689,-0.0292452010788232,0.05220768204,0.240344824513157
1.61,5.18504600986748,0.599215314179961,5.90171687055321,83.8801567157286,28.910724200814,37.6375055510417,-1.88434199001287,2.35861893094067,-1.72724639602599,2.71430344542634,3.1168739267543,-4.37226915148847,-0.0292452010788232,0.0274156700302853,-0.05220768204,0.146575721293519
1.62,5.17585789222676,0.598309994624731,5.96159512058622,85.0866342469911,27.641864319842,37.2377776424479,2.44298008806245,-0.843323004294048,2.13685065823027,2.69389365551135,3.0343275817662,-4.49913908011841,0.0292452010788232,-0.0292452010788232,0.05220768204,0.281262664186231
1.63,5.16305507839318,0.599757404127244,6.02115648654314,84.6929704853641,28.7435150631918,38.6829922766991,-1.85731237254614,2.39095436494945,-1.72429578841964,2.70093849050687,3.24789101532676,-4.39223960330629,-0.0292452010788232,0.0292452010788232,-0.05220768204,0.175505183999396
1.64,5.15197914130275,0.59841276829086,6.08155003967646,85.8650613415511,27.4797594773496,38.283959282271,2.38059706815001,-0.812019861208603,2.13973592306666,2.68489272151516,3.16793217702932,-4.52484404991014,0.0286333625262986,-0.0292452010788232,0.05220768204,0.310765705861084
1.65,5.13727764247421,0.599418752840055,6.14159214634984,85.448139722715,28.5636526247304,39.7630583052989,-1.91886738327463,2.42069692897728,-1.72168600511939,2.69193194819045,3.3846206392126,-4.4181276554538,-0.0292452010788232,0.0292452010788232,-0.05220768204,0.203085164726135
1.66,5.12435322610421,0.597536245158374,6.20256709356508,86.6386793657351,27.30431670795,39.3653709529127,2.40975480519984,-0.782124656852221,2.14264339253309,2.68030007849778,3.30297961984177,-4.559780996484,0.0292452010788232,-0.0292452010788232,0.05220768204,0.341998640375848
1.67,5.10778774063795,0.598010523165607,6.26315818326155,86.2491461490967,28.369812884941,40.877752976677,-1.89069390085285,2.45050715728159,-1.71891953312045,2.68758188735978,3.51898033947712,-4.45565763482529,-0.0292452010788232,0.0292452010788232,-0.05220768204,0.229007602246481
1.68,5.09301069810464,0.595526865758907,6.32476467127191,87.4553975876993,27.1150245814338,40.4796639439165,2.4354458721494,-0.753307815512401,2.14533425718389,2.68021011556635,3.43542181231685,-4.60578329484028,0.0292300504216043,-0.0292452010788232,0.05220768204,0.369100253226753
1.69,5.07457527483481,0.595417465282983,6.38595393514989,87.0906047698867,28.1605266184785,42.0249149891127,-1.86590490386812,2.47920296799066,-1.71636828845847,2.68804027679646,3.65116025883466,-4.50372028104963,-0.0292452010788232,0.0292452010788232,-0.05220768204,0.251389162231225
1.7,5.05770109405352,0.592500583345436,6.44817246373808,87.980506975981,26.9104017393164,41.6248555400323,1.88270002909289,-0.725536052064401,2.14782213977266,2.68479889450462,3.59135953820768,-4.64089499266654,0.0252696446364728,-0.0292452010788232,0.05220768204,0.393211159649288
1.71,5.03714835693337,0.591944879830435,6.5099512903146,87.309167488395,27.9426913855551,43.1898839127999,-2.4079714496186,2.49768912610359,-1.71473301591707,2.69204727073137,3.83297968421162,-4.52267846077422,-0.0292452010788232,0.0292452010788232,-0.05220768204,0.292698257953886
1.72,5.01843936273282,0.588250351313201,6.57294590764566,88.2336765921917,26.6923141299002,42.801533278026,1.93118172298619,-0.700571956950223,2.15180309096591,2.69418028105866,3.77044563444229,-4.67387532004658,0.0292452010788232,-0.0292452010788232,0.05220768204,0.454964541551107
1.73,4.99601132113225,0.586894448786384,6.63549709577206,87.5923057494952,27.71665244385,44.3849336488077,-2.36078985540586,2.52298042015328,-1.71085401308194,2.70083380247066,4.01071305506213,-4.5601254520706,-0.0292452010788232,0.0292452010788232,-0.05220768204,0.344158011635745
1.74,4.97547028037567,0.582296670943005,6.69935769891409,88.549219890562,26.4664472621007,44.0061135726763,1.9776380118635,-0.676452159613698,2.1555049223775,2.70811077198211,3.94507015369903,-4.72388219903064,0.0292452010788232,-0.0292452010788232,0.05220768204,0.505769945831156
1.75,4.95116667948552,0.580034551979835,6.76276527860194,87.9365677892317,27.4812705227575,45.6083615402742,-2.31558384444026,2.54741080257122,-1.70725217800306,2.71466646468385,4.18453534481301,-4.61338092254996,-0.0292452010788232,0.0292452010788232,-0.05220768204,0.386132074963725
1.76,4.92879296629236,0.57442344316653,6.82755945847475,88.923815449373,26.2316189905511,45.2370171268142,2.02215198968031,-0.653143680939208,2.15893625012584,2.72689215083932,4.11542744982615,-4.78861664768258,0.0292452010788232,-0.0292452010788232,0.05220768204,0.548313803205477
1.77,4.90258566195509,0.571101604974571,6.89187372103191,88.3044594423879,27.234086198469,46.7812673936074,-2.27227221868931,2.45009122600637,-1.70391863552246,2.72800690731259,4.35456806027463,-4.68375203237785,-0.0292452010788232,0.0281327152947091,-0.05220768204,0.420932315009728
1.78,4.87834928123174,0.564327553036337,6.95763409982904,89.2847862530552,25.9834028994554,46.3399668908108,2.06346407128596,-0.74911939463242,2.16163530504238,2.73942867990696,4.28178325527054,-4.87227217633601,0.0292452010788232,-0.0292452010788232,0.05220768204,0.581357660496068
1.79,4.85025900341672,0.559933130222611,7.02290903179989,88.6927365544484,26.975584150522,47.9055305901005,-2.23042609586787,2.4776577911245,-1.70088808668302,2.74160047447857,4.52094579721459,-4.76829004684869,-0.0292452010788232,0.0292452010788232,-0.05220768204,0.444492754062759
1.8,4.82418240727257,0.551982570956038,7.08967992873974,89.7023591111341,25.7262732481099,47.4727833468348,2.10472983556353,-0.722681139365855,2.16453493732726,2.75775757613065,4.44412628379404,-4.96588804723489,0.0292452010788232,-0.0292452010788232,0.05220768204,0.607880050674996
1.81,4.79420259137382,0.546451514668933,7.15594605877679,89.1362934298993,26.7066470463873,49.05986654705,-2.19034358044677,2.50427170567011,-1.698088814406,2.7613114505675,4.68365628671881,-4.86254482873525,-0.0292452010788232,0.0292452010788232,-0.05220768204,0.46569896896619
1.82,4.76627817564887,0.537253331987099,7.22375022481158,90.1733492671879,25.4590483425713,48.6337324352557,2.14425942793155,-0.697148730544821,2.16720796053721,2.78206718065885,4.60248835498926,-5.06902831354321,0.0292452010788232,-0.0292452010788232,0.05220768204,0.632310515376263
1.83,4.7343999695776,0.530524560729164,7.29103208342668,89.6319036062184,26.4261162420649,50.242447913858,-2.15195177269726,2.52996825425485,-1.69551410020556,2.78732423955171,4.84271262676302,-4.96612593828112,-0.0292452010788232,0.0292452010788232,-0.05220768204,0.485026444754728
1.84,4.70461777349387,0.520010461187118,7.35988659544915,90.694654559479,25.1805422026838,49.8211082825567,2.18212474063587,-0.672488924723763,2.16966121036875,2.81255196713236,4.75687497812006,-5.18134973348906,0.0292452010788232,-0.0292452010788232,0.05220768204,0.655083632205
1.85,4.67083004069062,0.512025185495335,7.42820364572214,90.176420688816,26.1328318667108,51.4514748099765,-2.11518049718414,2.55478097707803,-1.69315687471283,2.81983139503364,4.99810510804562,-5.07872473866372,-0.0292452010788232,0.0292452010788232,-0.05220768204,0.502867302504275
1.86,4.63917776784226,0.500129052616304,7.49812070565299,91.263249583267,24.8895740665652,51.0332292762716,2.21839495600967,-0.648670128943822,2.17190183348396,2.84941282290714,4.90726820235606,-5.30258065360399,0.0292452010788232,-0.0292452010788232,0.05220768204,0.676561517875091
1.87,4.60346709073606,0.49083020021928,7.56748808739478,90.76677328016,25.8256425253821,52.6851717294369,-2.0799622237305,2.57874178795494,-1.69100979666401,2.85903346617764,5.14980336267492,-5.20009621209209,-0.0292452010788232,0.0292452010788232,-0.05220768204,0.519551381979774
1.88,4.56993012592588,0.477487543024972,7.63847566273675,91.8761808056524,24.5849770586251,52.2684350361055,2.25313662729878,-0.625662286611322,2.1739372133825,2.89285718911538,5.05362894133268,-5.43250544710926,0.0292452010788232,-0.0292452010788232,0.05220768204,0.697051977067973
1.89,4.53225519495096,0.466761562466008,7.70888179894709,91.3713624887707,25.5054617031411,53.8730462245337,-2.0462319893988,2.49272622588364,-1.6890653228929,2.89920896880475,5.2977581684288,-5.33320323388192,-0.0292452010788232,0.0282409763800746,-0.05220768204,0.535361776482274
1.9,4.49679024284876,0.451860792646046,7.78091832057779,92.4723254567199,24.2691520802155,53.3891395442067,2.28521508655454,-0.710408532666947,2.17539228881933,2.93142767287538,5.19603030733709,-5.57660855886714,0.0292452010788232,-0.0292452010788232,0.05220768204,0.71371546886702
1.91,4.45716098490934,0.439721084975798,7.85238737889459,91.9876458421751,25.1727208653867,55.0168388076429,-2.01359059560604,2.5193697846928,-1.68727321659561,2.94099899323655,5.44193267572111,-5.47655571624004,-0.0292452010788232,0.0292452010788232,-0.05220768204,0.544994862721934
1.92,4.41977933316345,0.42327269771013,7.92549250627312,93.1108490977543,23.9396916694393,54.5358038786098,2.3174668817547,-0.684732025142869,2.17710107319342,2.97730795556467,5.33427484942859,-5.7274880155022,0.0292452010788232,-0.0292452010788232,0.05220768204,0.728120479750497
1.93,4.37817806801167,0.409677129142179,7.99802498000041,92.6447725777959,24.8249465134085,56.1862765406865,-1.98233937773876,2.54508060818907,-1.68566129199572,2.99037551635381,5.58219478819158,-5.62684641135928,-0.0292452010788232,0.0292452010788232,-0.05220768204,0.55582181498037
1.94,4.33870559448974,0.391824448553616,8.07215023006397,93.6064081640966,23.5954592184492,55.706635763067,2.02983793192529,-0.659948774775883,2.17863319563876,3.03067936664528,5.48618762457469,-5.867725163619,0.0270602189652356,-0.0292452010788232,0.05220768204,0.74359868232484
1.95,4.29495623500249,0.376888245950356,8.14570580766529,92.9760292799221,24.4663082643946,57.3732800790626,-2.26455996512135,2.56476276541972,-1.68458336696257,3.04645539761398,5.75435418277571,-5.75167049209815,-0.0292452010788232,0.0292452010788232,-0.05220768204,0.585656818717246
1.96,4.2535455476486,0.357319191402445,8.2209370340473,93.9677727485066,23.237328321287,56.9014605030699,2.07196999619458,-0.637162050255341,2.18099634008673,3.09163482657807,5.65215454511559,-6.00585102686025,0.0292452010788232,-0.0292452010788232,0.05220768204,0.793267774860092
1.97,4.20778448116044,0.340720389057675,8.29561513863852,93.3574968639802,24.0963090181359,58.5837805129109,-2.223583510665,2.58780839611489,-1.68230073259862,3.11017243433162,5.92198402016338,-5.89245960539043,-0.0292452010788232,0.0292452010788232,-0.05220768204,0.626028296484297
1.98,4.16441906663476,0.319309979326539,8.3719824903184,94.3776587688414,22.8682493290726,58.1181094622354,2.1123409187708,-0.615125056517423,2.18314107334425,3.16005008256968,5.81309165093375,-6.1588490140504,0.0292452010788232,-0.0292452010788232,0.05220768204,0.835130174208697
1.99,4.11662718877042,0.3009404815034,8.4478143704352,93.7860211038004,23.7139945744345,59.8161665123804,-2.18432390628216,2.61008893133347,-1.68023457099579,3.18184491761321,6.08502974984863,-6.04715112139276,-0.0292452010788232,0.0292452010788232,-0.05220768204,0.659724966000129
2,4.0712883125635,0.277577584596346,8.52533380172244,94.8330315260917,22.4872364168468,59.3550807266337,2.1510239608627,-0.593811659683981,2.18507524369027,3.23626384693106,5.96896419595668,-6.32495624390932,0.0292452010788232,-0.0292452010788232,0.05220768204,0.871331673603305
2.01,4.02142874533325,0.25730680968887,8.60231858695287,94.2445664507782,23.3212738292881,61.0323263618803,-2.14670957171044,2.57250394184786,-1.67837685761601,3.25803456419851,6.24340904097199,-6.21614297556949,-0.0292452010788232,0.0287012320427394,-0.05220768204,0.688597371031741
2.02,3.97407936057332,0.231862784142939,8.68097467657005,95.3024359467438,22.0986513423539,60.5386398998037,2.18744436098993,-0.631141562814183,2.18658940872696,3.31322512358851,6.11978921568166,-6.50631618551945,0.0292452010788232,-0.0292452010788232,0.05220768204,0.901597630714071
2.03,3.92214659584395,0.209642592791863,8.75913746716871,94.7305328108548,22.9177910166412,62.2327102794666,-2.11048105134011,2.59566039675881,-1.67671604730775,3.3392768224095,6.39704174800343,-6.3975616511661,-0.0292452010788232,0.0292452010788232,-0.05220768204,0.710662071243103
2.04,3.87278242474939,0.182067063872696,8.83894509320062,95.8136031916313,21.6971218189397,61.7429593388736,2.22317296465378,-0.608923573401729,2.18814106973971,3.3987564642172,6.26539639647611,-6.69762241774754,0.0292452010788232,-0.0292452010788232,0.05220768204,0.927898915161433
2.05,3.81875287004934,0.15782254534972,8.91828552091277,95.2567308252289,22.5000864212295,63.4536976374743,-2.07577672824377,2.61803696018821,-1.67524140518607,3.42947584532767,6.54577697887124,-6.58865907902499,-0.0292452010788232,0.0292452010788232,-0.05220768204,0.731257317131992
2.06,3.76734971021541,0.128034125315934,8.99923396629287,96.3636876843974,21.2817021717453,62.9665102229038,2.25740203044318,-0.587447261021423,2.18951147625425,3.4931206289277,6.4056612515144,-6.89843956176878,0.0292452010788232,-0.0292452010788232,0.05220768204,0.953051635949564
2.07,3.71119719265425,0.101692461124071,9.07974708549339,95.8202898501391,22.0672582333324,64.6936923831611,-2.04253253413719,2.63966020584804,-1.67394575117921,3.52888982290131,6.68947845526306,-6.78905908479969,-0.0292452010788232,0.0292452010788232,-0.05220768204,0.7509264483083
2.08,3.65758000749794,0.0698119806300679,9.1617929087451,96.799141490602,20.8514719460566,64.2077966776749,2.02702556603211,-0.566687677631535,2.190707782386,3.59657944339141,6.55831021223174,-7.09084130439789,0.0274398614032961,-0.0292452010788232,0.05220768204,0.977545164610738
2.09,3.59911287909672,0.0414408634061116,9.24342082627813,96.1085011270453,21.6261814780518,65.9191977546643,-2.26859257472217,2.61162408629461,-1.67307728719979,3.63352502094992,6.86381809700748,-6.96777727983074,-0.0292452010788232,0.0288342354890194,-0.05220768204,0.788010945313912
2.1,3.54339572756584,0.00709600167612528,9.32658744110378,97.1072804350229,20.4197062109937,65.4137298707488,2.06833590966051,-0.591380677007057,2.18100975128454,3.70223125546561,6.72426647855834,-7.28589646451548,0.0292452010788232,-0.0292452010788232,0.0520511059931958,1.03311055736486
2.11,3.48273909429772,-0.0236313781547587,9.40940149262561,96.4324878321501,21.1896463340872,67.1381466628836,-2.22779402800576,2.63261576396792,-1.68245376518782,3.74297946849591,7.03337449182711,-7.16501287910032,-0.0292452010788232,0.0292452010788232,-0.05220768204,0.831610582150529
2.12,3.42485787271045,-0.0605707597164141,9.49366763699812,97.4627656590852,20.0398169430199,66.6459085504239,2.10870730748126,-0.571158960897357,2.08393850191232,3.80942523269678,6.88814212302861,-7.49647554451208,0.0292452010788232,-0.0292452010788232,0.0508520327390969,1.07908332546048
2.13,3.36193473788609,-0.0937952071155199,9.57763235180954,96.8063425914201,20.8523670297042,68.3901693092559,-2.18887725793414,2.65157089119463,-1.77761573770534,3.84832924255737,7.20443943111216,-7.37692319798425,-0.0292452010788232,0.0292452010788232,-0.05220768204,0.868745816414195
2.14,3.30192340595438,-0.133441047005648,9.66303649695913,97.863879747799,19.7008789967982,67.902549952365,2.1486935854355,-0.551527293785102,2.08981760042973,3.91943501568231,7.04933288971394,-7.72108417667329,0.0292452010788232,-0.0292452010788232,0.05220768204,1.11960153048393
