Time_s,Height_m,X_m,Y_m,Roll_deg,Pitch_deg,Yaw_deg,p,q,r,u,v,w,tx,ty,tz,Thrust
0.01,0.000981,0,0,0.728892128279883,0,0.732093704245974,1.27215675303528,0,1.27774455722138,0,0,-0.0981,0.00872699532582205,0,0.0174539906516441,1.33416
0.02,0.00294140450089111,-7.38403542564342e-07,6.70109544649267e-05,-0.999397948728878,0.0256134380968307,-0.740057300313183,-3.01643522733492,0.0120145014091719,-2.56974898985277,1.17862258823977e-05,0.00420707507103693,-0.196109838060597,-0.0292452010788232,0,-0.05220768204,1.33416
0.03,0.0058817804663876,-3.79867644976304e-06,1.5032793929211e-05,-0.250068698459277,0.000611980861545799,0.00742711051624738,1.30724305017106,-0.066383949281602,1.30364672776184,-0.00010742012680134,-7.1968128042027e-05,-0.29408366566443,0.0292452010788232,-0.00124615581182705,0.05220768204,1.33416
0.04,0.00980103788498333,1.4759520949827e-05,8.05830119664353e-05,-1.95835108390038,0.377548085598328,-1.45196043799372,-2.98148801206981,0.668988234232716,-2.54421620598971,0.00186085562615216,0.00826528181405931,-0.391893380708075,-0.0292452010788232,0.00663732498918125,-0.05220768204,1.33416
0.05,0.0146955632968886,-0.000105264856755525,-8.80118647503238e-05,-1.17816346010024,-1.00911885481219,-0.640889244918593,1.35235640420105,-2.46715062510201,1.33202355161278,-0.00834593079210727,-0.000419866180391471,-0.489818599143043,0.0292452010788232,-0.0292452010788232,0.05220768204,1.33416
0.06,0.0205717133304544,-2.98846867036332e-05,-9.32899038064805e-05,-2.82368455824464,-0.595132195569527,-2.08853731282006,-2.91647381086662,0.774333069824153,-2.51084010488193,-0.00280652361437474,0.0116396730938165,-0.587541601831358,-0.0292452010788232,0.0292452010788232,-0.05220768204,1.33416
0.07,0.0274166706132168,-0.000126845562323601,-0.000442508826522967,-2.02024262713974,-1.91048842435031,-1.24047124654575,1.4176448172303,-2.36585475668105,1.36518392837129,-0.0155262471026413,-0.00149531027686385,-0.685277063967817,0.0292452010788232,-0.0292452010788232,0.05220768204,1.33416
0.08,0.0352443898773771,6.91818614942071e-05,-0.00058074572193465,-3.6068848004957,-1.45975242207261,-2.67802173226655,-2.85285834143191,0.874593273390125,-2.47831300081263,-0.00620980426416714,0.0142150241903888,-0.782985710025893,-0.0292452010788232,0.0292452010788232,-0.05220768204,1.33416
0.09,0.0440333097652872,5.28064205092554e-05,-0.00116935673704804,-2.78053051432528,-2.70711340430365,-1.79682971720375,1.4814396835695,-2.26946623517159,1.39746608224456,-0.02127546963332,-0.00348138368223712,-0.880598474415184,0.0292452010788232,-0.0292452010788232,0.05220768204,1.33416
0.1,0.0538057913579761,0.000424743522119528,-0.00149773581993917,-4.31201439877897,-2.21997284352184,-3.22557012217992,-2.79071856865557,0.97005122813504,-2.4466625534716,-0.0079934515352188,0.0158230277911452,-0.97834625854799,-0.0292452010788232,0.0292452010788232,-0.05220768204,1.33416
0.11,0.064531041545764,0.000538221188006724,-0.00237978509722954,-3.46283650169307,-3.4026221572284,-2.31472045601575,1.54367512987271,-2.1777085691143,1.4288467675402,-0.0252648860710591,-0.00655145882133867,-1.07588919546012,0.0292452010788232,-0.0292452010788232,0.05220768204,1.33416
0.12,0.0762405632102793,0.00113328993223146,-0.00295048893893899,-4.94274452640887,-2.8794464749088,-3.73563006038141,-2.73011720513436,1.06097462332732,-2.41591017186162,-0.007843995572993,0.0163028484372398,-1.17371195863243,-0.0292452010788232,0.0292452010788232,-0.05220768204,1.33416
0.13,0.0888938521022538,0.00141814695134803,-0.00417524017906558,-4.0706384647243,-4.00061745038328,-2.79824251278864,1.60429864674903,-2.09032011477375,1.45930862679644,-0.0272045587822797,-0.0108704759953198,-1.27122402973909,0.0292452010788232,-0.0292452010788232,0.05220768204,1.33416
0.14,0.102532250759647,0.00227602885382453,-0.00503543850868032,-5.5024320747409,-3.44178690616302,-4.21203299511299,-2.67110398067024,1.14761676849715,-2.3860715569463,-0.00548503207976499,0.0155002033498999,-1.36914128662735,-0.0292452010788232,0.0292452010788232,-0.05220768204,1.33416
0.15,0.117105045717533,0.00276653922518585,-0.00664735176102935,-4.60714843281109,-4.5046485906322,-3.25092077705077,1.66326985817971,-2.00705369762457,1.4888396609434,-0.0268388007277137,-0.0165957944982422,-1.46664802689727,0.0292452010788232,-0.0292452010788232,0.05220768204,1.33416
0.16,0.132664107985844,0.00391984916382074,-0.00783922289542193,-5.99418023625306,-3.91054443092851,-4.65807217365038,-2.61371685089086,1.23021697891264,-2.35715722576707,-0.000673048011810576,0.0132668215936771,-1.56466435100265,-0.0292452010788232,0.0292452010788232,-0.05220768204,1.33416
0.17,0.14914797688745,0.0046434970744526,-0.00987796548223142,-5.07536385289296,-4.91819097774508,-3.67577608544414,1.72055935503898,-1.92767617073762,1.51743272028883,-0.0239424097876098,-0.0238776919891614,-1.66217849006371,0.0292452010788232,-0.0292452010788232,0.05220768204,1.33416
0.18,0.166619754548933,0.00611822853391622,-0.0114387445538038,-6.42088572046396,-4.28918871901324,-5.07656879175641,-2.5579831405282,1.30900101866361,-2.32917301305576,0.0068060506644716,0.00946020880293099,-1.76028491174714,-0.0292452010788232,0.0292452010788232,-0.05220768204,1.33416
0.19,0.185006638848474,0.00709614223182757,-0.0139392278685033,-5.47810718616523,-5.24463151393825,-4.07538532737223,1.77614759604148,-1.85196792328649,1.54508501963275,-0.0183175446944059,-0.032859581478897,-1.85780708847421,0.0292452010788232,-0.0292452010788232,0.05220768204,1.33416
0.2,0.204383697530076,0.00891208276707268,-0.0159012761888233,-6.78527516604071,-4.58109664430264,-5.4699286899378,-2.50392061866379,1.38418158884963,-2.3021205475262,0.0171398192638731,0.00394365211103755,-1.95598247489443,-0.0292452010788232,0.0292452010788232,-0.05220768204,1.33416
0.21,0.224666124364634,0.0101594390621059,-0.018893713097577,-5.81805605653671,-5.487258638346,-4.45193346454146,1.83002387784159,-1.77972235114936,1.57179767976363,-0.00979113903094505,-0.0436780080058694,-2.05350201168672,0.0292452010788232,-0.0292452010788232,0.05220768204,1.33416
0.22,0.24594173299214,0.0123305556766788,-0.021284603924339,-7.08993282822647,-4.78954417429818,-5.84019139122965,-2.4515385047314,1.45595884959213,-2.27599770099668,0.0304916600036715,-0.00341359234729308,-2.15171440803865,-0.0292452010788232,0.0292452010788232,-0.05220768204,1.33416
0.23,0.268112973231618,0.0138569550501336,-0.0247945823524598,-6.09776576690845,-5.64925600879887,-4.80725894128035,1.88218537468891,-1.7107453003103,1.59757529671559,0.00178723747343982,-0.056462479571884,-2.24921012088265,0.0292452010788232,-0.0292452010788232,0.05220768204,1.33416
0.24,0.291281241126213,0.0163917498892228,-0.0276371991402744,-7.33732123886196,-4.91770145336072,-6.18907286379624,-2.40083840528472,1.52452096582605,-2.25079900929581,0.0470027980105065,-0.0127359793724871,-2.34741804009266,-0.0292452010788232,0.0292452010788232,-0.05220768204,1.33416
0.25,0.315335419633957,0.0182015628005492,-0.0316857681747553,-6.31968567797691,-5.7336990497576,-5.14289362250839,1.93263624697408,-1.64485449250621,1.62242553945053,0.0165471491951559,-0.0713351795720773,-2.44485906768516,0.0292452010788232,-0.0292452010788232,0.05220768204,1.33416
0.26,0.340391387457039,0.0211034000917704,-0.0349984120961747,-7.52979623205826,-4.96863038688209,-6.51800307385965,-2.35181518251622,1.59004466803969,-2.22651606455449,0.0667939214355389,-0.0241412648610151,-2.54301272137047,-0.0292452010788232,0.0292452010788232,-0.05220768204,1.33416
0.27,0.366323551227231,0.0231960855260633,-0.0396021775890451,-6.48617068489875,-5.74355373899408,-5.46009813391577,1.98138681715133,-1.58187894134949,1.64635877605384,0.034598764386278,-0.0884106010290021,-2.64035936182398,0.0292452010788232,-0.0292452010788232,0.05220768204,1.33416
0.28,0.393263241355362,0.0264634910929678,-0.0433986817206366,-7.66961748343507,-4.94528417078487,-6.82815914999607,-2.30445775628145,1.65269582029653,-2.20313787900686,0.0899665491089411,-0.0377400423063298,-2.73840182932377,-0.0292452010788232,0.0292452010788232,-0.05220768204,1.33416
0.29,0.421069390629342,0.0288338887236115,-0.0485699089430963,-6.59948881534372,-5.68167712716968,-5.75989327772641,2.02845281087118,-1.52165836600393,1.66938772807719,0.0560340826726142,-0.107795136571258,-2.83560637672364,0.0292452010788232,-0.0292452010788232,0.05220768204,1.33416
0.3,0.449889821962418,0.0324608236737403,-0.0528597570321306,-7.75895551092025,-4.85050831929123,-7.1204947927555,-2.25874984196872,1.71262998897114,-2.18065122082995,0.116604179960086,-0.0536352557242451,-2.93347471173678,-0.0292452010788232,0.0292452010788232,-0.05220768204,1.33416
0.31,0.479566908903816,0.035099421243631,-0.0586064784147428,-6.66182579743155,-5.55081918155801,-6.04308804422277,2.07385466067025,-1.46404260841625,1.69152715231113,0.0809279698443426,-0.129586652350305,-3.03048228741802,0.0292452010788232,-0.0292452010788232,0.05220768204,1.33416
0.32,0.510266080578852,0.0390755316166868,-0.0633949265847535,-7.79989592013885,-4.68704283063233,-7.3957664213398,-2.21467062698345,1.76999300665198,-2.15904092286298,0.146773270291827,-0.0719217137202493,-3.12810856354335,-0.0292452010788232,0.0292452010788232,-0.05220768204,1.33416
0.33,0.541811979609004,0.0419687092887876,-0.0697210529926773,-6.67528729980859,-5.35362562346928,-6.31030462357554,2.11761686922149,-1.40889105911686,1.71279354900644,0.109339041916981,-0.153874068982013,-3.22485793868912,0.0292452010788232,-0.0292452010788232,0.05220768204,1.33416
0.34,0.574388827610144,0.046279553559812,-0.0750092531199057,-7.79444153981012,-4.45752520031708,-7.65455644181287,-2.17219538891384,1.8249215265979,-2.13829016527646,0.180524077865441,-0.0926856247007194,-3.32217023620478,-0.0292452010788232,0.0292452010788232,-0.05220768204,1.33416
0.35,0.607802281070878,0.0494098070700261,-0.0819146874622067,-6.64189942276067,-5.09264149264959,-6.5620007361095,2.15976742892197,-1.3560720957053,1.73320489537385,0.141310433831686,-0.18073696811507,-3.41859464346297,0.0292452010788232,-0.0292452010788232,0.05220768204,1.33416
0.36,0.642256611292362,0.0540370634529468,-0.0876998112682561,-7.74451297671545,-4.16449404845828,-7.89729394114199,-2.13129605863271,1.87754356398155,-2.11838073342384,0.217891405544082,-0.116004169128951,-3.51551798019748,-0.0292452010788232,0.0292452010788232,-0.05220768204,1.33416
0.37,0.67753715371185,0.0573832079293293,-0.0951805635342948,-6.56360791441439,-4.77031522416911,-6.79848953527876,2.20033729446749,-1.30546253732969,1.75278040306229,0.176870482438116,-0.210245239328638,-3.61154591264477,0.0292452010788232,-0.0292452010788232,0.05220768204,1.33416
0.38,0.713869554642739,0.0623048634308424,-0.101455926700955,-7.65194802156038,-3.81039317423839,-8.12427305200942,-2.0919417316883,1.92797902090977,-2.09929325221466,0.258895271864176,-0.141945121189821,-3.70800312193715,-0.0292452010788232,0.0292452010788232,-0.05220768204,1.33416
0.39,0.751017418529631,0.0658422197345233,-0.109504229761696,-6.44227649650557,-4.38900306641229,-7.01995729097981,2.23935990501382,-1.25694711775307,1.77154029823643,0.216033348461596,-0.242458778697037,-3.80355911802927,0.0292452010788232,-0.0292452010788232,0.05220768204,1.33416
0.4,0.789229156384145,0.0710327428776634,-0.116259415588887,-7.51850025335025,-3.39757588896523,-8.33566918978872,-2.05409913136322,1.9763401928818,-2.08100739840982,0.303541531261076,-0.170566529196924,-3.89947167666748,-0.0292452010788232,0.0292452010788232,-0.05220768204,1.33416
0.41,0.828245162163153,0.0747333082819883,-0.124863841303058,-6.27968460745974,-3.95097370450568,-7.22647902713266,2.27687075253812,-1.21041797896949,1.78950562283505,0.258799597902786,-0.277427247475166,-3.99447708990586,0.0292452010788232,-0.0292452010788232,0.05220768204,1.33416
0.42,0.868338060975447,0.0801638073616333,-0.132084823606489,-7.34583711841554,-2.92830951090268,-8.53155333137424,-2.01773302674942,2.02273225493429,-2.06350209226477,0.351822462676442,-0.201916461495187,-4.08976589866301,-0.0292452010788232,0.0292452010788232,-0.05220768204,1.33416
0.43,0.909223493400837,0.0839964123246557,-0.141230398936578,-6.07752480477501,-3.45841298321651,-7.4180322633186,2.31290699307621,-1.16577418678448,1.80669805558318,0.305156759662212,-0.315189896899808,-4.18413965066245,0.0292452010788232,-0.0292452010788232,0.05220768204,1.33416
0.44,0.951199802334307,0.0896347809806917,-0.148899664023568,-7.13553769917941,-2.40477993137529,-8.71190448253986,-1.98280660911224,2.06725372623255,-2.04675566994329,0.403717341835125,-0.23603282242416,-4.27872576968658,-0.0292452010788232,0.0292452010788232,-0.05220768204,1.33416
0.45,0.993956275473495,0.0935652336885039,-0.15856798699987,-5.83740001246722,-2.91342864807506,-7.59450899300371,2.34750709761097,-1.12292126930191,1.82313975134835,0.355079873041789,-0.355775463015972,-4.37238508520482,0.0292452010788232,-0.0292452010788232,0.05220768204,1.33416
0.46,1.0378185253589,0.0993762854921137,-0.166664654674803,-6.88909033575392,-1.82909618348857,-8.87662046371806,-1.94928182970834,2.10999691230658,-2.03074603809999,0.459193009522247,-0.272943241060511,-4.46619042611132,-0.0292452010788232,0.0292452010788232,-0.05220768204,1.33416
0.47,1.0824478380232,0.103367505761597,-0.176834010151544,-5.56082075145083,-2.31805504404486,-7.75572601841736,2.38071053951386,-1.081770778856,1.83885319746585,0.408532036077806,-0.39920213367531,-4.5590515484434,0.0292452010788232,-0.0292452010788232,0.05220768204,1.33416
0.48,1.1281986889335,0.109313099410683,-0.185333953790899,-6.6078902193383,-1.20329496292957,-9.02552713161973,-1.91711970209017,2.15104832450322,-2.01545081198766,0.518204445648556,-0.312665033905608,-4.65199952454584,-0.0292452010788232,0.0292452010788232,-0.05220768204,1.33416
0.49,1.17470267224426,0.113325243444055,-0.195979429021067,-5.24920245019814,-1.67425772815294,-7.90143375289366,2.41255751558681,-1.04223987758748,1.8538610857074,0.465464963340674,-0.445477588371389,-4.74397840952484,0.0292452010788232,-0.0292452010788232,0.05220768204,1.33416
0.5,1.22234475373388,0.119364400058727,-0.204855394825633,-6.2932370392072,-0.529345065323929,-9.15838614450177,-1.88628057178136,2.19048907653984,-2.00084743839303,0.580695356704628,-0.355205241384045,-4.8359945452447,-0.0292452010788232,0.0292452010788232,-0.05220768204,1.33416
0.51,1.27072511234662,0.1233549774419,-0.215948994943876,-4.90386289898525,-0.983937966643423,-8.03132359421958,2.44308869790982,-1.0042509465794,1.86818619862622,0.525819559840923,-0.494599110335389,-4.92700753194662,0.0292452010788232,-0.0292452010788232,0.05220768204,1.33416
0.52,1.32026085782568,0.129443991343093,-0.225170720525958,-5.94633273397888,0.19084828297369,-9.27490137104316,-1.85672435604844,2.22839525830546,-1.98691330464232,0.646598782320866,-0.400560736935278,-5.01802003208368,-0.0292452010788232,0.0292452010788232,-0.05220768204,1.33416
0.53,1.37051900618999,0.133367975577764,-0.236681484074989,-4.52601988272993,-0.248937098889376,-8.14503396638117,2.47234501386426,-0.967731218235578,1.88185130907669,0.589526515961101,-0.546553769281924,-5.10798448822169,0.0292452010788232,-0.0292452010788232,0.05220768204,1.33416
0.54,1.42195048276731,0.139460519823481,-0.246215816573861,-5.56827937208941,0.955439213569882,-9.37472403591777,-1.82841075633036,2.26483828726822,-1.9736258348515,0.715837725026829,-0.448718406582283,-5.19792476745351,-0.0292452010788232,0.0292452010788232,-0.05220768204,1.33416
0.55,1.47408737767343,0.143270453580916,-0.258109931241807,-4.11678900415539,0.528959240122842,-8.24215512143541,2.500367451869,-0.932612431396169,1.8948790917758,0.656506926849465,-0.601318672339118,-5.28675970737353,0.0292452010788232,-0.0292452010788232,0.05220768204,1.33416
0.56,1.52741611268279,0.149317681427114,-0.267920945183914,-5.16007716528537,1.76263712874313,-9.45745668869815,-1.80129944572199,2.29988523801999,-1.96096257452627,0.788325805903205,-0.499655396121773,-5.37556288009189,-0.0292452010788232,0.0292452010788232,-0.05220768204,1.33416
0.57,1.58143208323467,0.152963777611189,-0.28016186394041,-3.67718169013095,1.34801703909994,-8.32223278763649,2.52719689053327,-0.898830508536062,1.90729204584453,0.726672938430037,-0.658861279995009,-5.4631895532514,0.0292452010788232,-0.0292452010788232,0.05220768204,1.33416
0.58,1.63665888855508,0.158914420958985,-0.290210979073892,-4.72262260185296,2.61070273586694,-9.52265607631579,-1.77535023374354,2.33359915062377,-1.94890126454592,0.863967947611677,-0.553339422477831,-5.5507948836365,-0.0292452010788232,0.0292452010788232,-0.05220768204,1.33416
0.59,1.69255346461287,0.162344660568213,-0.302759536903336,-3.20810335894868,2.20654996554491,-8.38477074414838,2.55287394909323,-0.866325254276259,1.91911242733812,0.799928421076545,-0.719139783323052,-5.63713733146179,0.0292452010788232,-0.0292452010788232,0.05220768204,1.33416
0.6,1.7496782598028,0.16814512635699,-0.313005636241224,-4.25670667264584,3.49794419564911,-9.56983499271212,-1.75052321046821,2.3660393185332,-1.93741990549487,0.942661085245893,-0.609729145275967,-5.72348864354248,-0.0292452010788232,0.0292452010788232,-0.05220768204,1.33416
0.61,1.80722453436964,0.171321739314981,-0.325805880049408,-2.71035171444262,3.10291554551488,-8.42923239653496,2.57743885715733,-0.835040074352652,1.93036219084409,0.876169671041691,-0.782103538294957,-5.78582310846934,0.0292452010788232,-0.0292452010788232,0.05220768204,1.1801324238046
0.62,1.86554084138846,0.176952973337044,-0.336181045275799,-3.76301315222218,4.42271337172641,-9.59846317241619,-1.72677887192554,2.39726155693004,-1.92649681323655,1.02375189809756,-0.669165728965249,-5.82285277353937,-0.0292452010788232,0.0292452010788232,-0.05220768204,1.0074945729425
0.63,1.92378977205505,0.179911551372657,-0.349130257448921,-2.18461512373735,4.03551145272585,-8.45504142068,2.60093134193712,-0.804921714125521,1.94106293929491,0.955304901317109,-0.846235742993398,-5.83652376417474,0.0292452010788232,-0.0292452010788232,0.05220768204,0.858533982572752
0.64,1.98242192013336,0.185378964015303,-0.359579057234324,-3.2421168890656,5.38340216540516,-9.6079672875353,-1.7040782285506,2.42731845237831,-1.91611066655765,1.10533166583744,-0.731356127547686,-5.83192491254568,-0.0292452010788232,0.0292452010788232,-0.05220768204,0.732979445946138
0.65,2.04063040557945,0.188159576310295,-0.372604179857596,-1.63147102856486,5.00277188831206,-8.4615815358591,2.62339053128428,-0.775920015673357,1.95123588120731,1.03550104530629,-0.910710180756506,-5.80986046062892,0.0292452010788232,-0.0292452010788232,0.05220768204,0.624840368538373
0.66,2.0989449655749,0.19347454849771,-0.383092345560967,-2.69448205250564,6.37843891622308,-9.59773010005266,-1.68238289830855,2.45625959472787,-1.90624054764682,1.18597641977034,-0.795098566103021,-5.77491668929552,-0.0292452010788232,0.0292452010788232,-0.05220768204,0.534926903954574
0.67,2.15657982075393,0.196112866826887,-0.396145191063467,-1.05138433510113,6.0031640297686,-8.4481954604162,2.6448548709907,-0.747987692492603,1.9609017946225,1.11510525986804,-0.974880624017481,-5.72689168193233,0.0292452010788232,-0.0292452010788232,0.05220768204,0.457593137848712
0.68,2.21412649179071,0.201288339284458,-0.40665235899106,-2.12046027917877,7.40628484636143,-9.56708881343974,-1.66165518599197,2.48413179221703,-1.896865976111,1.26448624054496,-0.859382672846645,-5.67014906095224,-0.0292452010788232,0.0292452010788232,-0.05220768204,0.39461356512272
0.69,2.27081294887719,0.20381400390859,-0.41970149688694,-0.444705723784024,7.03518452527202,-8.41418309597126,2.66536205493631,-0.721080120817773,1.97008099708034,1.1927593828384,-1.03816416739436,-5.6035412198497,0.0292452010788232,-0.0292452010788232,0.05220768204,0.340441654291553
0.7,2.3272793924258,0.208861568132687,-0.430215924490451,-1.52028865834211,8.4654305246153,-9.51533265948026,-1.64185815006442,2.51097927072765,-1.88796693717556,1.33985540503183,-0.923360572982745,-5.53146419498562,-0.0292452010788232,0.0292452010788232,-0.05220768204,0.297770361797818
0.71,2.3827617464532,0.211297356762287,-0.443240755610652,0.188330181727213,8.0973560075477,-8.35879897840291,2.68494896678876,-0.695155146581368,1.97879332101588,1.26735033226295,-1.10004149998543,-5.45182912768014,0.0292452010788232,-0.0292452010788232,0.05220768204,0.260923580476041
0.72,2.43793905738189,0.216225427053134,-0.453755526363808,-0.894087492779655,9.55439232350404,-9.44169974795973,-1.62295565830752,2.53684385813832,-1.87952390466021,1.41124498822425,-0.986321299195136,-5.3692994979802,-0.0292452010788232,0.0292452010788232,-0.05220768204,0.233519797107044
0.73,2.49205057674149,0.21858697780324,-0.466742003238744,0.8476068486595,9.18822359961027,-8.28124902612811,2.70365163207043,-0.670172907047888,1.98705809401829,1.33796836107824,-1.16005392097255,-5.28080825962414,0.0292452010788232,-0.0292452010788232,0.05220768204,0.209537896363523
0.74,2.54580687313657,0.223399733787062,-0.477252348486091,-0.241857770192647,10.6717088410581,-9.34537319859783,-1.6049124334212,2.56176515470493,-1.8715178592728,1.47795847452789,-1.04766862958843,-5.19150488635889,-0.0292452010788232,0.0292452010788232,-0.05220768204,0.193568020135285
0.75,2.59844678395496,0.225695641759536,-0.490189929723364,1.53312813514536,10.3063513829354,-8.1806866085646,2.72150517951122,-0.646095666178995,1.99489412344048,1.40387225229186,-1.21779867986958,-5.09727703790237,0.0292452010788232,-0.0292452010788232,0.05220768204,0.179040090300661
0.76,2.65070699921612,0.230392513698667,-0.500691384357509,0.436521721336466,11.8159372567497,-9.22547656640758,-1.58769408962687,2.58578069037399,-1.86393030271603,1.53942050745529,-1.10690220324241,-5.00396488392612,-0.0292452010788232,0.0292452010788232,-0.05220768204,0.171590446944462
0.77,2.70182287587475,0.232624672063396,-0.513570910467002,2.24502091904262,11.450318796832,-8.05620795025361,2.73854381070104,-0.622887662815715,2.00231968489237,1.46446051380706,-1.27292363709227,-4.90632209716553,0.0292452010788232,-0.0292452010788232,0.05220768204,0.16390610989957
0.78,2.75255329379191,0.237200203194605,-0.524058087829494,1.14129770108803,12.9856495888492,-9.08106856368265,-1.57126716123043,2.60892606990478,-1.85674326805891,1.59515866138458,-1.16360162788442,-4.81107231901002,-0.0292452010788232,0.0292452010788232,-0.05220768204,0.162764409029103
0.79,2.80212758549085,0.239364297454902,-0.536870342334642,2.98353811797076,12.6187169358908,-7.9068468790956,2.7548007771441,-0.600514970797175,2.00935251419227,1.5192476774665,-1.32512185032734,-4.71173155491018,0.0292452010788232,-0.0292452010788232,0.05220768204,0.159924521409595
0.8,2.85132400656495,0.243808263561544,-0.547336166409445,1.87284619443081,14.1794288181072,-8.91113707419612,-1.55559912401723,2.63123510664307,-1.84993932678464,1.64478798923683,-1.21741323659696,-4.61608914883982,-0.0292452010788232,0.0292452010788232,-0.05220768204,0.163413510733312
0.81,2.89936373215218,0.245894355308211,-0.560070944368288,3.74906216200143,13.8101447103113,-7.73156892069541,2.77030836389799,-0.578945370172337,2.01600980238878,1.56784488879177,-1.37412643566669,-4.51630986235717,0.0292452010788232,-0.0292452010788232,0.05220768204,0.163886088645636
0.82,2.94704242374263,0.250192055595741,-0.57050621756045,2.63167689039199,15.3958648400006,-8.71459244812455,-1.54065841027218,2.65273994575249,-1.84350159288969,1.68799804253725,-1.26803913989782,-4.42142140147356,-0.0292452010788232,0.0292452010788232,-0.05220768204,0.170736878355586
0.83,2.99357129697356,0.252185212006621,-0.58315176788566,4.54210897888378,15.0232048315986,-7.52926473514471,2.78509787905502,-0.558148228700553,2.02230819350104,1.60994407065932,-1.41970588672759,-4.32211775417985,0.0292452010788232,-0.0292452010788232,0.05220768204,0.173347392422702
0.84,3.0397620809542,0.256317870115351,-0.593544983213403,3.41843812551365,16.6335502047904,-8.49026005992341,-1.52641441814614,2.67347117767109,-1.83741372437468,1.72454204679529,-1.31522823570483,-4.22882874366253,-0.0292452010788232,0.0292452010788232,-0.05220768204,0.182602936309091
0.85,3.08481450330736,0.258198809700178,-0.606087724653021,5.36333254939441,16.2564995835192,-7.29874288796305,2.79919964839179,-0.538094392877569,2.02826378465739,1.6453050428835,-1.46165993032928,-4.13065516936896,0.0292452010788232,-0.0292452010788232,0.05220768204,0.186450735743692
0.86,3.12957274832967,0.261962901512598,-0.616395425014501,4.22744745959519,17.6545484310496,-8.26000259423338,-1.51283751602358,2.27882488458055,-1.83165992243641,1.73710086498424,-1.358768869675,-4.04640623981262,-0.0292452010788232,0.0254305769457709,-0.05220768204,0.197392243575982
0.87,3.17319305362266,0.263532463403095,-0.628787095579939,6.19339146450502,17.0400909385491,-7.08204632403527,2.80770537357515,-0.925096484546883,2.0328175913565,1.64055781253963,-1.49944241161888,-3.95572030050005,0.0292452010788232,-0.0292452010788232,0.05220768204,0.194930323965195
0.88,3.21651249017654,0.267104257618264,-0.639031721175631,5.05948933863538,18.4712447169067,-8.01988741304813,-1.49937124722714,2.31441790974255,-1.82532799312983,1.72909159562021,-1.39856760313881,-3.87260731574736,-0.0292452010788232,0.0292452010788232,-0.05220768204,0.201115863111367
0.89,3.25869647019692,0.26853669759328,-0.651291629367365,7.04963974437948,17.8600000713104,-6.8403724326951,2.82123089798478,-0.890467803426915,2.03906173342601,1.63327963268659,-1.53347573107113,-3.78144203430144,0.0292452010788232,-0.0292452010788232,0.05220768204,0.200265206021023
0.9,3.30059523304578,0.271901571883646,-0.661460578455658,5.9177855236606,19.3234602151298,-7.75376646723661,-1.48653774611567,2.34868744703939,-1.81935465515407,1.71827346412898,-1.4345550169373,-3.7002635762879,-0.0292452010788232,0.0292452010788232,-0.05220768204,0.209674482720893
0.91,3.34136609504138,0.273181651894644,-0.673575243600992,7.93252655459043,18.7141815232917,-6.57242137788193,2.83412320348002,-0.857122432528357,2.04495199091578,1.62304207046832,-1.56358390019325,-3.60937790586833,0.0292452010788232,-0.0292452010788232,0.05220768204,0.20960452218714
0.92,3.38187153491956,0.276321240911442,-0.683653353954428,6.80294027037984,20.209143170683,-7.46028086733242,-1.47431251837304,2.38168360298854,-1.81372442668895,1.70426696051346,-1.46654659216043,-3.5307046169959,-0.0292452010788232,0.0292452010788232,-0.05220768204,0.221436419472954
0.93,3.42125957550261,0.277430008831629,-0.695607151753341,8.84262912638087,19.6006071803205,-6.2768384838417,2.84640703949654,-0.825011950394839,2.0505037613504,1.60947392083061,-1.58961927821592,-3.44065519042477,0.0292452010788232,-0.0292452010788232,0.05220768204,0.221526021286647
0.94,3.46040431740728,0.280322977617569,-0.705576972508821,7.71569100370867,21.1262570139267,-7.1380074773834,-1.46267149488394,2.41345434578687,-1.80842222574597,1.68674133911003,-1.49439188598552,-3.36488791444789,-0.0292452010788232,0.0292452010788232,-0.05220768204,0.235167477328412
0.95,3.49844351902977,0.28123858634163,-0.717352318692021,9.78065624951508,20.5172611636358,-5.95220861753346,2.85810668175131,-0.794090001920376,2.05573202890756,1.59225604121218,-1.6114590155298,-3.27608002221404,0.0292452010788232,-0.0292452010788232,0.05220768204,0.23495466301984
0.96,3.53626248734747,0.283861280968758,-0.727194417289,8.65691262907539,22.0727749242484,-6.78545227285324,-1.45159108191844,2.44404562173407,-1.80343338339787,1.66541124040106,-1.51796919111304,-3.20349385832547,-0.0292452010788232,0.0292452010788232,-0.05220768204,0.249936486730178
0.97,3.57298795565685,0.284559670076216,-0.738772008784168,10.7474519088436,21.4621345186466,-5.59705009434984,2.86924588773049,-0.764312184974889,2.06065135330248,1.57111667564424,-1.62900212103757,-3.11622021499564,0.0292452010788232,-0.0292452010788232,0.05220768204,0.249080320252319
0.98,3.60951614195048,0.286886675692953,-0.748465298139853,9.62762208203254,23.0466741374398,-6.40104319777248,-1.441048203344,2.47350146388611,-1.7987436539618,1.64003344227757,-1.53718129467753,-3.04699787516495,-0.0292452010788232,0.0292452010788232,-0.05220768204,0.2650435450299
0.99,3.6449621902234,0.287342149002654,-0.759824391510465,11.7439990712234,22.4332196604798,-5.20980817393519,2.87984785963747,-0.735635944705476,2.06527586152357,1.54582729083377,-1.64216706349649,-2.96146809631986,0.0292452010788232,-0.0292452010788232,0.05220768204,0.263295238060402
1,3.68023299324505,0.289346777404913,-0.769346466729412,10.6289831202871,24.0459299520569,-5.98312258334399,-1.43102033561809,2.50186409344301,-1.7943392224229,1.61040383457185,-1.55195212282688,-2.89572513734139,-0.0292452010788232,0.0292452010788232,-0.05220768204,0.279965477074325
1.01,3.71443172644402,0.28953250102427,-0.780465179033991,12.7714236131819,23.4285045354221,-4.78884822250234,2.88993521408494,-0.708020475003654,2.06961924214527,1.51619891121787,-1.65088982474554,-2.81208814550108,0.0292452010788232,-0.0292452010788232,0.05220768204,0.277146480519634
1.02,3.74847573469811,0.291187223910656,-0.789792655895781,11.6623113433972,25.068509389401,-5.5299392023917,-1.42148553625976,2.52917401435528,-1.79020670936745,1.57635466149773,-1.56222409711349,-2.74989202624349,-0.0292452010788232,0.0292452010788232,-0.05220768204,0.294314358372331
1.03,3.78145602085392,0.291075662893864,-0.800648277007509,13.8309983592182,24.4459664576851,-4.33244863172577,2.89952995786804,-0.681426626650523,2.07369474196149,1.48207892006551,-1.65512233187528,-2.66825307012577,0.0292452010788232,-0.0292452010788232,0.05220768204,0.29029974751969
1.04,3.81430864478384,0.292229003265899,-0.809733090141273,12.7033543889996,25.8825091652606,-5.10180255132108,-1.41242246644617,2.14231760816207,-1.78633317367696,1.52672809136331,-1.56795606181109,-2.61576075950614,-0.0292452010788232,0.0254441981390823,-0.05220768204,0.307805947294507
1.05,3.84609412301858,0.291673085023659,-0.820278418834117,14.8654323175355,25.0280144617755,-3.96031240445229,2.90385521133158,-1.06070626525586,2.07651553269326,1.42207365967922,-1.65464015716803,-2.54129273130165,0.0292452010788232,-0.0292452010788232,0.05220768204,0.296371547087127
1.06,3.87774664832571,0.292443469959912,-0.829130248758803,13.7507525863806,26.4993120198517,-4.69493597636053,-1.4030508027264,2.18390289368976,-1.78167706379254,1.46412897769048,-1.56918880647062,-2.49043776657348,-0.0292452010788232,0.0292452010788232,-0.05220768204,0.308999477637601
1.07,3.90832784533028,0.291561037970349,-0.839375153294487,15.9282290103165,25.6481419621304,-3.55597663144054,2.91345629368246,-1.0201247082355,2.08114407667575,1.36083124652893,-1.64977964994154,-2.41574607089584,0.0292452010788232,-0.0292452010788232,0.05220768204,0.298232771779021
1.08,3.93878159564837,0.291936551759284,-0.847977561237239,14.8271546378035,27.1528965233584,-4.25433588406257,-1.39415891049878,2.22391985068836,-1.77732618137414,1.40005470489866,-1.56599487699408,-2.36711644898921,-0.0292452010788232,0.0292452010788232,-0.05220768204,0.313399581679528
1.09,3.96816290400392,0.29071501281879,-0.857905256178182,17.0203272826177,26.3037257319848,-3.11783103943825,2.92257097621682,-0.98107002130417,2.08547024603227,1.29800366222918,-1.64046977257007,-2.29285216863176,0.0292452010788232,-0.0292452010788232,0.05220768204,0.302713530556507
1.1,3.99742408084049,0.290680539544444,-0.866239374856767,15.9336955946412,27.8406216610061,-3.77828900338424,-1.38572735591932,2.26242710152352,-1.77326613294287,1.33419865984032,-1.55829783219379,-2.24685863516639,-0.0292452010788232,0.0292452010788232,-0.05220768204,0.319762949846847
1.11,4.02561330901057,0.289104315895463,-0.875831204742305,18.1427868460771,26.9921523004692,-2.64421857945531,2.93121913956094,-0.943485263150491,2.08950838054566,1.23329087577611,-1.62666444438827,-2.17351306984487,0.0292452010788232,-0.0292452010788232,0.05220768204,0.308737993517827
1.12,4.05369024763707,0.288642576995651,-0.883876444275459,17.0716370871263,28.5598514760802,-3.26502536075239,-1.37773698238137,2.29948095862573,-1.76948295015215,1.26629615854799,-1.54605015497217,-2.13043624713175,-0.0292452010788232,0.0292452010788232,-0.05220768204,0.327166682535666
1.13,4.08069628907632,0.286694103469821,-0.893112459228977,19.2967892242678,27.7108116732347,-2.13343172561208,2.93942033418388,-0.90731573620061,2.09327238315494,1.16643773184905,-1.60833897853464,-2.05838205954415,0.0292452010788232,-0.0292452010788232,0.05220768204,0.315509092624342
1.14,4.10759746039747,0.285786470113895,-0.900847126547664,18.2423687612282,29.3079482601149,-2.71271386707863,-1.37016896588317,2.3351355331505,-1.76596309771507,1.19612258409473,-1.52922837890929,-2.01840785815253,-0.0292452010788232,0.0292452010788232,-0.05220768204,0.334930152899828
1.15,4.13342860796785,0.28344697341567,-0.909706602522552,20.4836380807293,28.4570908414157,-1.58370910157653,2.94719373072868,-0.872508880370016,2.09677571384279,1.09723089861496,-1.58548729252615,-1.94793014297152,0.0292452010788232,-0.0292452010788232,0.05220768204,0.322440615458552
1.16,4.15916118809325,0.282074111243294,-0.91710844493732,19.4474090444829,30.0822654773192,-2.11945835916653,-1.36300486205268,2.36944283713377,-1.76269347882117,1.12349134347498,-1.50782934355255,-1.91117630995554,-0.0292452010788232,0.0292452010788232,-0.05220768204,0.342555892586848
1.17,4.18382394009499,0.279324226522637,-0.925570351953641,21.704758805726,29.2283670686945,-0.993232632277425,2.95455807818162,-0.83901417326664,2.1000313858733,1.02549599147072,-1.55811973588234,-1.84249602073421,0.0292452010788232,-0.0292452010788232,0.05220768204,0.329105823569878
1.18,4.20839281235369,0.27746661487124,-0.93261703407082,20.6884050819471,30.8801404143914,-1.48329432091199,-1.35622664561155,2.40245287955975,-1.75966143827038,1.04825180252969,-1.48186732864836,-1.80903198382487,-0.0292452010788232,0.0292452010788232,-0.05220768204,0.349684872877589
1.19,4.23189105346868,0.27428688010655,-0.940660456001658,22.9616972004379,30.0220009544762,-0.360125448999484,2.96153166913325,-0.806783036422122,2.10305196416091,0.951094930531029,-1.52626140732993,-1.7423235634952,0.0292452010788232,-0.0292452010788232,0.05220768204,0.335198576051003
1.2,4.25529687138556,0.271903500254477,-0.947325693184309,21.952692167633,31.6399095636945,-0.831046295433842,-1.34981674300451,2.32242174165114,-1.75685476354162,0.968339514107905,-1.45137187099627,-1.71324845345903,-0.0292452010788232,0.0282167145400011,-0.05220768204,0.35606267757048
1.21,4.27762868464132,0.268253870873626,-0.954925911225058,24.2251824279088,30.7184280661015,0.260509541426622,2.96685540996535,-0.885324921935467,2.10559107139085,0.870182197530642,-1.48991670923948,-1.6495032780737,0.0292452010788232,-0.0292452010788232,0.05220768204,0.339443206465815
1.22,4.29986845630102,0.265352996545286,-0.961194944160375,23.2401714163055,32.3625198446975,-0.160844680917728,-1.34351096651861,2.35738114265473,-1.75395990624481,0.884218248606655,-1.41639806130484,-1.62333222528477,-0.0292452010788232,0.0292452010788232,-0.05220768204,0.359608312312669
1.23,4.32103005412467,0.261241612039186,-0.968338724495431,25.525291616978,31.4377152085956,0.925501418052202,2.97339001350825,-0.851175339083123,2.10848340297581,0.787141693881487,-1.44919668177453,-1.56132634516593,0.0292452010788232,-0.0292452010788232,0.05220768204,0.342350019097739
1.24,4.3420973030336,0.257808938380775,-0.974192823579985,24.566272228477,33.1063320450351,0.556127621024199,-1.33755853691596,2.39101299774408,-1.75128945217598,0.797899545011444,-1.37701172045823,-1.53818791084538,-0.0292452010788232,0.0292452010788232,-0.05220768204,0.363051158488105
1.25,4.36208191235193,0.25322136651879,-0.980862752914322,26.8636609626695,32.1770238708789,1.63673805029077,2.97956539612839,-0.818319689615374,2.11115347042684,0.701861836007431,-1.40414731911257,-1.47815563950084,0.0292452010788232,-0.0292452010788232,0.05220768204,0.345041949036233
1.26,4.38195808565099,0.249179478397489,-0.986272790533083,25.8682480505407,33.6656956454802,1.20058822980257,-1.33194284879636,2.02669147644693,-1.74883147991101,0.703431928773486,-1.33326078669345,-1.46091598410155,-0.0292452010788232,0.0255957901566888,-0.05220768204,0.366061878875583
1.27,4.40074340290728,0.244040765532002,-0.992440716362707,28.1059209969231,32.5315529883241,2.15621807838147,2.98088824221966,-1.17545166994622,2.11270802457148,0.603006863978284,-1.35471429419253,-1.40517263595509,0.0292452010788232,-0.0292452010788232,0.05220768204,0.344476250548289
1.28,4.41942295289215,0.239455164754653,-0.997406524232048,27.1406333016856,34.0505966690717,1.77371052030609,-1.32573273769643,2.07343212883118,-1.74548252043998,0.602430812243281,-1.28524153633443,-1.38973271133625,-0.0292452010788232,0.0292452010788232,-0.05220768204,0.363547849077806
1.29,4.43700438310642,0.233829428969606,-1.00307311656698,29.381898938558,32.9214897634873,2.71951055656431,2.98746044507887,-1.12975891951005,2.11607459368408,0.504002460594968,-1.30114384955993,-1.33479017242141,0.0292452010788232,-0.0292452010788232,0.05220768204,0.342499539297562
1.3,4.45447285771109,0.228697391845585,-1.00758189239532,28.4479853666294,34.4689171666377,2.39260530238297,-1.31989487226096,2.11838799158134,-1.74240388677104,0.5011293710306,-1.23304147442682,-1.32159856654746,-0.0292452010788232,0.0292452010788232,-0.05220768204,0.363123711209203
1.31,4.47083795855776,0.222580756460619,-1.01273456777336,30.6926543946403,33.3435210163787,3.32806927024252,2.99364931964417,-1.0858075249726,2.11917256556707,0.404627363856317,-1.24346566969718,-1.26801735073257,0.0292452010788232,-0.0292452010788232,0.05220768204,0.342196658587245
1.32,4.48708309233238,0.216897120397601,-1.01677177128491,29.7915721629712,34.9172982130486,3.05884835245363,-1.31441256994145,2.16162570437938,-1.73958128905127,0.399342218276532,-1.17668554244437,-1.25738138659848,-0.0292452010788232,0.0292452010788232,-0.05220768204,0.363841415770963
1.33,4.50222071095833,0.210283508176621,-1.02139684881715,32.0393245143665,33.7943389107001,3.98335476377519,2.99947211187847,-1.04353259318161,2.12201617209857,0.304700435531935,-1.18173147488338,-1.20559339347499,0.0292452010788232,-0.0292452010788232,0.05220768204,0.342756487717307
1.34,4.51723071616333,0.204041753510876,-1.02494716123843,31.17273509816,35.3923794111744,3.77402271772888,-1.30926939293793,2.20320938533489,-1.73700094067581,0.29691962362421,-1.11622353605004,-1.19771804410518,-0.0292452010788232,0.0292452010788232,-0.05220768204,0.365015912522464
1.35,4.53112957460925,0.196923881596909,-1.02903065124052,33.4231142778038,34.2706352523286,4.68682822598681,3.00494576795008,-1.00287168622596,2.12461913333377,0.204078783099545,-1.1160116114429,-1.14806032342397,0.0292452010788232,-0.0292452010788232,0.05220768204,0.343595405408037
1.36,4.54489197539392,0.19011693774458,-1.03207873911054,32.5928781584793,35.8907927924619,4.53971155339507,-1.30444920428862,2.24320073852051,-1.7346495585799,0.193746528378393,-1.05172570107889,-1.14307713157591,-0.0292452010788232,0.0292452010788232,-0.05220768204,0.366158714835481
1.37,4.55753972269085,0.182487057550506,-1.0356069774972,34.8452850225953,34.7690959717501,5.43994381089601,3.01008688397273,-0.963764716113747,2.12699465874039,0.102655700566412,-1.04639244520968,-1.09581711681735,0.0292452010788232,-0.0292452010788232,0.05220768204,0.34429976715111
1.38,4.57004059518227,0.175107906108246,-1.03813809750062,34.0534548501006,36.4091569456093,5.35748894324468,-1.29993621516868,2.28165915560993,-1.73251436156251,0.0897412123603794,-0.983279408722556,-1.09380560176282,-0.0292452010788232,0.0292452010788232,-0.05220768204,0.366927977731764
1.39,4.58142320797726,0.166958354932838,-1.04109825286516,36.3071409918156,35.2863958742728,6.24413910655238,3.01491166400479,-0.926153845308174,2.1291554502653,0.000358590043183268,-0.972974371649321,-1.04915991410289,0.0292452010788232,-0.0292452010788232,0.05220768204,0.34458268691069
1.4,4.59264672271698,0.159000482601858,-1.04309872692498,35.5559527256664,36.9440714783615,6.22890837490451,-1.29571502425893,2.31864181200278,-1.73058306682766,-0.0151461998130874,-0.910986650012521,-1.05016333599096,-0.0292452010788232,0.0292452010788232,-0.05220768204,0.36709101416868
1.41,4.60274816517118,0.150324095696255,-1.04547920205291,37.8100136776912,35.819193760297,7.10082346453439,3.01943588548646,-0.889983392732364,2.13111370705219,-0.102853043366719,-0.895870296583552,-1.00831174516101,0.0292452010788232,-0.0292452010788232,0.05220768204,0.344251592717095
1.42,4.61265582905795,0.141758170402036,-1.04694172202554,37.0225566375881,37.350480434069,7.01995435370391,-1.29177064998093,2.0413194180332,-1.72884388492429,-0.124090126674939,-0.834962149487834,-1.01202682498116,-0.0292452010788232,0.0263666651529679,-0.05220768204,0.36649617639088
1.43,4.62143777907863,0.132525815081264,-1.04873475789979,39.191464641796,36.0834106270094,7.74270504646241,3.02015804967655,-1.16182639784648,2.13218876776453,-0.213043193060229,-0.815089978676894,-0.972615551161778,0.0292452010788232,-0.0292452010788232,0.05220768204,0.343546785053605
1.44,4.63003562138033,0.123375966916992,-1.04964372818785,38.4461016858938,37.6355970894095,7.72945959486254,-1.2872883297281,2.08783298658979,-1.72638281105063,-0.23622919852692,-0.755333992042765,-0.978955940180119,-0.0292452010788232,0.0292452010788232,-0.05220768204,0.365962002163011
1.45,4.63750520128311,0.113609518306959,-1.05083434632553,40.6113038280123,36.3741734850212,8.43688744091757,3.02504012977444,-1.1163237940705,2.13468751626047,-0.3229488255054,-0.730845998761657,-0.942085623211151,0.0292452010788232,-0.0292452010788232,0.05220768204,0.342980875109211
1.46,4.64477756859506,0.103874425699,-1.051177686546,39.9095772746214,37.9447732609568,8.49328188389305,-1.28311652832853,2.13255834769198,-1.72416011488229,-0.34811319086442,-0.672181163713125,-0.951189812088295,-0.0292452010788232,0.0292452010788232,-0.05220768204,0.365455774470692
1.47,4.65091956675626,0.0935713490281179,-1.05175565963897,42.0702866863149,36.6878525632348,9.18424875922051,3.0295996757167,-1.07256725313606,2.13694914511719,-0.432653248137736,-0.643253455834194,-0.917143385941913,0.0292452010788232,-0.0292452010788232,0.05220768204,0.342339684616746
1.48,4.65684966468154,0.0832496601876749,-1.05152198138453,41.413883011259,38.274310457042,9.31236996206159,-1.27923968108231,2.17556234285535,-1.7221620869789,-0.459800051523673,-0.585618812151897,-0.929092995325547,-0.0292452010788232,0.0292452010788232,-0.05220768204,0.364625735090605
1.49,4.66164753382392,0.0724074067520237,-1.05147803900906,43.569181576851,37.0208252268933,9.98561942828354,3.03385278086906,-1.03049163546444,2.13898728776632,-0.542206587688052,-0.552441296502321,-0.898098000338907,0.0292452010788232,-0.0292452010788232,0.05220768204,0.341330655359371
1.5,4.66621703790769,0.0614982106163974,-1.05065716123891,42.9599121807245,38.6205118003296,10.1876106002716,-1.27564255162124,2.21690932886953,-1.72037556326093,-0.571316823929871,-0.495776611416784,-0.912935003367448,-0.0292452010788232,0.0292452010788232,-0.05220768204,0.363237440760521
1.51,4.66965261587412,0.0501146382861437,-1.04998341350636,45.1087489826462,37.3694733796961,10.8417655545271,3.03781516249572,-0.990034221647117,2.14081502725964,-0.651627567498128,-0.458550578637614,-0.885178733247928,0.0292452010788232,-0.0292452010788232,0.05220768204,0.339762104007578
1.52,4.67284149571845,0.0386178001080337,-1.04856674089307,44.5485281800146,38.979679668949,11.1198092042379,-1.27231027553768,2.25666127828766,-1.71878791906184,-0.682660982254855,-0.402796629622702,-0.902917991268156,-0.0292452010788232,0.0292452010788232,-0.05220768204,0.361142739270422
1.53,4.67489490727903,0.0266914700954336,-1.04725698909122,46.6897189930162,37.7301816115902,11.7533706071066,3.04150212332297,-0.95113461409575,2.14244490344728,-0.760905270844183,-0.361733140655766,-0.878558630737226,0.0292452010788232,-0.0292452010788232,0.05220768204,0.337516459317962
1.54,4.67668006012094,0.0146075074048639,-1.04523865542537,46.175975848699,39.3425548379342,12.1022117549014,-1.26922839617483,2.28073247376285,-1.71738706167942,-0.793926117001637,-0.306831721397674,-0.899089302079963,-0.0292452010788232,0.0291150633901457,-0.05220768204,0.358256654366821
1.55,4.6773284786281,0.00213754240145483,-1.04328926863348,48.3034109874819,38.0883273439921,12.7062133501961,3.04477057969592,-0.927597136784312,2.14385816621762,-0.870241183681284,-0.262143285431562,-0.878161150495146,0.0292452010788232,-0.0292452010788232,0.05220768204,0.334640657250082
1.56,4.6776546061706,-0.0105374125935373,-1.04068736450223,47.7289679748758,39.5769461850785,12.9511882431085,-1.26634463979192,1.97950932409067,-1.71611950522955,-0.908004459357637,-0.208043492763323,-0.89863968918485,-0.0292452010788232,0.0261308277404168,-0.05220768204,0.354755979102634
1.57,4.67684495272935,-0.0235563318204926,-1.03811313638831,49.7277664187788,38.1964886587304,13.3507879997691,3.04421703496921,-1.22284429333987,2.14443566524944,-0.985047652544669,-0.159769340399595,-0.878578026835782,0.0292452010788232,-0.0292452010788232,0.05220768204,0.334108703418665
1.58,4.67573462977339,-0.0368164465706491,-1.03489290278457,49.2025591249071,39.6971499146458,13.6714830698595,-1.26276730747706,2.02869017453089,-1.71401476985377,-1.02416164758816,-0.106575988442957,-0.9022572390741,-0.0292452010788232,0.0292452010788232,-0.05220768204,0.356274405221155
1.59,4.67349105910767,-0.0503820492206376,-1.03165817123503,51.1932009329784,38.3263117432279,14.0536898619746,3.04824378479075,-1.1747120806273,2.14659256133598,-1.09868353125202,-0.0548467267651843,-0.88606605994662,0.0292452010788232,-0.0292452010788232,0.05220768204,0.335302236950083
1.6,4.67093026849294,-0.0642274566507735,-1.02780680550892,50.7182972333753,39.8361789948429,14.4515402881478,-1.25947567698078,2.0759721636272,-1.71214391025023,-1.13908697895278,-0.00247207531185196,-0.912871555902812,-0.0292452010788232,0.0292452010788232,-0.05220768204,0.356470320820343
1.61,4.66723863971529,-0.0783413868050009,-1.02390210814111,52.6996503897513,38.4739757560135,14.8148003243654,3.05197122329137,-1.12843484848367,2.14851657650825,-1.21114450562982,0.0524510942378222,-0.90064197039721,0.0292452010788232,-0.0292452010788232,0.05220768204,0.335280010690882
1.62,4.66321077560865,-0.0927705315364991,-1.01940961356635,52.276164985957,39.9901455165515,15.2912218746864,-1.25645451593068,2.12142639313746,-1.71049281753821,-1.25275788505358,0.104091604377527,-0.930498126713891,-0.0292452010788232,0.0292452010788232,-0.05220768204,0.355391995792205
1.63,4.65805451887846,-0.107432930131359,-1.01482819102646,54.2470293944811,38.6356869098171,15.6339254805239,3.05541515927972,-1.08394326971647,2.15022173669409,-1.32239753715337,0.16194308471343,-0.922313762314842,0.0292452010788232,-0.0292452010788232,0.05220768204,0.3340967515254
1.64,4.65254069766555,-0.122442617160062,-1.00968738764926,53.8760930270381,40.155187952073,16.1902887910422,-1.25368892219744,2.16512133969422,-1.70904797309577,-1.36512394155077,0.212931478985268,-0.955146425302686,-0.0292452010788232,0.0292452010788232,-0.05220768204,0.3531065476065
1.65,4.64590113115657,-0.137652181650435,-1.0044251829723,55.8352043737589,38.8076800740713,16.5107734593252,3.05859102111507,-1.04117057536594,2.15172147349262,-1.43238260576274,0.273441128667727,-0.951086197261884,0.0292452010788232,-0.0292452010788232,0.05220768204,0.331822715997989
1.66,4.63888052330232,-0.15323764023119,-0.998631672022337,55.5179308463359,40.3274735833929,17.1483761051599,-1.25116436981026,2.2071229584652,-1.70779643984441,-1.47610848051008,0.32385756997216,-0.986824329638942,-0.0292452010788232,0.0292452010788232,-0.05220768204,0.349693225360004
1.67,4.63073718458482,-0.16899169713997,-0.992687289630844,57.4639666527091,38.9862213080631,17.4449317671487,3.06151381627623,-1.00005245320263,2.15302863407451,-1.54101433225921,0.386750438293573,-0.986964280987704,0.0292452010788232,-0.0292452010788232,0.05220768204,0.328537987906486
1.68,4.62218735465225,-0.185146654059369,-0.986239380639981,57.2014176700941,40.503202072184,18.164968083434,-1.24886674648088,2.24749478159045,-1.70672585214885,-1.58561011151752,0.436673899925366,-1.02554084870203,-0.0292452010788232,0.0292452010788232,-0.05220768204,0.345238608215857
1.69,4.61251833542395,-0.201441239305722,-0.979614012556892,59.1330056789975,39.1676114413462,18.4358447328797,3.06419809878819,-0.960526951410903,2.15415549234635,-1.64818348521301,0.501669896353393,-1.02995531379149,0.0292452010788232,-0.0292452010788232,0.05220768204,0.32432841933469
1.7,4.602390828064,-0.218154273731918,-0.972539640797046,58.8502255278991,40.622901408172,19.1191563090881,-1.2467823836292,2.09678249905801,-1.70582440449286,-1.69545607689128,0.551178821598807,-1.06818406957273,-0.0292452010788232,0.0275016583620928,-0.05220768204,0.3398332151987
1.71,4.59114939672646,-0.234980514385258,-0.965259148208654,60.6877282786543,39.2378813555138,19.24455059246,3.06455615118935,-1.10825958953851,2.15470899843461,-1.75759329097752,0.618148034784631,-1.07412107525461,0.0292452010788232,-0.0292452010788232,0.05220768204,0.322455887895266
1.72,4.57945413253205,-0.252253616174013,-0.957524981338681,60.4580689080457,40.6901572992436,20.008619838295,-1.24435848621186,2.14153826480173,-1.70450583046759,-1.80542167649403,0.667190292210542,-1.1157399139441,-0.0292452010788232,0.0292452010788232,-0.05220768204,0.339615020793372
1.73,4.56662700892743,-0.269597358083324,-0.949549112730987,62.1408699846268,39.3147034241244,20.1121589226215,2.81922491395974,-1.06444162775161,2.15608789717635,-1.86506552189875,0.738708048319683,-1.12489584082068,0.0275426543460187,-0.0292452010788232,0.05220768204,0.32201752929389
1.74,4.55332268806681,-0.287409687483656,-0.941144674335447,61.8207914830366,40.761622325403,20.9502318646679,-1.4853873909841,2.18060142823155,-1.70383188211856,-1.91341144762751,0.790001983099767,-1.16787827641099,-0.0292452010788232,0.0292452010788232,-0.05220768204,0.339165909113178
1.75,4.53892370812895,-0.305295644304487,-0.932472749055161,63.50101997387,39.3950375413529,21.0387996837739,2.83162457667984,-1.02313051903171,2.15773198290817,-1.97045163526372,0.862925570617955,-1.1819828424324,0.0292452010788232,-0.0292452010788232,0.05220768204,0.323462131212004
1.76,4.52402269734416,-0.323669040412626,-0.92339810049894,63.2346028670037,40.8358318126415,21.94953463938,-1.47380387264362,2.22131832927134,-1.70239845443414,-2.01917651120999,0.913783889742508,-1.22785819749807,-0.0292452010788232,0.0292452010788232,-0.05220768204,0.33884713950412
1.77,4.50803869553745,-0.342101435159789,-0.914027035956654,64.9104720519347,39.4775129790145,22.0209791316486,2.84340676039847,-0.983389448319319,2.15919626932597,-2.07364856541906,0.98782399802557,-1.24690367765055,0.0292452010788232,-0.0292452010788232,0.05220768204,0.323487771962013
1.78,4.49152527504196,-0.361035064491186,-0.904279204022357,64.6971079202509,40.908877788872,23.0036559333178,-1.46280547450187,2.25825098947587,-1.70113637617712,-2.12259049543411,1.03837667329459,-1.29550743280023,-0.0292452010788232,0.0292246641869175,-0.05220768204,0.337148237379638
1.79,4.4739408939701,-0.38001612590941,-0.894209297846697,66.3658918980615,39.5577810142298,23.0544039350706,2.85457543416811,-0.947347479200041,2.16048380205643,-2.17454846434366,1.11324170639889,-1.31945954301321,0.0292452010788232,-0.0292452010788232,0.05220768204,0.322334035308383
1.8,4.45573649608787,-0.399492966271418,-0.883869789183155,66.0290126458382,40.8833756999973,23.8320689885344,-1.4523581985107,1.88617875774544,-1.70003202396297,-2.22888759488075,1.16361331932638,-1.36183429752806,-0.0292452010788232,0.0254747554925914,-0.05220768204,0.334339775898168
1.81,4.43647491302329,-0.419008770385007,-0.873172448784007,67.508763927301,39.4467803627914,23.5886841919648,2.86068515295304,-1.31212148136352,2.16059996117767,-2.28359515553443,1.23942023593118,-1.38279191640441,0.0292452010788232,-0.0292452010788232,0.05220768204,0.329190212403647
1.82,4.41664602837527,-0.439063196780407,-0.862130866435444,67.2211472993792,40.7706374320624,24.4356928947703,-1.44124596026573,1.93863129853453,-1.69812071925304,-2.33788011064738,1.2893243256794,-1.4299551123653,-0.0292452010788232,0.0292452010788232,-0.05220768204,0.347601047286919
1.83,4.39577528601028,-0.459153920240129,-0.850690316366337,68.7060692697432,39.3485100677017,24.1896289703924,2.87213079796432,-1.26087798224158,2.16256663524494,-2.3897522179492,1.36602260862137,-1.45745634184665,0.0292452010788232,-0.0292452010788232,0.05220768204,0.340970651579498
1.84,4.37431831058886,-0.479799494545985,-0.838917263038429,68.4675302558943,40.6679987080255,25.1063130845929,-1.43073292621471,1.98907446075687,-1.69641977273409,-2.44374496596308,1.41565069573148,-1.50880973689925,-0.0292452010788232,0.0292452010788232,-0.05220768204,0.356117243899116
1.85,4.35183401938265,-0.500480373094928,-0.826711693173749,69.9555885575332,39.2596896809687,24.85502065074,2.88296848052174,-1.21159362327207,2.16432228034684,-2.49287192419289,1.49284274526757,-1.54246243089049,0.0292452010788232,-0.0292452010788232,0.05220768204,0.348616322223466
1.86,4.32874057671089,-0.521724261543341,-0.814186649431226,69.7658708788492,40.5721250816903,25.8415880671471,-1.42079109785572,2.03758377496582,-1.69491922838499,-2.54633380607937,1.54236937496147,-1.59754404482101,-0.0292452010788232,0.0292452010788232,-0.05220768204,0.360904459615587
1.87,4.30462591011817,-0.542996418096188,-0.801203115666759,71.2247506262213,39.177053199186,25.5826629076217,2.84014968344511,-1.16419491146138,2.16587700338574,-2.5927848809171,1.62052182129345,-1.63625027761667,0.0288810933406822,-0.0292452010788232,0.05220768204,0.35301662016351
1.88,4.27987622261666,-0.564833799487905,-0.787914240887903,71.0527425567277,40.4800396327749,26.6376627981972,-1.46340871046271,2.08338217057658,-1.69371507733083,-2.64552139490276,1.67093224264799,-1.69390864369041,-0.0292452010788232,0.0292452010788232,-0.05220768204,0.363582781688124
1.89,4.25412968325556,-0.58671340706341,-0.774140685344542,72.5134612040518,39.0974010398733,26.3706685208249,2.85194971553112,-1.11879160933637,2.16732063614888,-2.68929758439235,1.74886387170472,-1.73846977287329,0.0292452010788232,-0.0292452010788232,0.05220768204,0.356503976283473
1.9,4.22771940028535,-0.609154347822845,-0.760076371684068,72.3895002502455,40.3886979715071,27.493725084619,-1.45247351849805,2.12809674055697,-1.69249860121242,-2.74107730815191,1.79946416697634,-1.79929479998568,-0.0292452010788232,0.0292452010788232,-0.05220768204,0.364554731297906
1.91,4.20028340966292,-0.631598067135264,-0.745516994322227,73.7004665774602,39.0180529230824,27.2164165435231,2.60168177050902,-1.07512128552971,2.16858501190661,-2.7822237465595,1.88151310899467,-1.84484018725062,0.0274515856021045,-0.0292452010788232,0.05220768204,0.357708691025514
1.92,4.1721545194541,-0.654600248373111,-0.730682636947338,73.4725240816356,40.2969480678956,28.3999891327827,-1.69834261414684,2.16690884769892,-1.69193378578966,-2.8330598221414,1.9370450736691,-1.90408982844476,-0.0292452010788232,0.0292452010788232,-0.05220768204,0.368234859890946
1.93,4.14307061814636,-0.677673128031081,-0.715309989637064,74.7934884674394,38.9363814491376,28.1190765500175,2.62260915874307,-1.03401674424529,2.17014776218867,-2.87132472166929,2.01838256822992,-1.95630261313309,0.0292452010788232,-0.0292452010788232,0.05220768204,0.36648476733526
1.94,4.11326221093644,-0.701298614339889,-0.699677738213347,74.6127032305769,40.2028452902726,29.3615937152603,-1.67840279934595,2.20755702953258,-1.69054841488968,-2.92104027680213,2.07429246606211,-2.01880032432256,-0.0292452010788232,0.0292452010788232,-0.05220768204,0.373725179335184
1.95,4.08252258967691,-0.725016935973523,-0.683480390736879,75.941521167338,38.8520533331598,29.0745779810916,2.64257742539838,-0.994448071685083,2.17154827929502,-2.9564740150752,2.15454110667931,-2.07739876612711,0.0292452010788232,-0.0292452010788232,0.05220768204,0.372174389249165
1.96,4.05102379671977,-0.74927404215153,-0.667039347726023,75.8072225395485,40.1036612485294,30.3760968589678,-1.65938312247861,2.24668197911525,-1.68931965840038,-3.00478135008471,2.21102322565097,-2.14279160571965,-0.0292452010788232,0.0292452010788232,-0.05220768204,0.376431406079149
1.97,4.01861788430223,-0.773649816058823,-0.650011856217398,77.1418959114675,38.7623928767814,30.0806362712541,2.6616287840988,-0.956358349468024,2.17279175117251,-3.03742172789655,2.28981109618124,-2.20757880796982,0.0292452010788232,-0.0292452010788232,0.05220768204,0.375459616705815
1.98,3.98538371452096,-0.798537122216249,-0.632810086523421,76.9786078733414,39.9754719332609,31.3217871725721,-1.64124281882171,2.11791090681373,-1.68824226984552,-3.08770695195302,2.34704922651283,-2.27053187633869,-0.0292452010788232,0.0277140519969494,-0.05220768204,0.376956312464272
1.99,3.95126634759724,-0.823572183110482,-0.614998042823405,78.2414584844177,38.6224332483999,30.8991656303485,2.67797714868967,-1.08279357487686,2.17341573674913,-3.12121856883508,2.42424943520362,-2.33691855378856,0.0292452010788232,-0.0292452010788232,0.05220768204,0.381993508086159
2,3.91632296731119,-0.849112510179726,-0.596962912815486,78.1222443237068,39.8210310298972,32.1983678910408,-1.62343096516944,2.16070853584905,-1.68702396474015,-3.16973362208367,2.48214258010005,-2.40372574294798,-0.0292452010788232,0.0292452010788232,-0.05220768204,0.385414664962325
2.01,3.88052110349569,-0.874834958558852,-0.578293311809618,79.3939956207531,38.4789440786144,31.7722579447339,2.69588539912326,-1.04108877907183,2.17466407317581,-3.20043296666258,2.55752213735002,-2.47710060208526,0.0292452010788232,-0.0292452010788232,0.05220768204,0.390119751924051
2.02,3.84385715908159,-0.901039007715944,-0.559408440208327,79.317871162588,39.6606265176127,33.1291748398323,-1.60646173447897,2.20189179511597,-1.68595997612773,-3.24684872610753,2.61628458422761,-2.54723029982537,-0.0292452010788232,0.0292452010788232,-0.05220768204,0.390027838762522
2.03,3.80635982166496,-0.927463057857194,-0.539871781041243,80.5966231442614,38.329307679609,32.6972756940025,2.71295171638738,-1.00095341318552,2.17575730574828,-3.27478570282083,2.68941912878832,-2.62724594517824,0.0292452010788232,-0.0292452010788232,0.05220768204,0.394960244111975
2.04,3.76796137284298,-0.95433635927807,-0.520128249256041,80.5624427625612,39.4916275232498,34.1113686938253,-1.59029708250865,2.24152069268516,-1.68504469572835,-3.31877826486803,2.74925048779427,-2.70028796046829,-0.0292452010788232,0.0292452010788232,-0.05220768204,0.39172973385987
2.05,3.72867306688878,-0.981372031959738,-0.499747651431798,81.6505069793728,38.1709397331284,33.6715556973602,2.38720914908954,-0.962329287005967,2.17670126709839,-3.34399038971446,2.82896041153567,-2.77729810449169,0.026899046999154,-0.0292452010788232,0.05220768204,0.397332674154519
2.06,3.6884450406187,-1.00883205584687,-0.479168633292678,81.4593535873908,39.3152565029767,35.1330753767431,-1.91006525373874,2.27415050297758,-1.68483610070961,-3.38577656144187,2.89914476932285,-2.8442761210688,-0.0292452010788232,0.0292452010788232,-0.05220768204,0.400806132439194
2.07,3.64744896859946,-1.03661582267872,-0.457884058881025,82.5656714415554,38.0022310394711,34.6942085060274,2.41619569265392,-0.926372408170767,2.17824029883502,-3.40774390981181,2.97632823154184,-2.93005784684387,0.0292452010788232,-0.0292452010788232,0.05220768204,0.416251500841319
2.08,3.60539479483803,-1.06478867995514,-0.43654562260443,82.2592916150852,39.1038698489503,35.9481099459868,-1.88215802389644,1.95877029809498,-1.68342889145175,-3.4574468332525,3.04778496916837,-2.98881096474589,-0.0292452010788232,0.026014972646264,-0.05220768204,0.414490745651825
2.09,3.56260573958232,-1.09334500619875,-0.414454578780512,83.2237283124427,37.7716887409568,35.2606162120289,2.44007221699511,-1.23581211803162,2.17849379885639,-3.48640410647146,3.12256059802708,-3.07220020057338,0.0292452010788232,-0.0292452010788232,0.05220768204,0.44193788308041
