Time_s,Height_m,X_m,Y_m,Roll_deg,Pitch_deg,Yaw_deg,p,q,r,u,v,w,tx,ty,tz,Thrust
0.01,0.000981,0,0,-0.728892128279883,0,0,-1.27215675303528,0,0,0,0,-0.0981,-0.00872699532582205,0,0,1.33416
0.02,0.00294140450089111,0,-6.70149189851043e-05,0.999397948728878,0,0,3.01643522733492,0,0,0,-0.00420707507103693,-0.196109838060597,0.0292452010788232,0,0,1.33416
0.03,0.00588178107517639,0,-1.50070425174796e-05,0.250517861474417,0,0,-1.30704232252128,0,0,0,7.14210015963735e-05,-0.294083639594662,-0.0292452010788232,0,0,1.33416
0.04,0.00980103144553886,0,-8.05715915996282e-05,1.95921973868809,0,0,2.98224736923865,0,0,0,-0.00827002472635963,-0.391892623620109,0.0292452010788232,0,0,1.33416
0.05,0.0146957395904123,0,9.0325509754755e-05,1.19114321563445,0,0,-1.34054642345562,0,0,0,0.000345607489093909,-0.489768942444171,-0.0292452010788232,0,0,1.33416
0.06,0.0205710830775191,0,9.18541541517095e-05,2.88103258576492,0,0,2.94941335032299,0,0,0,-0.012060758303465,-0.587410565440866,0.0292452010788232,0,0,1.33416
0.07,0.0274140741691808,0,0.000445701591780925,2.09451980576974,0,0,-1.37272376199297,0,0,0,0.000945560207026852,-0.685212709173354,-0.0292452010788232,0,0,1.33416
0.08,0.0352417027369211,0,0.000577237663539184,3.76634164409751,0,0,2.91787955855639,0,0,0,-0.0154636958305796,-0.782720627962517,0.0292452010788232,0,0,1.33416
0.09,0.0440260529318628,0,0.00117537565517017,2.96212268293567,0,0,-1.40362687792424,0,0,0,0.00198221142799493,-0.880466833493404,-0.0292452010788232,0,0,1.33416
0.1,0.0538012297051774,0,0.00149719849522897,4.61659246372012,0,0,2.88759450494375,0,0,0,-0.0183746899471813,-0.977874674827334,0.0292452010788232,0,0,1.33416
0.11,0.0645192564655412,0,0.00239834476471914,3.79536848616584,0,0,-1.43330623046463,0,0,0,0.0035554551058087,-1.07557844023013,-0.0292452010788232,0,0,1.33416
0.12,0.0762364307408665,0,0.00296819183209035,5.43317335088568,0,0,2.85850873945416,0,0,0,-0.0207000469505118,-1.17291964551781,0.0292452010788232,0,0,1.33416
0.13,0.0888797984322524,0,0.0042285386427231,4.59561775558809,0,0,-1.46181028064442,0,0,0,0.00575508332093778,-1.27059005412544,-0.0292452010788232,0,0,1.33416
0.14,0.102532710152813,0,0.00510169741898326,6.21741763491949,0,0,2.83057477027797,0,0,0,-0.022355637784575,-1.36789775657362,0.0292452010788232,0,0,1.33416
0.15,0.117092525598849,0,0.0067750068950632,5.36417715394122,0,0,-1.48918557043709,0,0,0,0.00866163765480639,-1.46553979143755,-0.0292452010788232,0,0,1.33416
0.16,0.132674300134693,0,0.0080044053363966,6.97060584530556,0,0,2.80374698628115,0,0,0,-0.0232660905067926,-1.56284672030455,0.0292452010788232,0,0,1.33416
0.17,0.149141198951879,0,0.0101421027951896,6.10230160011956,0,0,-1.51547679875397,0,0,0,0.0123471834512896,-1.66046156771805,-0.0292452010788232,0,0,1.33416
0.18,0.166644432967706,0,0.0117783980509928,7.69396780256034,0,0,2.77798158253061,0,0,0,-0.0233640564652418,-1.7577999751494,0.0292452010788232,0,0,1.33416
0.19,0.185008657445888,0,0.0144296631250783,6.81119631822925,0,0,-1.5407268944295,0,0,0,0.016876014266664,-1.85538531629513,-0.0292452010788232,0,0,1.33416
0.2,0.204425496585278,0,0.0165213282983048,8.38868462630782,0,0,2.75323648876859,0,0,0,-0.0225895430874275,-1.9527869228775,0.0292452010788232,0,0,1.33416
0.21,0.224676965823766,0,0.0197331836783092,7.49201880550179,0,0,-1.56497708631628,0,0,0,0.0223052931811001,-2.05033721297034,-0.0292452010788232,0,0,1.33416
0.22,0.245999174886494,0,0.0223265924511763,9.05589066383492,0,0,2.72947130071954,0,0,0,-0.0208893068140534,-2.1478331687167,0.0292452010788232,0,0,1.33416
0.23,0.268127547843452,0,0.0261439901216273,8.14588072227833,0,0,-1.58826697060435,0,0,0,0.0286856370506891,-2.24533990326472,-0.0292452010788232,0,0,1.33416
0.24,0.291346574083382,0,0.0292834991119504,9.69667534227593,0,0,2.70664721411724,0,0,0,-0.0182163003047315,-2.34296076124035,0.0292452010788232,0,0,1.33416
0.25,0.315341306146652,0,0.03374940398951,8.77384970715053,0,0,-1.61063457547461,0,0,0,0.0360616492220433,-2.44041272925104,-0.0292452010788232,0,0,1.33416
0.26,0.340448336271167,0,0.0374774327386074,10.3120849474507,0,0,2.68472696134439,0,0,0,-0.0145291685952576,-2.53818842947767,0.0292452010788232,0,0,1.33416
0.27,0.366298729912232,0,0.0426329036529936,9.37695112022179,0,0,-1.632116423192,0,0,0,0.0444724057131564,-2.63557195359959,-0.0292452010788232,0,0,1.33416
0.28,0.393284741320408,0,0.0469900121765513,10.9031243322605,0,0,2.66367475058134,0,0,0,-0.00979178939754272,-2.73353181524259,0.0292452010788232,0,0,1.33416
0.29,0.420979991349613,0,0.0528742801607317,9.95616971733543,0,0,-1.65274758973979,0,0,0,0.0539518993847467,-2.83083097896201,-0.0292452010788232,0,0,1.33416
0.3,0.449835798105219,0,0.0578992440198877,11.4707585574319,0,0,2.64345620736451,0,0,0,-0.00397285320406431,-2.92900369912098,0.0292452010788232,0,0,1.33416
0.31,0.479365032005648,0,0.0645497878982458,10.5124512580034,0,0,-1.67256176209228,0,0,0,0.0645294461851317,-3.0262005612347,-0.0292452010788232,0,0,1.33416
0.32,0.510081326002609,0,0.0702796707700312,12.0159144672865,0,0,2.62403831845906,0,0,0,0.00295452070997958,-3.1246142189282,0.0292452010788232,0,0,1.33416
0.33,0.541433639782012,0,0.0777322900517014,11.0467040496609,0,0,-1.69159129321962,0,0,0,0.0762300571475649,-3.22168901559164,-0.0292452010788232,0,0,1.33416
0.34,0.574001027524038,0,0.0842025137963691,12.5394822031108,0,0,2.60538937795427,0,0,0,0.011013135900046,-3.32037107975796,0.0292452010788232,0,0,1.33416
0.35,0.607165517488845,0,0.0924913988962947,11.5598004307687,0,0,-1.70986725491431,0,0,0,0.0890747794502509,-3.41730241446696,-0.0292452010788232,0,0,1.33416
0.36,0.64157455287145,0,0.0997358111344355,13.0423166565965,0,0,2.58747893549347,0,0,0,0.0202220411364945,-3.51627975500061,0.0292452010788232,0,0,1.33416
0.37,0.676540343694058,0,0.108893610957343,12.0525781951847,0,0,-1.7274194885259,0,0,0,0.103081009513985,-3.61304477690847,-0.0292452010788232,0,0,1.33416
0.38,0.71278155714604,0,0.116944550182428,13.5252388657242,0,0,2.57027774655412,0,0,0,0.0305968263906216,-3.71234367792043,0.0292452010788232,0,0,1.33416
0.39,0.749537826566065,0,0.127002437115202,12.5258419601298,0,0,-1.74427665368646,0,0,0,0.118262780808439,-3.80891824892253,-0.0292452010788232,0,0,1.33416
0.4,0.787601750878611,0,0.135890795377654,13.9890373553704,0,0,2.55375772469677,0,0,0,0.042149894960118,-3.90856442355557,0.0292452010788232,0,0,1.33416
0.41,0.826137751350603,0,0.146878527743866,12.9803644799831,0,0,-1.76046627510667,0,0,0,0.13463102876334,-4.00492327459373,-0.0292452010788232,0,0,1.33416
0.42,0.866014944495359,0,0.156633810951266,14.4344694248266,0,0,2.53789189570497,0,0,0,0.0548907140070985,-4.10494188084604,0.0292452010788232,0,0,1.33416
0.43,0.906320022069332,0,0.168579792988138,13.4168879080502,0,0,-1.77601478751863,0,0,0,0.152193834932939,-4.20105875789671,-0.0292452010788232,0,0,1.33416
0.44,0.948001087281938,0,0.179230178872966,14.8622623843323,0,0,2.52265435354124,0,0,0,0.0688260455438697,-4.30147441501018,0.0292452010788232,0,0,1.33416
0.45,0.990064697978989,0,0.192161518296093,13.8361250083658,0,0,-1.79094757883908,0,0,0,0.170956652339124,-4.39732221522518,-0.0292452010788232,0,0,1.33416
0.46,1.03354030136161,0,0.203733912107765,15.2731147426416,0,0,2.5080202180472,0,0,0,0.0839601596878664,-4.49815902028189,0.0292452010788232,0,0,1.33416
0.47,1.07735202528462,0,0.217676475332689,14.2387603195089,0,0,-1.80528903162325,0,0,0,0.190922513718145,-4.59370991875014,-0.0292452010788232,0,0,1.33416
0.48,1.12261291115983,0,0.230196563314738,15.6676973475619,0,0,2.49396559431872,0,0,0,0.100295031815582,-4.69499146319419,0.0292452010788232,0,0,1.33416
0.49,1.16816246455872,0,0.245175028407153,14.6254512723308,0,0,-1.81906256287716,0,0,0,0.212092224216232,-4.79021703078787,-0.0292452010788232,0,0,1.33416
0.5,1.2151994687874,0,0.258667329123452,16.0466544813273,0,0,2.48046753368989,0,0,0,0.117830525073808,-4.89196641665129,0.0292452010788232,0,0,1.33416
0.51,1.26247671427953,0,0.274705236551586,14.9968292634209,0,0,-1.83229066229341,0,0,0,0.234464539918461,-4.98683772941216,-0.0292452010788232,0,0,1.33416
0.52,1.31128077573755,0,0.289193150127614,16.4106049125957,0,0,2.46750399626196,0,0,0,0.136564559553207,-5.08907758507564,0.0292452010788232,0,0,1.33416
0.53,1.36027573086653,0,0.306312951391348,15.3535006860639,0,0,-1.84499492897278,0,0,0,0.258036333451373,-5.18356532558613,-0.0292452010788232,0,0,1.33416
0.54,1.41083790125816,0,0.321818806737891,16.7601429067858,0,0,2.45505381491617,0,0,0,0.156493269292399,-5.28631782094815,0.0292452010788232,0,0,1.33416
0.55,1.46154074555811,0,0.340041910949494,15.6960479203702,0,0,-1.85719610669165,0,0,0,0.282802747771315,-5.38039237211989,-0.0292452010788232,0,0,1.33416
0.56,1.51385219772902,0,0.356587011036853,17.0958391964059,0,0,2.44309666075168,0,0,0,0.177611148158705,-5.48367923308377,0.0292452010788232,0,0,1.33416
0.57,1.56625327844698,0,0.375933829528061,16.0250302841979,0,0,-1.86891411777285,0,0,0,0.30875733913584,-5.57731076478179,-0.0292452010788232,0,0,1.33416
0.58,1.62030531334532,0,0.393538494779027,17.4182419129571,0,0,2.43161300989211,0,0,0,0.199911185543019,-5.68115328699967,0.0292452010788232,0,0,1.33416
0.59,1.67439514996074,0,0.414028483808528,16.3409849464181,0,0,-1.88016809561524,0,0,0,0.335892210153305,-5.77431183590616,-0.0292452010788232,0,0,1.33416
0.6,1.73017920238209,0,0.432712093678084,17.7278774819329,0,0,2.42058411160657,0,0,0,0.223384992709519,-5.87873089774313,0.0292452010788232,0,0,1.33416
0.61,1.78594849005004,0,0.454363795312468,16.6444278040144,0,0,-1.89097641593506,0,0,0,0.364198133714778,-5.97138644084858,-0.0292452010788232,0,0,1.33416
0.62,1.84345613329002,0,0.47414482812153,18.0252514823772,0,0,2.40999195769314,0,0,0,0.248022920554881,-6.07640251554984,0.0292452010788232,0,0,1.33416
0.63,1.90089574532339,0,0.496975909361489,16.9358543244498,0,0,-1.90135672677022,0,0,0,0.393664668531371,-6.16852503764412,-0.0292452010788232,0,0,1.33416
0.64,1.9601186948508,0,0.517871980451013,18.310849472404,0,0,2.39981925307468,0,0,0,0.273814169455215,-6.27415820470396,0.0292452010788232,0,0,1.33416
0.65,2.01921968434641,0,0.541899270673008,17.215740354676,0,0,-1.91132597729631,0,0,0,0.424280266928048,-6.36571776022343,-0.0292452010788232,0,0,1.33416
0.66,2.08014980059969,0,0.563927168943593,18.5851377820257,0,0,2.39004938755911,0,0,0,0.30074689181098,-6.47198771596732,0.0292452010788232,0,0,1.33416
0.67,2.14090340130367,0,0.589166695725493,17.4845428981053,0,0,-1.92090044550157,0,0,0,0.456032375480863,-6.56295448553844,-0.0292452010788232,0,0,1.33416
0.68,2.20353269170436,0,0.612342418626177,18.8485642745863,0,0,2.38066640871796,0,0,0,0.328808287839823,-6.66988055293952,0.0292452010788232,0,0,1.33416
0.69,2.26593031820329,0,0.638809442023515,17.7427008608147,0,0,-1.9300957647659,0,0,0,0.488907529027667,-6.76022489494346,-0.0292452010788232,0,0,1.33416
0.7,2.33025093847181,0,0.663148229051899,19.1015590780416,0,0,2.37165499583892,0,0,0,0.357984695113721,-6.86782603270227,0.0292452010788232,0,0,1.33416
0.71,2.39428418578833,0,0.690857274389412,17.9906357682009,0,0,-1.93892694938736,0,0,0,0.522891438531636,-6.95751853016961,-0.0292452010788232,0,0,1.33416
0.72,2.46028844063939,0,0.716373639163551,19.34453528728,0,0,2.36300043490989,0,0,0,0.388261672289269,-7.06581334109148,0.0292452010788232,0,0,1.33416
0.73,2.52594908330355,0,0.745338528404607,18.2287524532545,0,0,-1.94740841909781,0,0,0,0.557969073232042,-7.15482484422091,-0.0292452010788232,0,0,1.33416
0.74,2.59362942659181,0,0.772046289365338,19.5778896386326,0,0,2.35468859459365,0,0,0,0.419624077437742,-7.26383158292961,0.0292452010788232,0,0,1.33416
0.75,2.66090941725278,0,0.802280171119799,18.4574397175801,0,0,-1.95555402260772,0,0,0,0.594124737476636,-7.35213324750986,-0.0292452010788232,0,0,1.33416
0.76,2.73025845163254,0,0.83019248092032,19.8020031576716,0,0,2.34670590315393,0,0,0,0.452056141344093,-7.46186982753881,0.0292452010788232,0,0,1.33416
0.77,2.79914991926916,0,0.861707859149216,18.6770709662383,0,0,-1.96337706021865,0,0,0,0.631342142594497,-7.54943314953864,-0.0292452010788232,0,0,1.33416
0.78,2.87016039542621,0,0.89083723278687,20.0172417813567,0,0,2.33903932629523,0,0,0,0.48554153611076,-7.65991714984248,0.0292452010788232,0,0,1.33416
0.79,2.94062594789964,0,0.923635175930373,18.8880048174497,0,0,-1.97089030554018,0,0,0,0.669604474136526,-7.74355354127032,-0.0292452010788232,0,0,1.31266890498257
0.8,3.01292675799966,0,0.953869754754854,20.2239569555439,0,0,2.33167634588012,0,0,0,0.520137130957738,-7.8195157358449,0.0292452010788232,0,0,1.09419046968601
0.81,3.08403296788218,0,0.987612889927372,19.0905856881531,0,0,-1.97810602634698,0,0,0,0.708207551607146,-7.83870937177319,-0.0292452010788232,0,0,0.879607264774406
0.82,3.15649773909511,0,1.01859076049062,20.4224862088332,0,0,2.32460493948946,0,0,0,0.557365162742293,-7.86111056983141,0.0292452010788232,0,0,0.724075159629243
0.83,3.22729719280375,0,1.05292439562855,19.2851443563767,0,0,-1.98503600460983,0,0,0,0.747084673474059,-7.83297363476474,-0.0292452010788232,0,0,0.562509672536532
0.84,3.29910594617055,0,1.08437741783292,20.6131537036923,0,0,2.31781356079187,0,0,0,0.597183318601659,-7.81673005436495,0.0292452010788232,0,0,0.45470675439672
0.85,3.36891316331708,0,1.11904077723993,19.4719985013386,0,0,-1.99169155573347,0,0,0,0.786808033833955,-7.75415331478048,-0.0292452010788232,0,0,0.332884169143647
0.86,3.43947654948454,0,1.15077274888312,20.796270765755,0,0,2.3112911206907,0,0,0,0.639501424417432,-7.71052091923622,0.0292452010788232,0,0,0.261293104690082
0.87,3.50780300755394,0,1.18557686906045,19.65145322216,0,0,-1.99808354703261,0,0,0,0.827754596876689,-7.62319741733286,-0.0292452010788232,0,0,0.169139513075209
0.88,3.57670498943558,0,1.21744666701326,20.97213639216,0,0,2.30502696921754,0,0,0,0.684200863626799,-7.56065740963827,0.0292452010788232,0,0,0.125048394328426
0.89,3.64322617722041,0,1.25226358973162,19.8238015360369,0,0,-2.00422241547631,0,0,0,0.870160406532282,-7.45759251942062,-0.0292452010788232,0,0,0.066708
0.9,3.71024548280533,0,1.28419510449297,21.1410377397593,0,0,2.29901087814271,0,0,0,0.731107912952274,-7.38766341815903,0.0292452010788232,0,0,0.066708
0.91,3.77488460298971,0,1.31899279999896,19.9893248566842,0,0,-2.01011818472964,0,0,0,0.914258801231801,-7.28389219797729,-0.0292452010788232,0,0,0.066708
0.92,3.8400239935029,0,1.35098620827001,21.3032505939937,0,0,2.29323302427445,0,0,0,0.77984292120974,-7.21519429471684,0.0292452010788232,0,0,0.066708
0.93,3.90278378941801,0,1.38576496665033,20.148293453834,0,0,-2.01578048152054,0,0,0,0.960145687623491,-7.11067229144842,-0.0292452010788232,0,0,0.066708
0.94,3.9660460264473,0,1.41782043812022,21.4590398192005,0,0,2.28768397341937,0,0,0,0.830306485998628,-7.04324002078477,0.0292452010788232,0,0,0.066708
0.95,4.02692924242743,0,1.45258054260575,20.3009668945366,0,0,-2.02121855135851,0,0,0,1.00772396374397,-6.93792482895109,-0.0292452010788232,0,0,0.066708
0.96,4.08831708777492,0,1.48469824007356,21.608659791089,0,0,2.28235466497816,0,0,0,0.882404128870361,-6.8717904088935,0.0292452010788232,0,0,0.066708
0.97,4.14732646898537,0,1.51943996715235,20.4475944669873,0,0,-2.02644127363091,0,0,0,1.05690132584246,-6.76564160298216,-0.0292452010788232,0,0,0.066708
0.98,4.20684268452283,0,1.5516200466505,21.7523548120908,0,0,2.27723639715121,0,0,0,0.936046056318297,-6.70083517664365,0.0292452010788232,0,0,0.066708
0.99,4.26398097679277,0,1.58634366618238,20.5884155875691,0,0,-2.03145717610131,0,0,0,1.10759003671148,-6.59381424365057,-0.0292452010788232,0,0,0.066708
1,4.32162832432121,0,1.61858627710103,21.8903595102608,0,0,2.27232081273021,0,0,0,0.991146932031044,-6.53036401116264,0.0292452010788232,0,0,0.066708
1.01,4.37689827398136,0,1.65329205243347,20.7236601917757,0,0,-2.03627444883389,0,0,0,1.15970670483373,-6.4224342836173,-0.0292452010788232,0,0,0.066708
1.02,4.4326795150944,0,1.68559733764582,22.0228992223834,0,0,2.26759988545229,0,0,0,1.04762565993386,-6.3603666249884,0.0292452010788232,0,0,0.066708
1.03,4.48608386881957,0,1.72028552573073,20.8535491096558,0,0,-2.04090095756626,0,0,0,1.21317207389625,-6.25149321468811,-0.0292452010788232,0,0,0.066708
1.04,4.54000176477082,0,1.75265362171875,22.1501903619059,0,0,2.26306590689457,0,0,0,1.10540517755343,-6.19083280427031,0.0292452010788232,0,0,0.066708
1.05,4.59154326942705,0,1.78732447322997,20.9782944263879,0,0,-2.04534425655283,0,0,0,1.26791082223241,-6.08098253691646,-0.0292452010788232,0,0,0.066708
1.06,4.64360058100127,0,1.81975551021055,22.2724407723033,0,0,2.25871147388773,0,0,0,1.16441225925348,-6.02175245009377,0.0292452010788232,0,0,0.066708
1.07,4.69328198349762,0,1.85440926966187,21.0980998285774,0,0,-2.04961160089952,0,0,0,1.32385137176276,-5.91089380099342,-0.0292452010788232,0,0,0.066708
1.08,4.74348147088571,0,1.88690337171292,22.389850066449,0,0,2.25452947642797,0,0,0,1.22457732890153,-5.85311561365867,0.0292452010788232,0,0,0.066708
1.09,4.79130551803051,0,1.92154027757631,21.2131609368401,0,0,-2.05370995841009,0,0,0,1.38092570601823,-5.74121864462859,-0.0292452010788232,0,0,0.066708
1.1,4.83964994070818,0,1.95409756276284,22.5026099525465,0,0,2.25051308606761,0,0,0,1.2858342815414,-5.68491252597252,0.0292452010788232,0,0,0.066708
1.11,4.88561937906977,0,1.98871784758673,21.3236656252157,0,0,-2.05764602096324,0,0,0,1.43906919684126,-5.57194882355964,-0.0292452010788232,0,0,0.066708
1.12,4.93211149567984,0,2.02133842808662,22.6109045471545,0,0,2.24665574476552,0,0,0,1.34812031366013,-5.51713362265575,0.0292452010788232,0,0,0.066708
1.13,4.97622907145157,0,2.05594231861404,21.4297943279315,0,0,-2.06142621543929,0,0,0,1.49822043937417,-5.40307623776686,-0.0292452010788232,0,0,0.066708
1.14,5.0208716396899,0,2.08862630084328,22.7149106758161,0,0,2.242951154179,0,0,0,1.41137576165278,-5.34976956439936,0.0292452010788232,0,0,0.066708
1.15,5.06314009855939,0,2.12321401812979,21.5317203340199,0,0,-2.06505671421408,0,0,0,1.55832109495729,-5.23459295341491,-0.0292452010788232,0,0,0.066708
1.16,5.10593587506432,0,2.15596150286715,22.8147981617826,0,0,2.2393932653797,0,0,0,1.4755439481039,-5.18281125356244,0.0292452010788232,0,0,0.066708
1.17,5.14635796208685,0,2.19053326239821,21.6296100702671,0,0,-2.0685434452374,0,0,0,1.61931574157359,-5.06649122099292,-0.0292452010788232,0,0,0.066708
1.18,5.18730970233206,0,2.22334434490916,22.9107301033049,0,0,2.23597626897685,0,0,0,1.5405710355187,-5.01624984735006,0.0292452010788232,0,0,0.066708
1.19,5.22588816180804,0,2.25790035671699,21.7236233729589,0,0,-2.07189210171219,0,0,0,1.68115173149011,-4.89876349007904,-0.0292452010788232,0,0,0.066708
1.2,5.26499861999883,0,2.29077512687669,23.0028631399429,0,0,2.23269458563156,0,0,0,1.60640588715245,-4.85007676796847,0.0292452010788232,0,0,0.066708
1.21,5.30173619535516,0,2.32531559565639,21.8139137488642,0,0,-2.07510815139057,0,0,0,1.74377905576038,-4.73140242111383,-0.0292452010788232,0,0,0.066708
1.22,5.33900812432801,0,2.3582541380717,23.0913477083301,0,0,2.22954285694674,0,0,0,1.6729999346009,-4.68428371011539,0.0292452010788232,0,0,0.066708
1.23,5.37390755800338,0,2.39277926329653,21.9006286258836,0,0,-2.0781968455017,0,0,0,1.80715021526591,-4.56440089452934,-0.0292452010788232,0,0,0.066708
1.24,5.40934370912877,0,2.42578165742695,23.1763282878091,0,0,2.22651593671784,0,0,0,1.74030705182908,-4.51886264612777,0.0292452010788232,0,0,0.066708
1.25,5.44240774246271,0,2.46029163346269,21.983909593773,0,0,-2.08116322732602,0,0,0,1.87122009798797,-4.39775201754623,-0.0292452010788232,0,0,0.066708
1.26,5.47601086555111,0,2.49335795374005,23.2579436363407,0,0,2.22360888253,0,0,0,1.80828343532975,-4.35380582907673,0.0292452010788232,0,0,0.066708
1.27,5.50724223867668,0,2.52785296995831,22.063892635334,0,0,-2.0840121404301,0,0,0,1.93594586221438,-4.23144912892063,-0.0292452010788232,0,0,0.066708
1.28,5.53901508188763,0,2.56098328590517,23.3363270170705,0,0,2.220816947688,0,0,0,1.87688749011681,-4.1891057940704,0.0292452010788232,0,0,0.066708
1.29,5.56841653362777,0,2.59546352679563,22.1407083484492,0,0,-2.08674823657526,0,0,0,2.00128682539877,-4.06548580189371,-0.0292452010788232,0,0,0.066708
1.3,5.59836184338203,0,2.62865790314238,23.4116064159234,0,0,2.21813557346575,0,0,0,1.94607972127178,-4.02475535799856,0.0292452010788232,0,0,0.066708
1.31,5.62593611114936,0,2.66312354842372,22.214482159325,0,0,-2.08937598331307,0,0,0,2.06720435840222,-3.8998558455718,-0.0292452010788232,0,0,0.066708
1.32,5.65405663204393,0,2.6963820452242,23.4839047505817,0,0,2.21556038166269,0,0,0,2.01582263077488,-3.86074761792893,0.0292452010788232,0,0,0.066708
1.33,5.67980645174402,0,2.73083326995387,22.2853345272902,0,0,-2.09189967128006,0,0,0,2.13366178485951,-3.73455330494135,-0.0292452010788232,0,0,0.066708
1.34,5.70610492647014,0,2.76415594269946,23.5533400711875,0,0,2.21308716745504,0,0,0,2.08608061936434,-3.69707594834325,0.0292452010788232,0,0,0.066708
1.35,5.73003303240804,0,2.79859291738208,22.3533811414839,0,0,-2.09432342120356,0,0,0,2.20062428542379,-3.56957245970217,-0.0292452010788232,0,0,0.066708
1.36,5.75451220167201,0,2.83197981711434,23.6200257530974,0,0,2.21071189253001,0,0,0,2.15681989317955,-3.53373399738124,0.0292452010788232,0,0,0.066708
1.37,5.77662132646206,0,2.86640270780863,22.4187331097555,0,0,-2.09665119063009,0,0,0,2.268058806655,-3.40490782208313,-0.0292452010788232,0,0,0.066708
1.38,5.79928392890871,0,2.89985388123026,23.6840706820036,0,0,2.20843067849201,0,0,0,2.22800837495545,-3.37071568224292,0.0292452010788232,0,0,0.066708
1.39,5.81957680338749,0,2.93426284965465,22.4814971400836,0,0,-2.09888678038733,0,0,0,2.3359339743279,-3.24055413378749,-0.0292452010788232,0,0,0.066708
1.4,5.84042557552644,0,2.96777833923883,23.7455794317251,0,0,2.20623980052992,0,0,0,2.29961561954639,-3.20801518388331,0.0292452010788232,0,0,0.066708
1.41,5.85890492866883,0,3.0021735428755,22.5417757148107,0,0,-2.10103384079018,0,0,0,2.40422001094666,-3.07650636219906,-0.0292452010788232,0,0,0.066708
1.42,5.8780383640147,0,3.03579313356194,23.8046524349577,0,0,2.20413568133513,0,0,0,2.37161273356828,-3.0559949775101,0.0292452010788232,0,0,0.137210647458278
1.43,5.89487404251098,0,3.07025083376926,22.5996672579787,0,0,-2.10309587760108,0,0,0,2.47310670700827,-2.93112179136664,-0.0292452010788232,0,0,0.121138103909476
1.44,5.91247343743526,0,3.10404709441573,23.8613861472622,0,0,2.20211488526045,0,0,0,2.44378577621844,-2.92355441779335,0.0292452010788232,0,0,0.213997621996603
1.45,5.92785995606589,0,3.13865507627845,22.6552662960371,0,0,-2.10507625775426,0,0,0,2.5425689765755,-2.80711892180683,-0.0292452010788232,0,0,0.187997495565188
1.46,5.94410213698102,0,3.1726986826518,23.9158732045595,0,0,2.20017411271032,0,0,0,2.5160516163058,-2.81020284355401,0.0292452010788232,0,0,0.275268164356347
1.47,5.95819465675995,0,3.20752718609236,22.7086636121885,0,0,-2.10697821485339,0,0,0,2.6125151617557,-2.70018558360047,-0.0292452010788232,0,0,0.241283727573433
1.48,5.97322139692415,0,3.24187499623395,23.9682025743879,0,0,2.19831019475318,0,0,0,2.58841525847523,-2.71216818515051,0.0292452010788232,0,0,0.324678655983976
1.49,5.98614498818241,0,3.2769808013643,22.7599463946202,0,0,-2.10880485445138,0,0,0,2.68287230037974,-2.60702203068224,-0.0292452010788232,0,0,0.284182742010156
1.5,6.00007122410934,0,3.31167905636552,24.018459701171,0,0,2.19652008794715,0,0,0,2.66087771523207,-2.62656034707167,0.0292452010788232,0,0,0.36500249647963
1.51,6.0119278896753,0,3.34710859181841,22.8091983788677,0,0,-2.1105591591213,0,0,0,2.75358168372398,-2.52509661568848,-0.0292452010788232,0,0,0.31911160140017
1.52,6.0248479524436,0,3.38219535229942,24.0667266457335,0,0,2.19480086937063,0,0,0,2.73343705668708,-2.55115849899892,0.0292452010788232,0,0,0.398344109816927
1.53,6.03572195491826,0,3.41798706071585,22.8564999845389,0,0,-2.11224399332628,0,0,0,2.82459551942482,-2.45246067522082,-0.0292452010788232,0,0,0.347904829041232
1.54,6.04771429832795,0,3.45349406197239,24.1130822192913,0,0,2.19314973184974,0,0,0,2.80608922842092,-2.4842499127535,0.0292452010788232,0,0,0.426301064937632
1.55,6.0576762032407,0,3.48968020077601,22.9019284466256,0,0,-2.11386210809675,0,0,0,2.89587442042135,-2.38760827004855,-0.0292452010788232,0,0,0.371955569138078
1.56,6.06880699366592,0,3.525634265831,24.1576021121363,0,0,2.19156397937468,0,0,0,2.87882868426574,-2.42450784724164,0.0292452010788232,0,0,0.450086887712665
1.57,6.07791674021935,0,3.5622422787584,22.9455579416137,0,0,-2.11541614552231,0,0,0,2.96738551174422,-2.32936990456583,-0.0292452010788232,0,0,0.392322519178633
1.58,6.08824258436215,0,3.59866639525236,24.2003590172245,0,0,2.19004102269764,0,0,0,2.95164887227265,-2.37089901325999,0.0292452010788232,0,0,0.470624093637247
1.59,6.09655181972274,0,3.63571995764331,22.9874597086002,0,0,-2.11690864306582,0,0,0,3.03910099982774,-2.27683198638494,-0.0292452010788232,0,0,0.409810932780953
1.6,6.1061218393683,0,3.67263409914215,24.2414227488713,0,0,2.188578375105,0,0,0,3.02454260488478,-2.32261344553222,0.0292452010788232,0,0,0.488614661205241
1.61,6.11367569512088,0,3.71015391529341,23.027702165614,0,0,-2.1183420377066,0,0,0,3.11099708840081,-2.22927578453463,-0.0292452010788232,0,0,0.425033980007792
1.62,6.12253310719605,0,3.74757566829275,24.2808603567449,0,0,2.18717364835703,0,0,0,3.0975023382728,-2.27901134848541,0.0292452010788232,0,0,0.504593415957525
1.63,6.12937155317798,0,3.78558008039137,23.0663510213301,0,0,-2.11971866991961,0,0,0,3.18305315436048,-2.18613115814359,-0.0292452010788232,0,0,0.438459228195614
1.64,6.13755487496037,0,3.82352512360965,24.3187362353467,0,0,2.18582454878828,0,0,0,3.17052038078317,-2.23958279984314,0.0292452010788232,0,0,0.518968469243805
1.65,6.14371375283889,0,3.86203057747387,23.1034693823599,0,0,-2.12104078749698,0,0,0,3.25525111891364,-2.1469414740343,-0.0292452010788232,0,0,0.450443851667038
1.66,6.15125772305359,0,3.90051304885345,24.3551122291558,0,0,2.18452887356246,0,0,0,3.24358904635607,-2.20391719426332,0.0292452010788232,0,0,0.532051851089583
1.67,6.15676953714264,0,3.93953445084606,23.1391178562928,0,0,-2.12231054921829,0,0,0,3.32757496559445,-2.11133700023515,-0.0292452010788232,0,0,0.461261303846582
1.68,6.16370582164722,0,3.97856722918262,24.3900477336101,0,0,2.18328450707557,0,0,0,3.31670076545321,-2.17168006539399,0.0292452010788232,0,0,0.544082715390931
1.69,6.1686003456368,0,4.01811822040375,23.1733546506581,0,0,-2.12353002837544,0,0,0,3.40001036894528,-2.0790147204027,-0.0292452010788232,0,0,0.47112152249047
1.7,6.17495807971334,0,4.05771314206141,24.4235997920881,0,0,2.18208941750157,0,0,0,3.38984816336526,-2.14259549751576,0.0292452010788232,0,0,0.555244918984145
1.71,6.17926282373627,0,4.0978063096515,23.2062356679664,0,0,-2.12470121615796,0,0,0,3.47254440674249,-2.04972301257902,-0.0292452010788232,0,0,0.480186236598436
1.72,6.18506903038102,0,4.13797433590781,24.4558231890503,0,0,2.1809416534747,0,0,0,3.46302411363421,-2.1164327718311,0.0292452010788232,0,0,0.565680339253714
1.73,6.18880960205686,0,4.17862137652232,23.2378145969894,0,0,-2.12582602490429,0,0,0,3.54516533544134,-2.02325001326778,-0.0292452010788232,0,0,0.48858056316656
1.74,6.19408951609818,0,4.21937272335159,24.4867705394928,0,0,2.17983934090329,0,0,0,3.53622177262657,-2.09299622112246,0.0292452010788232,0,0,0.575498963975109
1.75,6.19728990102979,0,4.26058457024573,23.268143000423,0,0,-2.12690629122427,0,0,0,3.61786241359007,-1.99941477380209,-0.0292452010788232,0,0,0.496401793763642
1.76,6.20206722166796,0,4.30192880951112,24.5164923748577,0,0,2.17878067990971,0,0,0,3.60943459994881,-2.07211751544839,0.0292452010788232,0,0,0.584786536369248
1.77,6.20475000268606,0,4.34371573192003,23.2972703990807,0,0,-2.12794377899798,0,0,0,3.69062576175957,-1.97806053260005,-0.0292452010788232,0,0,0.503726052614112
1.78,6.20904709156985,0,4.38566187078752,24.5450372255422,0,0,2.17776394189148,0,0,0,3.68265636833583,-2.05364979010767,0.0292452010788232,0,0,0.593610348422218
1.79,6.21123362134267,0,4.42803355219728,23.3252443527515,0,0,-2.12894018225585,0,0,0,3.76344625037443,-1.95904959098056,-0.0292452010788232,0,0,0.510613342509674
1.8,6.21507165914956,0,4.47059009594605,24.5724517001396,0,0,2.17678746669876,0,0,0,3.75588116581063,-2.03746316992169,0.0292452010788232,0,0,0.602023631659131
1.81,6.2167821972328,0,4.51355569626302,23.352110537857,0,0,-2.12989712794471,0,0,0,3.83631540895789,-1.94225940448651,-0.0292452010788232,0,0,0.517111369615487
1.82,6.22018130857971,0,4.55673069842209,24.598780561543,0,0,2.17584965992368,0,0,0,3.82910339226156,-2.02344135205705,0.0292452010788232,0,0,0.610068885588332
1.83,6.22143513130094,0,4.60029890384283,23.3779128220323,0,0,-2.13081617858429,0,0,0,3.90922535189552,-1.92757959578736,-0.0292452010788232,0,0,0.523258443361106
1.84,6.22441448543452,0,4.64410000663835,24.6240668000348,0,0,2.1749489902969,0,0,0,3.90231775207589,-2.0114789915387,0.0292452010788232,0,0,0.617780401491394
1.85,6.22522997497597,0,4.68827907010715,23.4026933357542,0,0,-2.13169883481854,0,0,0,3.98216871701726,-1.91490966652211,-0.0292452010788232,0,0,0.529085675744733
1.86,6.22780786789157,0,4.73271353748696,24.6483517034823,0,0,2.17408398718733,0,0,0,3.97551924407291,-2.00147969565459,0.0292452010788232,0,0,0.625186176715953
1.87,6.22820258539848,0,4.77751131193359,23.4264925411328,0,0,-2.13254653786592,0,0,0,4.05513861419317,-1.90415723943651,-0.0292452010788232,0,0,0.534618649950453
1.88,6.23039650767347,0,4.82258605689063,24.6716749247533,0,0,2.1732532382009,0,0,0,4.04870314967461,-1.99335448044756,0.0292452010788232,0,0,0.632309367276603
1.89,6.23038725405103,0,4.86801002291332,23.4493492979783,0,0,-2.13336067187262,0,0,0,4.1281285818121,-1.89523670305999,-0.0292452010788232,0,0,0.539878686954074
1.9,6.23221394764619,0,4.91373163041573,24.6940745464619,0,0,2.17245538687434,0,0,0,4.12186502001523,-1.98702057808258,0.0292452010788232,0,0,0.639169390705432
1.91,6.23181681482697,0,4.95978891967458,23.4713009272528,0,0,-2.13414256617265,0,0,0,4.20113254951802,-1.88806816213817,-0.0292452010788232,0,0,0.544883807571059
1.92,6.23329232132755,0,5.00616366619624,24.7155871431509,0,0,2.1716891304603,0,0,0,4.19500066250979,-1.98240051083306,0.0292452010788232,0,0,0.645782763931674
1.93,6.23252273612363,0,5.05286108147854,23.492383272008,0,0,-2.13489349745841,0,0,0,4.27414480596079,-1.88257662049177,-0.0292452010788232,0,0,0.549649463753632
1.94,6.23366243829961,0,5.09989495188547,24.736247841011,0,0,2.17095321780026,0,0,0,4.26810612726211,-1.97942136784542,0.0292452010788232,0,0,0.652163740398582
1.95,6.23253520044811,0,5.14723898457392,23.5126307559109,0,0,-2.13561469186524,0,0,0,4.347159970605,-1.87869134073727,-0.0292452010788232,0,0,0.554189095035516
1.96,6.23335385856452,0,5.19493768694117,24.7560903752359,0,0,2.17024644728156,0,0,0,4.34117769358676,-1.9780142363025,0.0292452010788232,0,0,0.658324795045991
1.97,6.23188317419191,0,5.24293453244134,23.5320764394513,0,0,-2.13630732697357,0,0,0,4.42017296885821,-1.87634533875828,-0.0292452010788232,0,0,0.558514552460096
1.98,6.23239495816009,0,5.29130351123761,24.7751471451054,0,0,2.1695676648754,0,0,0,4.41421185683847,-1.97811375031665,0.0292452010788232,0,0,0.664276993988256
1.99,6.23059446960036,0,5.3399590827883,23.5507520739234,0,0,-2.13697253373161,0,0,0,4.4931790099442,-1.87547498100633,-0.0292452010788232,0,0,0.562636422056268
2,6.23081298780335,0,5.38900353076155,24.7934492668881,0,0,2.16891576225253,0,0,0,4.48720531568162,-1.97965772975265,0.0292452010788232,0,0,0.670030276781647
2.01,6.22869580048519,0,5.43832347195122,23.5686881532705,0,0,-2.13761139830202,0,0,0,4.56617356707167,-1.87601966042755,-0.0292452010788232,0,0,0.566564272147662
2.02,6.22863412591487,0,5.48804834096937,24.8110266246482,0,0,2.16828967497352,0,0,0,4.5601549598863,-1.98258688789772,0.0292452010788232,0,0,0.675593672408347
2.03,6.2262128328658,0,5.53803803720527,23.5859139638754,0,0,-2.13822496383545,0,0,0,4.63915235954386,-1.87792153265697,-0.0292452010788232,0,0,0.570306842889949
2.04,6.2258835270616,0,5.5884480482464,24.827907919041,0,0,2.16768838075076,0,0,0,4.63305785870348,-1.98684459198453,0.0292452010788232,0,0,0.680975464979525
2.05,6.22317023145051,0,5.63911263736537,23.6024576323803,0,0,-2.13881423217376,0,0,0,4.71211133652718,-1.88112529855027,-0.0292452010788232,0,0,0.573872191969787
2.06,6.22258536661644,0,5.69021228980611,24.8441207141759,0,0,2.16711089777922,0,0,0,4.70591124984654,-1.99237666442702,0.0292452010788232,0,0,0.686183321279044
2.07,6.21959170265978,0,5.74155667197196,23.6183461716125,0,0,-2.13938016548587,0,0,0,4.78504666225254,-1.88557802247652,-0.0292452010788232,0,0,0.577267807020503
2.08,6.21876288225165,0,5.7933502522884,24.8596914826234,0,0,2.16655628313335,0,0,0,4.77871252908762,-1.99913121554871,0.0292452010788232,0,0,0.691224389330346
2.09,6.21550003473545,0,5.84537909928751,23.633605524691,0,0,-2.13992368783882,0,0,0,4.85795470246584,-1.89122897833674,-0.0292452010788232,0,0,0.580500692751029
2.1,6.21443841274476,0,5.89787068925675,24.8746456486404,0,0,2.16602363122746,0,0,0,4.85145924046453,-2.00705850079532,0.0292452010788232,0,0,0.696105374943304
2.11,6.21091713535913,0,5.95058845327822,23.6482606073877,0,0,-2.14044568670659,0,0,0,4.93083201197747,-1.89802951719824,-0.0292452010788232,0,0,0.583577438846994
2.12,6.209633434471,0,6.00378193774892,24.8890076296831,0,0,2.16551207233704,0,0,0,4.92414906708419,-2.01611079709962,0.0292452010788232,0,0,0.700832601512286
2.13,6.20586406711141,0,6.05719285971631,23.6623353488096,0,0,-2.1409470144192,0,0,0,5.00367532318624,-1.90593295189348,-0.0292452010788232,0,0,0.586504273235459
2.14,6.20436859587614,0,6.11109193400128,24.9028008762765,0,0,2.16502077117868,0,0,0,4.99677982250225,-2.02624229433684,0.0292452010788232,0,0,0.705412057060116
2.15,6.20036108103348,0,6.16520005150854,23.6758527304711,0,0,-2.14142848955439,0,0,0,5.07648153547379,-1.91489445503823,-0.0292452010788232,0,0,0.589287104193464
2.16,6.19866375016262,0,6.21980822844128,24.9160479103049,0,0,2.1645489255462,0,0,0,5.06934944265467,-2.03740899877175,0.0292452010788232,0,0,0.709849431555867
2.17,6.1944276484995,0,6.27461738333433,23.6888348238189,0,0,-2.14189089827423,0,0,0,5.1492477053812,-1.92487096776184,-0.0292452010788232,0,0,0.591931553938819
2.18,6.19253798637529,0,6.3299380000224,24.9287703617857,0,0,2.16409576500076,0,0,0,5.14185597831412,-2.04956864612879,0.0292452010788232,0,0,0.714150146802215
2.19,6.18808249156719,0,6.38545184565922,23.7013028262701,0,0,-2.14233499560876,0,0,0,5.22197103749253,-1.93582111707824,-0.0292452010788232,0,0,0.594442985704126
2.2,6.18600965903757,0,6.44148806996103,24.9409890041878,0,0,2.16366054961292,0,0,0,5.21429758804307,-2.06268062247035,0.0292452010788232,0,0,0.718319380633531
2.21,6.18134361194272,0,6.49771007817701,23.7132770958242,0,0,-2.14276150668884,0,0,0,5.29464887596025,-1.94770514030846,-0.0292452010788232,0,0,0.596826525812087
2.22,6.17909641646096,0,6.55446491492326,24.9527237883509,0,0,2.16324256875444,0,0,0,5.28667253161485,-2.07670589148864,0.0292452010788232,0,0,0.722362086745766
2.23,6.17422831867205,0,6.61139838272338,23.724777184304,0,0,-2.14317112793015,0,0,0,5.36727869661589,-1.96048481533179,-0.0292452010788232,0,0,0.599087081904414
2.24,6.17181522783013,0,6.6688746797008,24.9639938750611,0,0,2.16284113993795,0,0,0,5.35897916387416,-2.09160692713546,0.0292452010788232,0,0,0.726283011161065
2.25,6.16675325465202,0,6.72652273569658,23.73582186928,0,0,-2.14356452817031,0,0,0,5.43985809961599,-1.97412339572031,-0.0292452010788232,0,0,0.601229358199512
2.26,6.16418240914925,0,6.78472318940846,24.9748176663375,0,0,2.1624556077026,0,0,0,5.43121592900947,-2.10734765075684,0.0292452010788232,0,0,0.730086706088899
2.27,6.15893442204025,0,6.8430888000148,23.7464291847309,0,0,-2.14394234976095,0,0,0,5.51238480257921,-1.98858555002303,-0.0292452010788232,0,0,0.603257868444169
2.28,6.15621364812253,0,6.90201596123078,24.9852128354794,0,0,2.16208534254377,0,0,0,5.50338135521013,-2.12389337208385,0.0292452010788232,0,0,0.733777541762921
2.29,6.15078720663165,0,6.96110193663541,23.75661645049,0,0,-2.14430520961661,0,0,0,5.58485663417539,-2.00383730462673,-0.0292452010788232,0,0,0.60517694706538
2.3,6.1479240280318,0,7.02075821574105,24.9951963559233,0,0,2.16172973988522,0,0,0,5.57547404968287,-2.14121073357087,0.0292452010788232,0,0,0.737359716694288
2.31,6.14232640126015,0,7.0805672156579,23.766400300525,0,0,-2.14465370022198,0,0,0,5.65727152813093,-2.01984598974279,-0.0292452010788232,0,0,0.606990758907814
2.32,6.13932805066657,0,7.14095488781331,25.0047845289577,0,0,2.16138821909196,0,0,0,5.64749269400304,-2.15926765768023,0.0292452010788232,0,0,0.740837266677296
2.33,6.13356622827775,0,7.20148942702943,23.7757967100986,0,0,-2.14498839059938,0,0,0,5.72962751761894,-2.03658018816283,-0.0292452010788232,0,0,0.608703307851016
2.34,6.13043965835507,0,7.26261063714526,25.0139930103398,0,0,2.16106022252211,0,0,0,5.71943603977771,-2.17803329679318,0.0292452010788232,0,0,0.744214072803635
2.35,6.12452036115702,0,7.32387309087018,23.7848210218531,0,0,-2.14530982723784,0,0,0,5.80192273000509,-2.05400968649741,-0.0292452010788232,0,0,0.61031844453113
2.36,6.12127225514038,0,7.38572985840824,25.0228368358592,0,0,2.16074521461642,0,0,0,5.79130290459881,-2.19747798548998,0.0292452010788232,0,0,0.747493868681254
2.37,6.11520194525877,0,7.44772246743375,23.7934879708622,0,0,-2.14561853498541,0,0,0,5.87415538192293,-2.07210542866655,-0.0292452010788232,0,0,0.611839873339263
2.38,6.11183872714135,0,7.51031669103918,25.0313304458881,0,0,2.1604426810238,0,0,0,5.86309216826606,-2.21757319498994,0.0292452010788232,0,0,0.750680247008017
2.39,6.10562361780296,0,7.57304156671664,23.8018117086904,0,0,-2.14591501790618,0,0,0,5.94632377465477,-2.09083947145309,-0.0292452010788232,0,0,0.613271158828755
2.4,6.10215146213474,0,7.63637502868778,25.0394877089598,0,0,2.16015212776145,0,0,0,5.93480276926063,-2.23829148957878,0.0292452010788232,0,0,0.75377666561567
2.41,6.09579752707786,0,7.69983415772997,23.8098058265007,0,0,-2.14619976010328,0,0,0,6.01842628979618,-2.11018494196198,-0.0292452010788232,0,0,0.614615731633234
2.42,6.09222236839218,0,7.76390852833176,25.0473219444139,0,0,2.15987308040829,0,0,0,6.00643370145171,-2.25960648487958,0.0292452010788232,0,0,0.756786453073166
2.43,6.08573535091986,0,7.82810377744539,23.8174833772457,0,0,-2.14647322650938,0,0,0,6.09046138518395,-2.1301159968538,-0.0292452010788232,0,0,0.615876893974343
2.44,6.08206289280343,0,7.89292061907185,25.054845944144,0,0,2.15960508333031,0,0,0,6.07798401101953,-2.28149280784539,0.0292452010788232,0,0,0.759712813918392
2.45,6.07544831449422,0,7.95785373942688,23.8248568969812,0,0,-2.1467358636458,0,0,0,6.16242759106912,-2.15060778324044,-0.0292452010788232,0,0,0.617057824820451
2.46,6.07168403831501,0,8.02341451061771,25.0620719934847,0,0,2.15934769893662,0,0,0,6.14945279357938,-2.30392605836911,0.0292452010788232,0,0,0.762558833572077
2.47,6.06494720740527,0,8.08908714215904,23.8319384253352,0,0,-2.14698810035162,0,0,0,6.23432350651791,-2.17163640114584,-0.0292452010788232,0,0,0.61816158474435
2.48,6.06109638071204,0,8.1553932014755,25.0690118912716,0,0,2.15910050696492,0,0,0,6.22083919149232,-2.32688277241955,0.0292452010788232,0,0,0.765327482976009
2.49,6.05424240016266,0,8.22180687708243,23.8387395251663,0,0,-2.14723034848388,0,0,0,6.30614779602507,-2.19317886744689,-0.0292452010788232,0,0,0.619191120517693
2.5,6.05031008476908,0,8.28885948684704,25.0756769691062,0,0,2.1588631037953,0,0,0,6.29214239134928,-2.35034038662348,0.0292452010788232,0,0,0.768021622988851
2.51,6.04334386002929,0,8.35601563634571,23.8452713014441,0,0,-2.14746300359011,0,0,0,6.37789918632501,-2.21521308121921,-0.0292452010788232,0,0,0.620149269472263
2.52,6.03933491979495,0,8.42381596625046,25.0820781098584,0,0,2.15863510179119,0,0,0,6.36336162161627,-2.3742772042222,0.0292452010788232,0,0,0.770644008566074
2.53,6.03226116627473,0,8.49171592028431,23.8515444193814,0,0,-2.14768644555413,0,0,0,6.44957646338736,-2.23771779042,-0.0292452010788232,0,0,0.621038763652066
2.54,6.02818027459475,0,8.56026505087157,25.0882257654369,0,0,2.15841612866645,0,0,0,6.43449615042915,-2.39867236233758,0.0292452010788232,0,0,0.773197292745307
2.55,6.02100352485727,0,8.62891004463446,23.8575691218483,0,0,-2.14790103921638,0,0,0,6.52117846958468,-2.2606725598466,-0.0292452010788232,0,0,0.621862233775803
2.56,6.01685517187164,0,8.69820897065507,25.0941299738545,0,0,2.15820582687745,0,0,0,6.50554528352751,-2.42350580048883,0.0292452010788232,0,0,0.775684030454445
2.57,6.00957978255642,0,8.76760014749177,23.8633552460975,0,0,-2.1481071349696,0,0,0,6.59270410102076,-2.28405774031432,-0.0292452010788232,0,0,0.622622213025664
2.58,6.00536828208981,0,8.83764978114415,25.0998003756187,0,0,2.15800385303929,0,0,0,6.5765083623177,-2.44875823030545,0.0292452010788232,0,0,0.778106682156787
2.59,5.99799844057668,0,8.90778819602265,23.8689122398265,0,0,-2.14830506933099,0,0,0,6.66415230500897,-2.3078544390015,-0.0292452010788232,0,0,0.623321140675746
2.6,5.9937279368188,0,8.97858937007701,25.1052462294731,0,0,2.15780987736513,0,0,0,6.64738476205597,-2.47441110638592,0.0292452010788232,0,0,0.78046761734509
2.61,5.9862676676427,0,9.04947599293694,23.8742491766038,0,0,-2.14849516549168,0,0,0,6.73552207769078,-2.33204449091325,-0.0292452010788232,0,0,0.623961365571199
2.62,5.98194214157912,0,9.1210294637484,25.1104764275149,0,0,2.15762358312766,0,0,0,6.71817389014328,-2.50044659825496,0.0292452010788232,0,0,0.7827691178946
2.63,5.97439531260498,0,9.19266518272974,23.8793747706847,0,0,-2.1486777338444,0,0,0,6.80681246178541,-2.35661043141836,-0.0292452010788232,0,0,0.624545149467681
2.64,5.97001858820766,0,9.26497163314399,25.1154995097141,0,0,2.15744466614199,0,0,0,6.78887518452398,-2.52684756337508,0.0292452010788232,0,0,0.785013381283665
2.65,5.96238891657435,0,9.33735725770011,23.88429739124,0,0,-2.14885307249035,0,0,0,6.87802254446209,-2.3815354698167,-0.0292452010788232,0,0,0.625074670239255
2.66,5.95796466676098,0,9.4104172998553,25.1203236778583,0,0,2.15727283426896,0,0,0,6.85948811218107,-2.55359752117069,0.0292452010788232,0,0,0.787202523689403
2.67,5.95025572460314,0,9.48355356375425,23.8890250760213,0,0,-2.14902146772592,0,0,0,6.94915145532711,-2.40680346389647,-0.0292452010788232,0,0,0.625552024962
2.68,5.94578747697382,0,9.5573677417825,25.124956808944,0,0,2.1571078069381,0,0,0,6.93001216772142,-2.58068062802498,0.0292452010788232,0,0,0.789338582965016
2.69,5.93800269692967,0,9.63125530600029,23.8935655444853,0,0,-2.14918319451017,0,0,0,7.02019836451839,-2.43239889544293,-0.0292452010788232,0,0,0.625979232879677
2.7,5.93349383928931,0,9.70582409863228,25.1294064680387,0,0,2.15694931468954,0,0,0,7.00044687204472,-2.60808165321217,0.0292452010788232,0,0,0.791423521504623
2.71,5.92563651980262,0,9.7804635541419,23.8979262103981,0,0,-2.14933851691375,0,0,0,7.09116248090071,-2.45830684666215,-0.0292452010788232,0,0,0.626358238257178
2.72,5.92109030547695,0,9.85578737721772,25.1336799206333,0,0,2.15679709873402,0,0,0,7.07079177109035,-2.63578595572918,0.0292452010788232,0,0,0.793459229000862
2.73,5.91316361590065,0,9.93117924767737,23.9021141939407,0,0,-2.14948768855016,0,0,0,7.16204305035548,-2.48451297748477,-0.0292452010788232,0,0,0.626690913126963
2.74,5.90858316885364,0,10.0072584565669,25.1377841445051,0,0,2.15665091053035,0,0,0,7.14104643465694,-2.66377946199242,0.0292452010788232,0,0,0.795447525100124
2.75,5.90059015436255,0,10.0834032009109,23.9061363333351,0,0,-2.14963095298976,0,0,0,7.232839354159,-2.51100350371649,-0.0292452010788232,0,0,0.62697905993322
2.76,5.89597847412243,0,10.1602380928467,25.1417258411116,0,0,2.15651051137954,0,0,0,7.21121045528966,-2.69204864436718,0.0292452010788232,0,0,0.797390161959791
2.77,5.88792206044222,0,10.2371361077826,23.9099991960094,0,0,-2.14976854415756,0,0,0,7.30355070744394,-2.53776517600347,-0.0292452010788232,0,0,0.627224414078151
2.78,5.88328202684335,0,10.3147269241081,25.1455114465324,0,0,2.1563756720351,0,0,0,7.28128344723065,-2.72058050049813,0.0292452010788232,0,0,0.799288826711623
2.79,5.87516502480249,0,10.3923785465228,23.9137090893219,0,0,-2.14990068671511,0,0,0,7.37417645773884,-2.56478525958202,-0.0292452010788232,0,0,0.627428646374441
2.8,5.8704994025498,0,10.4707254748597,25.1491471419786,0,0,2.1562461723287,0,0,0,7.35126504542833,-2.74936253341089,0.0292452010788232,0,0,0.801145143835069
2.81,5.86232451246109,0,10.5491309841379,23.9172720708592,0,0,-2.15002759642738,0,0,0,7.44471598358103,-2.59205151478326,-0.0292452010788232,0,0,0.627593365407732
2.82,5.85763595552375,0,10.6282341604737,25.1526388638851,0,0,2.15612180081067,0,0,0,7.42115490460179,-2.77838273235608,0.0292452010788232,0,0,0.802960677444104
2.83,5.84940577140172,0,10.7073937807324,23.9206939583276,0,0,-2.15014948051504,0,0,0,7.51516869319848,-2.61955217826474,-0.0292452010788232,0,0,0.627720119812676
2.84,5.84469682724224,0,10.7872532914325,25.1559923136042,0,0,2.15600235440476,0,0,0,7.49095269835645,-2.80762955436783,0.0292452010788232,0,0,0.804736933490984
2.85,5.83641384086258,0,10.867167193673,23.9239803390522,0,0,-2.15026653799284,0,0,0,7.58553402325658,-2.64727594494175,-0.0292452010788232,0,0,0.627810400465965
2.86,5.83168695450757,0,10.9477830774195,25.1592129667143,0,0,2.15588763807652,0,0,0,7.56065811834781,-2.83709190651058,0.0292452010788232,0,0,0.806475361890072
2.87,5.82335355931435,0,11.0284513816011,23.9271365791002,0,0,-2.15037895999451,0,0,0,7.65581143766596,-2.67521195059276,-0.0292452010788232,0,0,0.627865642599513
2.88,5.81861107727264,0,11.1098236312604,25.1623060819613,0,0,2.15577746451488,0,0,0,7.63027087348997,-2.86675912878823,0.0292452010788232,0,0,0.808177358564808
2.89,5.81022957213898,0,11.1912464082978,23.9301678320422,0,0,-2.15048693008492,0,0,0,7.72600042644787,-2.70334975511351,-0.0292452010788232,0,0,0.627887227836851
2.9,5.80547374617291,0,11.2733749727196,25.1652767098445,0,0,2.15567165382628,0,0,0,7.69979068920621,-2.89662097769142,0.0292452010788232,0,0,0.809844267420665
2.91,5.7970463390206,0,11.3555522464075,23.9330790473678,0,0,-2.15059062455975,0,0,0,7.7961005046537,-2.73167932639628,-0.0292452010788232,0,0,0.627876486155638
2.92,5.79227932977577,0,11.438437032158,25.1681297008636,0,0,2.15557003324095,0,0,0,7.76921730671872,-2.92666761035913,0.0292452010788232,0,0,0.811477382246887
2.93,5.78380814105888,0,11.5213687810241,23.9358749785664,0,0,-2.15069021273337,0,0,0,7.86611121133571,-2.76019102481075,-0.0292452010788232,0,0,0.627834697779021
2.94,5.77903202155767,0,11.6050096540558,25.1708697134383,0,0,2.1554724368308,0,0,0,7.83855048237526,-2.95688956933189,0.0292452010788232,0,0,0.813077948549605
2.95,5.77051908761544,0,11.6886958131455,23.9385601908896,0,0,-2.15078585721532,0,0,0,7.93603210856586,-2.78887558826461,-0.0292452010788232,0,0,0.627763094998528
2.96,5.76573584661932,0,11.7730926004048,25.173501221515,0,0,2.15537870523849,0,0,0,7.90778998701019,-2.98727776787479,0.0292452010788232,0,0,0.814647165318855
2.97,5.75718312290293,0,11.857533063001,23.9411390688048,0,0,-2.15087771417578,0,0,0,8.00586278050025,-2.81772411782228,-0.0292452010788232,0,0,0.627662863930979
2.98,5.75239466814839,0,11.9426855539768,25.1760285218719,0,0,2.15528868541724,0,0,0,7.97693560533779,-3.01782347584919,0.0292452010788232,0,0,0.816186186731922
2.99,5.74380403232641,0,12.0278801732548,23.9436158231546,0,0,-2.15096593360061,0,0,0,8.07560283248654,-2.84672806386122,-0.0292452010788232,0,0,0.627535146211879
3,5.73901219363919,0,12.11378812147,25.1784557411346,0,0,2.1552022303809,0,0,0,8.04598713537597,-3.04851830611292,0.0292452010788232,0,0,0.817696123795308
3.01,5.73038544858622,0,12.199736712092,23.9459944980321,0,0,-2.15105065953622,0,0,0,8.14525189021194,-2.87587921274602,-0.0292452010788232,0,0,0.627381040627586
3.02,5.7255919808784,0,12.2863998365394,25.1807868425146,0,0,2.15511919896401,0,0,0,8.11494438789837,-3.07935420142939,0.0292452010788232,0,0,0.819178045927551
3.03,5.71693085755106,0,12.3731021761894,23.9482789773844,0,0,-2.15113203032477,0,0,0,8.21480959888977,-2.90516967400121,-0.0292452010788232,0,0,0.627201604688494
3.04,5.71213744370528,0,12.460520162715,25.1830256322799,0,0,2.15503945559122,0,0,0,8.1838071859132,-3.11032342186687,0.0292452010788232,0,0,0.820632982485038
3.05,5.70344360390994,0,12.5479759935766,23.9504729913544,0,0,-2.1512101788301,0,0,0,8.28427562248221,-2.93459186796421,-0.0292452010788232,0,0,0.626997856145382
3.06,5.69865185755489,0,12.6361484962106,25.1851757659705,0,0,2.154962870056,0,0,0,8.25257536416724,-3.14141853266986,0.0292452010788232,0,0,0.822061924232851
3.07,5.68992689661104,0,12.7243575263901,23.9525801223712,0,0,-2.15128523265462,0,0,0,8.35364964295763,-2.964138513901,-0.0292452010788232,0,0,0.626770774450971
3.08,5.68513836479239,0,12.813284168629,25.1872407543669,0,0,2.15488931730797,0,0,0,8.32124876867337,-3.17263239258504,0.0292452010788232,0,0,0.82346582476262
3.09,5.67638381409544,0,12.9022460735255,23.9546038109997,0,0,-2.15135731434769,0,0,0,8.42293135958047,-2.99380261856719,-0.0292452010788232,0,0,0.626521302168686
3.1,5.67159997984593,0,12.9919264495663,25.1892239692229,0,0,2.15481867724877,0,0,0,8.38982725626045,-3.20395814262521,0.0292452010788232,0,0,0.824845601859284
3.11,5.66281730933339,0,13.0816408731901,23.9565473615586,0,0,-2.15142654160571,0,0,0,8.492120488232,-3.02357746519822,-0.0292452010788232,0,0,0.62625034633051
3.12,5.65803959414591,0,13.1720745491185,25.1911286487706,0,0,2.15475083453591,0,0,0,8.45831069414408,-3.2353891952548,0.0292452010788232,0,0,0.826202138818598
3.13,5.64923021467023,0,13.2625411053607,23.9584139475153,0,0,-2.15149302746431,0,0,0,8.56121676076052,-3.05345660291278,-0.0292452010788232,0,0,0.625958779745763
3.14,5.64445998087744,0,13.3537276202946,25.1929579030081,0,0,2.15468567839448,0,0,0,8.52669895951707,-3.26691922398158,0.0292452010788232,0,0,0.827536285717124
3.15,5.63562524648933,0,13.444945894149,23.9602066166681,0,0,-2.15155688048292,0,0,0,8.63021992435924,-3.08343383651423,-0.0292452010788232,0,0,0.625647442262598
3.16,5.63086379955329,0,13.5368847613393,25.1947147187779,0,0,2.15462310243624,0,0,0,8.5949919391586,-3.29854215333953,0.0292452010788232,0,0,0.828848860636438
3.17,5.62200500969849,0,13.6288543100788,23.9619282961224,0,0,-2.15161820492198,0,0,0,8.69912974097073,-3.11350321667534,-0.0292452010788232,0,0,0.625317141983867
3.18,5.61725360041372,0,13.7215450179692,25.1964019646432,0,0,2.15456300448596,0,0,0,8.66318952906084,-3.33025214924836,0.0292452010788232,0,0,0.830140650843123
3.19,5.60837200204668,0,13.8142653722774,23.9635817970704,0,0,-2.15167710091326,0,0,0,8.76794598671635,-3.14365903049218,-0.0292452010788232,0,0,0.62496865643902
3.2,5.60363182865968,0,13.9077073855239,25.1980223955722,0,0,2.1545052864145,0,0,0,8.73129163407229,-3.36204360973579,0.0292452010788232,0,0,0.831412413926202
3.21,5.59472861827716,0,14.0011780505846,23.9651698193809,0,0,-2.15173366462329,0,0,0,8.8366684513496,-3.17389579239357,-0.0292452010788232,0,0,0.624602733713609
3.22,5.5900008285257,0,14.0953708110374,25.1995786574364,0,0,2.15444985397868,0,0,0,8.79929816755662,-3.39391115600925,0.0292452010788232,0,0,0.832664878893461
3.23,5.5810771541232,0,14.1895912675829,23.9666949560078,0,0,-2.15178798841039,0,0,0,8.90529693773219,-3.20420823539281,-0.0292452010788232,0,0,0.624220093537904
3.24,5.57636284719827,0,14.2845341952304,25.2010732913308,0,0,2.15439661666731,0,0,0,8.86720905106653,-3.42584962386395,0.0292452010788232,0,0,0.833898747228157
3.25,5.56741981015229,0,14.3795039005507,23.9681596972243,0,0,-2.15184016097553,0,0,0,8.97383126133162,-3.23459130266925,-0.0292452010788232,0,0,0.623821428336096
3.26,5.56272003858548,0,14.4751963944287,25.202508737723,0,0,2.15434548755348,0,0,0,8.93502421403148,-3.45785405541502,0.0292452010788232,0,0,0.835114693907507
3.27,5.55375869546428,0,14.5709147833417,23.9695664346886,0,0,-2.15189026750709,0,0,0,9.04227124973944,-3.26504013946736,-0.0292452010788232,0,0,0.623407404237479
3.28,5.54907446694362,0,14.667356222408,25.203887340438,0,0,2.15429638315255,0,0,0,9.00274359345874,-3.48991969114164,0.0292452010788232,0,0,0.83631336838434
3.29,5.54009583124912,0,14.7638227081939,23.9709174653494,0,0,-2.15193838982,0,0,0,9.11061674220894,-3.29555008530157,-0.0292452010788232,0,0,0.622978662050981
3.3,5.53542811036576,0,14.8610124521695,25.2052113504856,0,0,2.1542492232859,0,0,0,9.07036713364712,-3.52204196223157,0.0292452010788232,0,0,0.83749539553318
3.31,5.52643315420925,0,14.9582264274696,23.972214995196,0,0,-2.15198460648932,0,0,0,9.17886758921168,-3.32611666645557,-0.0292452010788232,0,0,0.622535818204351
3.32,5.52178286413779,0,15.0561638176485,25.2064829297352,0,0,2.15420393094997,0,0,0,9.13789478591248,-3.55421648321507,0.0292452010788232,0,0,0.838661376562057
3.33,5.51277251985184,0,15.1541246553298,23.9734611428606,0,0,-2.15202899297853,0,0,0,9.24702365201168,-3.35673558876518,-0.0292452010788232,0,0,0.622079465649263
3.34,5.50814054396662,0,15.2528090153579,25.2077041544466,0,0,2.15416043219054,0,0,0,9.20532650832471,-3.58643904487741,0.0292452010788232,0,0,0.83981188989128
3.35,5.49911570565555,0,15.3515160693447,23.9746579430778,0,0,-2.15207162176277,0,0,0,9.31508480225664,-3.38740273067432,-0.0292452010788232,0,0,0.621610174733547
3.36,5.49450288908537,0,15.4509467059691,25.2088770186594,0,0,2.15411865598199,0,0,0,9.27266226545535,-3.61870560743961,0.0292452010788232,0,0,0.840947492000278
3.37,5.48546441411669,0,15.5503993120436,23.9758073500063,0,0,-2.15211256244715,0,0,0,9.38305092158539,-3.41811413655378,-0.0292452010788232,0,0,0.621128494041727
3.38,5.48087156524025,0,15.6505755158337,25.2100034374494,0,0,2.15407853411129,0,0,0,9.33990202813552,-3.65101229399755,0.0292452010788232,0,0,0.842068718243727
3.39,5.47182027567911,0,15.7507729924053,23.9769112404205,0,0,-2.15215188188044,0,0,0,9.45092190125075,-3.44886601027329,-0.0292452010788232,0,0,0.620634951204996
3.4,5.46724816756335,0,15.8516940384461,25.2110852500553,0,0,2.15404000106667,0,0,0,9.4070457732235,-3.68335538420976,0.0292452010788232,0,0,0.843176083638001
3.41,5.45818485155228,0,15.9526356872924,23.9779714167743,0,0,-2.15218964426416,0,0,0,9.51869764175724,-3.47965470901726,-0.0292452010788232,0,0,0.620130053681713
3.42,5.45363422333583,0,16.0543008358513,25.212124222882,0,0,2.15400299393062,0,0,0,9.47409348338159,-3.71573130822469,0.0292452010788232,0,0,0.844270083619017
3.43,5.44455963642171,0,16.1559859428299,23.9789896101444,0,0,-2.15222591125749,0,0,0,9.58637805251288,-3.51047673733528,-0.0292452010788232,0,0,0.619614289509488
3.44,5.44003119464541,0,16.2583944399987,25.2131220523847,0,0,2.15396745227716,0,0,0,9.54104514686173,-3.74813664083858,0.0292452010788232,0,0,0.845351194772507
3.45,5.43094606105571,0,16.3608222757324,23.9799674830571,0,0,-2.15226074207789,0,0,0,9.65396305149448,-3.54132874141857,-0.0292452010788232,0,0,0.619088128029848
3.46,5.42644048094221,0,16.4639733540438,25.2140803678392,0,0,2.15393331807317,0,0,0,9.60790075729956,-3.78056809587534,0.0292452010788232,0,0,0.846419875537671
3.47,5.4173454948124,0,16.5671431745796,23.9809066322025,0,0,-2.15229419359779,0,0,0,9.72145256492588,-3.57220750359404,-0.0292452010788232,0,0,0.618552020586483
3.48,5.41286342149683,0,16.6710360536011,25.2150007340016,0,0,2.15390053558366,0,0,0,9.67466031351644,-3.81302252078012,0.0292452010788232,0,0,0.847476566885181
3.49,5.40375924805073,0,16.7749471010434,23.9818085910417,0,0,-2.15232632043751,0,0,0,9.78884652696856,-3.6031099370278,-0.0292452010788232,0,0,0.618006401198005
3.5,5.39930129776414,0,16.8795809879479,25.215884653664,0,0,2.15386905128074,0,0,0,9.74132381932905,-3.84549689141866,0.0292452010788232,0,0,0.848521692970446
3.51,5.39018857444904,0,16.9842324910681,23.9826748323109,0,0,-2.15235717505437,0,0,0,9.85614487942403,-3.6340330806303,-0.0292452010788232,0,0,0.617451687206126
3.52,5.38575533565647,0,17.0896065811824,25.2167335701078,0,0,2.15383881375621,0,0,0,9.80789128336635,-3.87798830707481,0.0292452010788232,0,0,0.849555661763012
3.53,5.37663467323469,0,17.1949977560048,23.9835067704258,0,0,-2.15238680782841,0,0,0,9.92334757144762,-3.66497409415572,-0.0292452010788232,0,0,0.616888279900159
3.54,5.37222670772958,0,17.3011112333378,25.2175488694604,0,0,2.15380977363766,0,0,0,9.87436271889341,-3.91049398563865,0.0292452010788232,0,0,0.850578865652955
3.55,5.3630986913281,0,17.4072412837031,23.9843057637913,0,0,-2.1524152671446,0,0,0,9.99045455927306,-3.69593025348817,-0.0292452010788232,0,0,0.616316565118646
3.56,5.35871653528463,0,17.5140933214529,25.2183318829587,0,0,2.1537818835078,0,0,0,9.94073814364189,-3.94301125897829,0.0292452010788232,0,0,0.851591682035088
3.57,5.3495817254044,0,17.6209614395597,23.9850731170196,0,0,-2.15244259947186,0,0,0,10.0574658059475,-3.72689894610785,-0.0292452010788232,0,0,0.615736913828977
3.58,5.34522589038937,0,17.7285512006018,25.2190838891224,0,0,2.15375509782708,0,0,0,10.0070175796469,-3.97553756848836,0.0292452010788232,0,0,0.852594473871769
3.59,5.33608482387577,0,17.8361565675278,23.9858100830601,0,0,-2.15246884943896,0,0,0,10.1243812810767,-3.75787766673039,-0.0292452010788232,0,0,0.615149682685752
3.6,5.3317557978215,0,17.944483204884,25.219806115842,0,0,2.15372937285932,0,0,0,10.0732010530899,-4.00807046080863,0.0292452010788232,0,0,0.85358759023509
3.61,5.32260898879748,0,18.0528249910865,23.9865178652453,0,0,-2.15249405990737,0,0,0,10.191200960579,-3.78886401311298,-0.0292452010788232,0,0,0.614555214568669
3.62,5.31830723693734,0,18.1618876483759,25.2204997423836,0,0,2.15370466660028,0,0,0,10.1392885941474,-4.04060758370635,0.0292452010788232,0,0,0.854571366829152
3.63,5.30915517770054,0,18.2709650141737,23.987197619256,0,0,-2.15251827204123,0,0,0,10.2579248264497,-3.81985568202087,-0.0292452010788232,0,0,0.613953839100662
3.64,5.30488114346832,0,18.3807628260464,25.2211659013141,0,0,2.1536809387091,0,0,0,10.2052802368452,-4.0731466821163,0.0292452010788232,0,0,0.855546126493192
3.65,5.29572430535364,0,18.4905749220822,23.9878504550079,0,0,-2.15254152537459,0,0,0,10.3245528665334,-3.85085046534845,-0.0292452010788232,0,0,0.61334587314701
3.66,5.29147841124826,0,18.6011070146361,25.2218056803509,0,0,2.15365815044241,0,0,0,10.271176018918,-4.10568559433247,0.0292452010788232,0,0,0.856512179686184
3.67,5.28231724545714,0,18.7116529823218,23.988477438464,0,0,-2.15256385787594,0,0,0,10.3910850743046,-3.88184624638895,-0.0292452010788232,0,0,0.612731621296061
3.68,5.27809989387397,0,18.8229184735033,25.2224201241379,0,0,2.15363626459108,0,0,0,10.336975981674,-4.13822224834581,0.0292452010788232,0,0,0.857469824953629
3.69,5.26893483227163,0,18.9341974454474,23.9890795933753,0,0,-2.15258530601025,0,0,0,10.4575214486574,-3.91284099624722,-0.0292452010788232,0,0,0.612111376322303
3.7,5.26474640630167,0,19.0461954454364,25.2230102359509,0,0,2.15361524541946,0,0,0,10.4026801698648,-4.17075465832251,0.0292452010788232,0,0,0.85841934937716
3.71,5.25557786218352,0,19.1582065458554,23.989657902952,0,0,-2.15260590479843,0,0,0,10.5238619937017,-3.94383277039032,-0.0292452010788232,0,0,0.611485419632332
3.72,5.2514187263817,0,19.2709361574355,25.2235769793361,0,0,2.15359505860704,0,0,0,10.4682886315592,-4.20328092121753,0.0292452010788232,0,0,0.859361029007553
3.73,5.24224709521008,0,19.3836785025491,23.9902133114695,0,0,-2.1526256878746,0,0,0,10.5901067185683,-3.97481970533059,-0.0292452010788232,0,0,0.610854021694406
3.74,5.23811759633377,0,19.4971388214636,25.2241212796833,0,0,2.15357567119239,0,0,0,10.5338014180224,-4.23579921351836,0.0292452010788232,0,0,0.860295129281782
3.75,5.2289432564462,0,19.6106115198742,23.9907467258098,0,0,-2.15264468754096,0,0,0,10.6562556372196,-4.00580001543629,-0.0292452010788232,0,0,0.61021744245212
3.76,5.22484372416516,0,19.7248016351678,25.2246440257367,0,0,2.15355705151936,0,0,0,10.5992185835988,-4.26830778811397,0.0292452010788232,0,0,0.861221905424661
3.77,5.21566703745512,0,19.8390037882257,23.9912590169421,0,0,-2.15266293482053,0,0,0,10.7223087682687,-4.03677198986505,-0.0292452010788232,0,0,0.609575931722818
